     2.11           OBSERVATION DATA    G (GPS)             RINEX VERSION / TYPE
clockShift          gpsops              20161027 000656 UTC PGM / RUN BY / DATE
teqc  2016Apr1      gpsops              20161027 00:06:55UTCCOMMENT
Linux 2.4.21-27.ELsmp|Opteron|gcc -static|Linux x86_64|=+   COMMENT
BIT 2 OF LLI FLAGS DATA COLLECTED UNDER A/S CONDITION       COMMENT
USN7                                                        MARKER NAME
40451S009                                                   MARKER NUMBER
GGN                 USNO                                    OBSERVER / AGENCY
RT920012203         ASHTECH Z-XII3T     IL01-1D04-MCF-12MX  REC # / TYPE / VERS
762-11615           TPSCR.G5        TPSH                    ANT # / TYPE
  1112162.1360 -4842854.6620  3985497.0649                  APPROX POSITION XYZ
        0.0000        0.0000        0.0000                  ANTENNA: DELTA H/E/N
     1     1                                                WAVELENGTH FACT L1/2
     7    L1    L2    P1    P2    C1    S1    S2            # / TYPES OF OBSERV
    30.0000                                                 INTERVAL
                                                            COMMENT
This data is provided as a public service by NASA/JPL.      COMMENT
No warranty is expressed or implied regarding suitability   COMMENT
for use.  For further information, contact:                 COMMENT
Dave Stowers, NASA/JPL m/s 238-600                          COMMENT
4800 Oak Grove Drive, Pasadena CA 91109 USA                 COMMENT
                                                            COMMENT
Forced Modulo Decimation to 30 seconds                      COMMENT
 SNR is mapped to RINEX snr flag value [0-9]                COMMENT
  L1 & L2: min(max(int(snr_dBHz/6), 0), 9)                  COMMENT
pseudorange smoothing corrections not applied               COMMENT
clockShift applied 470.29 L1, 481.68 L2 (ns)                COMMENT
  2016    10    26     0     0    0.0000000     GPS         TIME OF FIRST OBS
                                                            END OF HEADER
 16 10 26  0  0  0.0000000  0  8G24G31G32G25G14G10G18G12
  -7099319.27246  -5264138.10246  23590331.1094   23590330.0834   23590329.779
        40.4004         37.8004
 -12004392.31147  -9325733.00446  22704205.4044   22704205.7754   22704204.640
        43.6004         40.6004
 -23615747.28348 -18386076.32347  20796618.3544   20796618.1444   20796617.643
        50.5004         47.3004
 -11063121.00547  -8610612.61346  22710041.4324   22710042.6754   22710041.691
        43.4004         40.6004
 -16249043.53847 -12651000.89146  22233089.8934   22233087.8664   22233090.248
        44.8004         41.8004
 -25577416.99348 -19910181.74148  20229448.2744   20229448.4654   20229448.592
        51.0004         48.0004
 -19685452.35247 -14605597.42347  21283979.0024   21283977.1884   21283980.000
        46.5004         43.3004
 -14845511.59247 -11137697.15746  22449784.7894   22449782.9134   22449783.608
        44.2004         41.4004
 16 10 26  0  0 30.0000000  0  8G24G31G32G25G14G10G18G12
  -6998723.36346  -5185751.69346  23609473.3814   23609472.6194   23609472.163
        40.3004         37.6004
 -12102547.61947  -9402217.63846  22685529.5664   22685526.9114   22685529.620
        43.7004         41.1004
 -23639943.07748 -18404930.16447  20792013.9424   20792014.0094   20792013.807
        50.5004         47.5004
 -11144847.48147  -8674295.54846  22694489.1474   22694489.9344   22694488.718
        43.4004         40.4004
 -16303890.68747 -12693738.87846  22222653.3314   22222651.9124   22222653.753
        44.8004         41.9004
 -25565139.39348 -19900614.77047  20231784.5914   20231784.8434   20231784.377
        51.0004         47.8004
 -19623165.43347 -14557062.17347  21295831.3534   21295829.9384   21295831.664
        46.5004         43.3004
 -14869685.60847 -11156534.03246  22445184.5554   22445182.8484   22445185.341
        44.2004         41.2004
 16 10 26  0  1  0.0000000  0  8G24G31G32G25G14G10G18G12
  -6897999.74946  -5107265.74346  23628641.5854   23628638.9244   23628639.603
        40.1004         37.6004
 -12200418.16147  -9478480.30546  22666904.4554   22666902.7864   22666904.960
        44.1004         41.2004
 -23663911.11648 -18423606.54347  20787453.0654   20787453.1454   20787452.964
        50.5004         47.5004
 -11226236.44447  -8737715.47546  22679000.5834   22679002.5314   22679000.616
        43.4004         40.4004
 -16358595.92547 -12736366.27746  22212242.7874   22212241.6824   22212243.096
        44.9004         41.9004
 -25552354.66448 -19890652.64648  20234217.2654   20234217.7114   20234217.047
        50.8004         48.0004
 -19560488.46747 -14508223.01147  21307758.5694   21307756.8944   21307759.346
        46.5004         43.3004
 -14893272.92847 -11174913.74146  22440696.0494   22440694.2184   22440695.527
        44.2004         41.1004
 16 10 26  0  1 30.0000000  0  9G24G31G32G01G25G14G10G18G12
  -6797151.04546  -5028682.31546  23647831.8954   23647831.3954   23647831.076
        40.1004         37.6004
 -12298002.34347  -9554519.86946  22648334.8584   22648332.9164   22648334.202
        44.4004         41.2004
 -23687651.27248 -18442105.34647  20782935.0684   20782935.7554   20782934.601
        50.5004         47.3004
   -215238.06845   -151004.44745          .000    24815880.3804   24815880.451
        34.7004         35.7004
 -11307284.62947  -8800869.85246  22663577.2084   22663579.0614   22663577.633
        43.2004         40.4004
 -16413159.68647 -12778883.43446  22201859.6104   22201858.2164   22201860.577
        44.9004         41.9004
 -25539062.25848 -19880294.92847  20236747.0664   20236747.3374   20236747.017
        51.0004         47.8004
 -19497422.47947 -14459080.70047  21319760.0694   21319757.3744   21319761.009
        46.3004         43.2004
 -14916272.04147 -11192835.09946  22436319.6184   22436316.9224   22436319.635
        44.1004         41.2004
 16 10 26  0  2  0.0000000  0  9G24G31G32G01G25G14G10G18G12
  -6696179.41446  -4950003.13346  23667045.8094   23667045.1774   23667046.974
        40.3004         37.8004
 -12395298.44247  -9630334.96246  22629820.0324   22629818.6914   22629820.440
        44.2004         41.2004
 -23711163.40948 -18460426.47447  20778460.9824   20778461.3334   20778460.572
        50.5004         47.5004
   -281547.78746   -202674.36246  24803261.1594   24803263.2954   24803258.505
        37.5004         36.0004
 -11387988.74647  -8863756.16146  22648219.6544   22648221.3094   22648221.362
        43.2004         40.4004
 -16467581.38647 -12821289.90146  22191503.3694   22191501.6274   22191504.037
        44.9004         41.8004
 -25525261.65248 -19869541.20548  20239373.2194   20239373.2604   20239372.954
        51.0004         48.0004
 -19433968.30147 -14409635.88447  21331834.6254   21331832.5824   21331835.319
        46.3004         43.2004
 -14938681.66447 -11210297.11946  22432055.5484   22432052.3044   22432053.853
        44.1004         41.1004
 16 10 26  0  2 30.0000000  0  9G24G31G32G01G25G14G10G18G12
  -6595086.69746  -4871229.57546  23686283.7874   23686282.0234   23686282.894
        40.3004         37.8004
 -12492304.47247  -9705924.00846  22611359.5364   22611358.8094   22611359.429
        44.2004         41.4004
 -23734447.39948 -18478569.83247  20774030.3054   20774030.5284   20774030.436
        50.5004         47.5004
   -347423.29746   -254005.92945  24790725.3084   24790726.5194   24790726.080
        37.8004         35.7004
 -11468345.65047  -8926371.89446  22632929.2954   22632930.7344   22632929.108
        43.6004         40.9004
 -16521861.44547 -12863585.99946  22181173.8804   22181172.6464   22181174.613
        44.8004         41.8004
 -25510952.35448 -19858391.10048  20242096.3224   20242096.2134   20242096.795
        51.0004         48.0004
 -19370126.43347 -14359888.99947  21343983.3094   21343981.2454   21343984.102
        46.2004         43.2004
 -14960500.33747 -11227298.64246  22427903.1814   22427901.4384   22427903.311
        44.1004         41.4004
 16 10 26  0  3  0.0000000  0  9G24G31G32G01G25G14G10G18G12
  -6493875.50046  -4792363.68646  23705543.5654   23705542.4474   23705542.451
        40.1004         37.4004
 -12589018.65047  -9781285.63946  22592955.8444   22592954.8554   22592956.522
        44.6004         41.8004
 -23757503.09348 -18496535.29147  20769642.9534   20769643.3474   20769643.058
        50.5004         47.5004
   -412862.48846   -304997.47345  24778273.9634   24778274.5504   24778273.269
        37.8004         35.7004
 -11548352.06747  -8988714.52646  22617703.7184   22617706.1294   22617704.345
        43.7004         40.9004
 -16575999.64747 -12905771.55147  22170871.7054   22170870.7964   22170872.439
        44.9004         42.1004
 -25496133.89148 -19846844.25448  20244916.1174   20244916.1354   20244915.764
        51.0004         48.0004
 -19305898.04347 -14309840.91747  21356205.5914   21356204.4594   21356206.611
        46.2004         43.3004
 -14981726.50947 -11243838.50146  22423864.6434   22423862.4834   22423864.752
        44.2004         41.2004
 16 10 26  0  3 30.0000000  0  9G24G31G32G01G25G14G10G18G12
  -6392547.97046  -4713407.19746  23724823.8584   23724825.2864   23724822.958
        39.7004         37.1004
 -12685439.41547  -9856418.61446  22574608.1964   22574606.4024   22574608.117
        44.8004         41.8004
 -23780330.40648 -18514322.79147  20765298.8094   20765299.1834   20765298.487
        50.5004         47.3004
   -477863.40746   -355647.50645  24765904.5044   24765904.5814   24765903.237
        38.0004         35.7004
 -11628004.75647  -9050781.53146  22602547.5624   22602548.5964   22602546.707
        43.9004         41.1004
 -16629996.06147 -12947846.62447  22160596.7654   22160595.3374   22160597.034
        45.1004         42.3004
 -25480805.82448 -19834900.29948  20247832.9464   20247832.9214   20247832.754
        51.0004         48.0004
 -19241283.89447 -14259492.25847  21368500.8224   21368499.9694   21368501.555
        46.2004         43.2004
 -15002358.52447 -11259915.36346  22419937.2174   22419936.4894   22419938.150
        44.2004         41.4004
 16 10 26  0  4  0.0000000  0  9G24G31G32G01G25G14G10G18G12
  -6291106.43946  -4634361.83846  23744127.3494   23744127.4924   23744128.473
        39.7004         37.3004
 -12781564.74647  -9931321.40246  22556315.1214   22556314.0094   22556314.201
        44.4004         41.2004
 -23802929.16948 -18531932.20347  20760998.5724   20760998.8444   20760997.984
        50.5004         47.5004
   -542423.99246   -405954.42346  24753618.9484   24753619.4674   24753618.257
        38.3004         36.0004
 -11707300.56747  -9112570.42146  22587456.7054   22587459.1394   22587456.758
        43.9004         40.9004
 -16683850.60847 -12989811.16847  22150348.8304   22150346.7484   22150349.057
        45.1004         42.1004
 -25464967.70048 -19822558.90748  20250846.6764   20250846.9854   20250847.133
        51.0004         48.0004
 -19176285.03247 -14208843.82547  21380869.7414   21380868.7234   21380871.036
        46.2004         43.2004
 -15022395.25947 -11275528.38546  22416124.6974   22416123.1344   22416125.205
        44.2004         41.4004
 16 10 26  0  4 30.0000000  0  9G24G31G32G01G25G14G10G18G12
  -6189552.81446  -4555229.14946  23763452.0664   23763452.2074   23763452.991
        39.7004         37.1004
 -12877392.77347 -10005992.53646  22538079.8424   22538077.9254   22538081.742
        44.6004         41.8004
 -23825299.24948 -18549363.42547  20756741.7694   20756742.0174   20756741.905
        50.5004         47.3004
   -606542.20646   -455916.65245  24741417.8844   24741417.8314   24741417.021
        38.0004         35.7004
 -11786236.24247  -9174078.70346  22572436.9844   22572438.6154   22572435.859
        43.9004         41.2004
 -16737563.32647 -13031665.17847  22140127.7814   22140125.8244   22140127.014
        45.1004         42.1004
 -25448619.08848 -19809819.73148  20253957.7554   20253957.9514   20253957.949
        51.0004         48.0004
 -19110902.42047 -14157896.35547  21393311.8064   21393309.5714   21393312.375
        46.0004         42.8004
 -15041835.80247 -11290676.84446  22412425.8294   22412423.3374   22412425.333
        44.2004         41.4004
 16 10 26  0  5  0.0000000  0  9G24G31G32G01G25G14G10G18G12
  -6087889.60546  -4476011.06446  23782798.7964   23782798.8114   23782799.698
        39.6004         37.1004
 -12972921.85847 -10080430.73146  22519901.8684   22519899.3594   22519900.785
        44.6004         41.8004
 -23847440.49148 -18566616.33047  20752528.7264   20752528.2744   20752528.360
        50.5004         47.3004
   -670216.08146   -505532.64245  24729299.8194   24729301.1654   24729299.506
        37.5004         35.2004
 -11864808.58247  -9235303.86846  22557485.6424   22557486.1104   22557485.707
        44.1004         41.2004
 -16791134.17247 -13073408.65647  22129933.4574   22129931.5074   22129934.324
        45.1004         42.1004
 -25431759.60148 -19796682.46447  20257165.5184   20257166.4274   20257165.645
        50.8004         47.8004
 -19045136.50147 -14106650.21447  21405826.1434   21405824.5834   21405827.307
        45.8004         42.6004
 -15060677.89147 -11305358.95346  22408839.0614   22408837.8514   22408839.603
        44.4004         41.4004
 16 10 26  0  5 30.0000000  0  9G24G31G32G01G25G14G10G18G12
  -5986119.15246  -4396709.42046  23802164.7524   23802163.8274   23802164.387
        39.4004         36.9004
 -13068150.24547 -10154634.61146  22501779.9864   22501778.2534   22501780.279
        44.8004         41.9004
 -23869352.75648 -18583690.80447  20748358.6324   20748358.3684   20748358.810
        50.5004         47.3004
   -733443.64946   -554800.86645  24717267.8964   24717269.3404   24717268.717
        37.3004         35.2004
 -11943014.44247  -9296243.46346  22542602.8144   22542604.5124   22542602.593
        44.2004         41.6004
 -16844563.16747 -13115041.60447  22119766.0394   22119764.7134   22119767.127
        45.1004         42.3004
 -25414388.85248 -19783146.82047  20260471.0024   20260471.6504   20260470.851
        50.8004         47.8004
 -18978988.39647 -14055106.25247  21418414.6724   21418412.3004   21418416.360
        45.8004         43.0004
 -15078920.58247 -11319574.01546  22405368.5664   22405366.6824   22405368.642
        44.2004         41.4004
 16 10 26  0  6  0.0000000  0  9G24G31G32G01G25G14G10G18G12
  -5884243.05846  -4317325.42346  23821550.5254   23821552.0724   23821550.256
        39.4004         36.9004
 -13163076.26747 -10228602.89647  22483716.3954   22483715.0184   22483715.081
        44.9004         42.1004
 -23891035.87648 -18600586.73447  20744232.4144   20744232.1094   20744232.514
        50.5004         47.3004
   -796222.93746   -603719.75845  24705322.9384   24705322.7014   24705323.403
        37.3004         35.3004
 -12020850.60147  -9356894.99246  22527791.1254   22527792.5924   22527791.172
        44.4004         41.6004
 -16897850.28747 -13156563.98847  22109625.7704   22109624.3584   22109625.670
        45.3004         42.3004
 -25396506.46348 -19769212.50047  20263874.2064   20263874.6584   20263873.921
        50.8004         47.8004
 -18912459.17047 -14003265.31547  21431074.8234   21431072.8574   21431074.929
        45.8004         42.8004
 -15096563.10747 -11333321.41046  22402010.9764   22402009.5744   22402011.335
        44.2004         41.6004
 16 10 26  0  6 30.0000000  0  9G24G31G32G01G25G14G10G18G12
  -5782263.87946  -4237861.12946  23840956.7874   23840957.3944   23840956.080
        39.2004         36.9004
 -13257698.10747 -10302334.16246  22465709.7024   22465708.4924   22465709.553
        44.8004         41.9004
 -23912489.71548 -18617303.99847  20740149.6914   20740149.7564   20740148.982
        50.5004         47.3004
   -858551.99346   -652287.81945  24693462.3424   24693462.3704   24693462.102
        37.6004         35.3004
 -12098313.88447  -9417255.96846  22513049.8404   22513051.3164   22513049.978
        44.4004         41.2004
 -16950995.94747 -13197976.14347  22099512.3734   22099510.7884   22099512.849
        45.3004         42.3004
 -25378112.08848 -19754879.21748  20267374.9394   20267375.1514   20267375.064
        50.8004         48.0004
 -18845549.63747 -13951128.04147  21443807.4744   21443805.4994   21443807.882
        45.8004         42.8004
 -15113603.52147 -11346599.62146  22398767.9744   22398766.4464   22398767.664
        44.2004         41.4004
 16 10 26  0  7  0.0000000  0  9G24G31G32G01G25G14G10G18G12
  -5680183.79846  -4158318.20746  23860382.0934   23860383.7534   23860381.513
        39.0004         36.4004
 -13352013.94747 -10375826.98446  22447762.6814   22447760.9294   22447762.682
        44.9004         41.9004
 -23933714.09948 -18633842.46247  20736110.5134   20736110.8204   20736110.001
        50.5004         47.3004
   -920428.83346   -700503.57645  24681686.7174   24681686.7324   24681687.117
        37.5004         35.5004
 -12175401.17847  -9477323.94246  22498379.8484   22498382.6944   22498380.709
        44.4004         41.2004
 -17003999.17847 -13239277.31247  22089426.0884   22089424.8254   22089426.712
        45.3004         42.3004
 -25359205.40648 -19740146.74148  20270972.7564   20270973.0814   20270972.482
        51.0004         48.0004
 -18778260.67247 -13898695.11747  21456611.8374   21456609.7834   21456612.849
        45.8004         42.8004
 -15130041.06947 -11359408.06346  22395640.8544   22395638.9854   22395640.735
        44.2004         41.4004
 16 10 26  0  7 30.0000000  0  9G24G31G32G01G25G14G10G18G12
  -5578004.79046  -4078698.21746  23879826.7684   23879826.8284   23879825.261
        39.0004         36.6004
 -13446022.08847 -10449080.04647  22429874.2264   22429871.5394   22429874.678
        45.1004         42.1004
 -23954708.89648 -18650202.03647  20732115.6864   20732115.6914   20732115.665
        50.5004         47.3004
   -981851.59746   -748365.41245  24669997.2644   24670000.3204   24669998.088
        37.8004         35.9004
 -12252109.27647  -9537096.46146  22483783.5524   22483784.7504   22483783.569
        44.2004         41.4004
 -17056860.20947 -13280467.66947  22079367.0684   22079365.6034   22079367.547
        45.3004         42.3004
 -25339786.09548 -19725014.80847  20274667.5294   20274668.5504   20274667.881
        51.0004         47.8004
 -18710593.27747 -13845967.28947  21469488.3614   21469486.6264   21469489.457
        45.6004         42.6004
 -15145874.10847 -11371745.47446  22392627.9234   22392624.8154   22392628.781
        44.2004         41.4004
 16 10 26  0  8  0.0000000  0  9G24G31G32G01G25G14G10G18G12
  -5475729.35046  -3999003.04346  23899288.2274   23899288.8934   23899288.139
        39.0004         36.7004
 -13539721.15747 -10522092.25646  22412042.7914   22412040.2284   22412042.512
        45.1004         41.9004
 -23975473.91948 -18666382.55547  20728163.9764   20728164.3464   20728163.340
        50.5004         47.3004
  -1042818.37046   -795872.01746  24658396.9934   24658397.7054   24658395.363
        38.3004         36.2004
 -12328435.05347  -9596571.04446  22469259.5994   22469260.7104   22469260.578
        44.2004         41.2004
 -17109579.13947 -13321547.32747  22069334.9844   22069333.4854   22069336.183
        45.5004         42.5004
 -25319853.87548 -19709483.21947  20278460.4874   20278461.2804   20278460.353
        50.8004         47.8004
 -18642548.70747 -13792945.58347  21482436.8584   21482435.2274   21482437.778
        45.8004         42.8004
 -15161101.77347 -11383611.17446  22389729.6304   22389727.8344   22389730.027
        44.2004         41.2004
 16 10 26  0  8 30.0000000  0  9G24G31G32G01G25G14G10G18G12
  -5373359.53746  -3919234.34546  23918768.7724   23918769.6514   23918767.971
        39.0004         36.6004
 -13633109.25547 -10594862.17347  22394271.7464   22394270.4354   22394271.215
        45.3004         42.6004
 -23996009.02848 -18682383.92847  20724256.6474   20724256.6774   20724256.437
        50.5004         47.5004
  -1103327.23646   -843021.77346  24646882.6574   24646883.9724   24646881.768
        38.3004         36.0004
 -12404375.35847  -9655745.27246  22454808.3974   22454809.4954   22454808.395
        44.2004         41.4004
 -17162156.13647 -13362516.36447  22059329.5764   22059328.5704   22059329.499
        45.5004         42.5004
 -25299408.44948 -19693551.72647  20282351.4424   20282351.8624   20282351.395
        50.8004         47.8004
 -18574127.89147 -13739630.68447  21495457.6964   21495455.1234   21495458.176
        45.8004         42.8004
 -15175722.64247 -11395004.02746  22386948.6164   22386945.0744   22386948.015
        44.1004         41.2004
 16 10 26  0  9  0.0000000  0  9G24G31G32G01G25G14G10G18G12
  -5270897.50046  -3839393.81946  23938265.5634   23938267.5264   23938266.541
        38.5004         36.0004
 -13726184.54547 -10667388.33547  22376560.4884   22376558.0754   22376560.858
        45.5004         42.6004
 -24016314.02148 -18698205.99447  20720392.7944   20720392.8314   20720392.198
        50.5004         47.5004
  -1163376.28946   -889813.24945  24635455.2644   24635455.7814   24635455.382
        38.2004         35.7004
 -12479927.04047  -9714616.67046  22440431.8014   22440432.9844   22440432.053
        44.4004         41.8004
 -17214591.09047 -13403374.73047  22049351.6944   22049350.0404   22049351.819
        45.5004         42.5004
 -25278449.58048 -19677220.14648  20286339.8034   20286340.3104   20286339.912
        51.0004         48.0004
 -18505331.86747 -13686023.43047  21508548.3544   21508546.6374   21508548.825
        45.6004         42.5004
 -15189735.97547 -11405923.49846  22384280.5114   22384278.6234   22384279.746
        44.1004         41.1004
 16 10 26  0  9 30.0000000  0  9G24G31G32G01G25G14G10G18G12
  -5168345.09746  -3759482.85446  23957781.0664   23957782.6144   23957781.606
        38.7004         36.6004
 -13818945.58047 -10739669.62547  22358908.7604   22358906.3364   22358907.929
        45.3004         42.1004
 -24036388.70148 -18713848.58247  20716573.0044   20716572.5474   20716572.171
        50.5004         47.5004
  -1222963.72146   -936244.99545  24624116.3964   24624116.2064   24624115.636
        37.8004         35.3004
 -12555087.02547  -9773182.85146  22426129.2464   22426130.1274   22426129.487
        44.6004         41.8004
 -17266883.84547 -13444122.29547  22039400.7914   22039398.9954   22039401.679
        45.5004         42.5004
 -25256977.01548 -19660488.27848  20290425.8244   20290426.3784   20290425.941
        51.0004         48.0004
 -18436161.60347 -13632124.55047  21521710.6064   21521708.5824   21521711.649
        45.3004         42.3004
 -15203140.31947 -11416368.41146  22381730.3974   22381728.0034   22381731.979
        44.2004         41.4004
 16 10 26  0 10  0.0000000  0  9G24G31G32G01G25G14G10G18G12
  -5065704.53946  -3679503.17646  23977313.6304   23977314.4284   23977313.632
        38.9004         36.6004
 -13911390.37147 -10811704.47147  22341316.9434   22341315.4764   22341316.681
        45.5004         42.6004
 -24056232.94848 -18729311.62547  20712796.6894   20712796.4904   20712796.636
        50.7004         47.5004
  -1282087.65946   -982315.59845  24612864.3834   24612865.9434   24612865.956
        37.6004         35.3004
 -12629852.21247  -9831441.38646  22411902.0214   22411903.2104   22411902.863
        44.6004         41.8004
 -17319034.18847 -13484758.88147  22029476.8964   22029475.4044   22029476.908
        45.5004         42.5004
 -25234990.53448 -19643355.95748  20294609.6964   20294610.3604   20294609.975
        51.0004         48.0004
 -18366617.99647 -13577934.75547  21534944.5844   21534943.2494   21534945.375
        45.3004         42.3004
 -15215934.99647 -11426338.26946  22379295.9454   22379293.0344   22379295.001
        44.2004         41.2004
 16 10 26  0 10 30.0000000  0 10G24G31G32G01G25G11G14G10G18G12
  -4962977.95946  -3599456.50546  23996860.9684   23996863.2414   23996862.607
        39.0004         36.4004
 -14003517.39647 -10883491.71947  22323785.6614   22323783.4884   22323785.674
        45.5004         42.5004
 -24075846.58748 -18744594.97547  20709064.3484   20709064.2564   20709063.544
        50.7004         47.5004
  -1340746.31946  -1028023.62945  24601703.0914   24601702.8724   24601702.005
        37.5004         35.3004
 -12704219.45647  -9889389.84446  22397750.0414   22397751.4554   22397749.522
        44.6004         41.8004
       964.15744       399.57943          .000            .000    24757740.822
        26.4004         23.4004
 -17371042.09847 -13525284.49347  22019580.1174   22019578.7654   22019580.911
        45.5004         42.6004
 -25212489.94048 -19625823.03248  20298891.6384   20298892.0484   20298891.411
        51.0004         48.0004
 -18296702.27247 -13523455.00547  21548249.2794   21548247.3634   21548249.875
        45.3004         42.3004
 -15228118.71047 -11435832.05246  22376976.8854   22376973.0624   22376977.190
        44.1004         41.2004
 16 10 26  0 11  0.0000000  0 10G24G31G32G01G25G11G14G10G18G12
  -4860167.49246  -3519344.47746  24016426.2854   24016427.4554   24016426.521
        38.7004         36.4004
 -14095325.03547 -10955030.08347  22306314.6544   22306312.7714   22306314.607
        45.5004         42.8004
 -24095229.39048 -18759698.44347  20705375.2844   20705375.6234   20705375.350
        50.5004         47.5004
  -1398937.75246  -1073367.60545  24590628.0274   24590630.6064   24590628.357
        37.6004         35.5004
 -12778185.73547  -9947025.83246  22383674.0264   22383675.4354   22383674.854
        44.6004         41.6004
      4027.36344      2786.59445          .000            .000    24758323.536
        26.4004         34.1004
 -17422907.99447 -13565699.42847  22009709.9904   22009708.2804   22009711.289
        45.5004         42.5004
 -25189475.04948 -19607889.35348  20303271.6264   20303271.5944   20303271.669
        51.0004         48.0004
 -18226415.28947 -13468685.95847  21561624.5184   21561622.4284   21561624.958
        45.5004         42.5004
 -15239690.38947 -11444848.90946  22374775.4074   22374771.7804   22374774.961
        44.2004         41.4004
 16 10 26  0 11 30.0000000  0 10G24G31G32G01G25G11G14G10G18G12
  -4757275.19046  -3439168.68046  24036006.4514   24036006.2334   24036006.976
        38.9004         36.4004
 -14186811.69547 -11026318.35647  22288905.0154   22288903.7244   22288905.651
        45.6004         42.5004
 -24114381.18048 -18774621.90847  20701731.3494   20701730.8034   20701730.493
        50.5004         47.3004
  -1456660.21546  -1118346.17145  24579646.5954   24579645.9744   24579646.105
        37.8004         35.7004
 -12851747.89447 -10004346.95446  22369675.5814   22369677.2834   22369677.167
        44.6004         41.6004
      7614.77444      5581.92145          .000            .000    24759006.621
        26.4004         34.6004
 -17474631.62147 -13606003.50847  21999867.5454   21999866.1704   21999867.625
        45.5004         42.6004
 -25165945.70548 -19589554.80248  20307749.3654   20307749.2494   20307749.185
        51.2004         48.2004
 -18155758.30447 -13413628.59447  21575070.5784   21575068.5104   21575071.398
        45.5004         42.5004
 -15250648.92347 -11453388.00446  22372688.2004   22372687.1924   22372688.902
        44.1004         41.1004
 16 10 26  0 12  0.0000000  0 10G24G31G32G01G25G11G14G10G18G12
  -4654303.07946  -3358930.65246  24055601.5324   24055600.1814   24055601.086
        38.7004         36.0004
 -14277975.66147 -11097355.19147  22271557.0944   22271556.2674   22271557.037
        45.6004         42.8004
 -24133301.76948 -18789365.21947  20698130.5244   20698130.4344   20698130.132
        50.5004         47.5004
  -1513912.00346  -1162957.94045  24568750.8664   24568751.3104   24568749.532
        38.0004         35.7004
 -12924902.89947 -10061350.81746  22355755.5094   22355755.8634   22355755.685
        44.6004         41.8004
     11725.65045      8785.14845          .000    24759786.7684   24759785.715
        35.6004         34.8004
 -17526212.60347 -13646196.45247  21990052.2314   21990049.9374   21990052.722
        45.5004         42.6004
 -25141901.75048 -19570819.25248  20312324.7544   20312324.5284   20312325.220
        51.2004         48.2004
 -18084732.53647 -13358283.88647  21588586.1284   21588584.7174   21588587.276
        45.5004         42.3004
 -15260993.80247 -11461448.91646  22370721.0314   22370718.5824   22370720.920
        44.1004         41.1004
 16 10 26  0 12 30.0000000  0 10G24G31G32G01G25G11G14G10G18G12
  -4551253.64646  -3278632.38546  24075210.6584   24075210.2204   24075210.152
        38.5004         36.2004
 -14368815.34947 -11168139.32447  22254270.9454   22254269.5634   22254271.346
        45.6004         42.6004
 -24151990.97048 -18803928.21447  20694574.3324   20694574.1924   20694574.131
        50.5004         47.5004
  -1570691.29546  -1207201.55946  24557946.6174   24557948.1374   24557946.085
        38.3004         36.2004
 -12997647.70347 -10118035.01246  22341912.3594   22341913.1094   22341912.940
        44.8004         41.8004
     16358.92546     12395.45445  24760670.8634   24760669.0204   24760670.694
        36.8004         35.2004
 -17577651.10247 -13686278.36047  21980264.1944   21980261.6014   21980264.887
        45.6004         42.6004
 -25117343.04848 -19551682.60148  20316997.8814   20316997.8514   20316997.645
        51.2004         48.0004
 -18013338.97747 -13302652.57447  21602171.6924   21602169.6314   21602172.718
        45.3004         42.1004
 -15270723.83447 -11469030.73746  22368869.3344   22368866.6484   22368869.793
        44.1004         41.2004
 16 10 26  0 13  0.0000000  0 10G24G31G32G01G25G11G14G10G18G12
  -4448128.61946  -3198275.22046  24094835.1044   24094835.2124   24094836.406
        38.9004         36.7004
 -14459329.13247 -11238669.46847  22237046.7014   22237045.7274   22237045.308
        45.6004         42.6004
 -24170448.60748 -18818310.77547  20691061.8514   20691061.6424   20691061.637
        50.5004         47.5004
  -1626996.37146  -1251075.63645  24547229.7014   24547232.4384   24547229.528
        38.2004         35.7004
 -13069979.25647 -10174397.22447  22328148.4934   22328149.2364   22328149.588
        44.9004         42.1004
     21513.79546     16412.23945  24761650.4684   24761649.8714   24761651.903
        36.8004         34.8004
 -17628947.06447 -13726249.24047  21970502.5794   21970500.4914   21970503.432
        45.6004         42.8004
 -25092269.52448 -19532144.79248  20321768.9784   20321769.2634   20321768.812
        51.0004         48.0004
 -17941578.61147 -13246735.43846  21615827.2424   21615825.2124   21615826.814
        45.1004         41.8004
 -15279837.97047 -11476132.63846  22367135.3214   22367131.4714   22367135.460
        44.1004         41.2004
 16 10 26  0 13 30.0000000  0 10G24G31G32G01G25G11G14G10G18G12
  -4344930.12046  -3117860.82846  24114473.1154   24114472.0934   24114472.689
        39.0004         36.6004
 -14549515.60847 -11308944.58747  22219885.1094   22219883.6344   22219884.963
        45.5004         42.6004
 -24188674.43348 -18832512.70347  20687593.5174   20687593.2774   20687592.947
        50.5004         47.5004
  -1682825.42146  -1294578.84345  24536607.1404   24536608.3424   24536607.960
        38.0004         35.7004
 -13141894.50547 -10230435.03346  22314463.3174   22314464.4794   22314462.912
        44.9004         41.9004
     27189.40546     20834.81145  24762728.8704   24762731.8144   24762731.058
        36.4004         34.6004
 -17680100.47547 -13766109.04447  21960768.1804   21960766.9064   21960769.348
        45.8004         42.8004
 -25066681.05048 -19512205.73248  20326638.5284   20326638.6044   20326638.455
        51.0004         48.0004
 -17869452.54747 -13190533.36046  21629552.6274   21629550.3844   21629552.467
        44.9004         41.9004
 -15288335.79347 -11482754.28646  22365518.1884   22365515.2424   22365516.464
        44.1004         41.2004
 16 10 26  0 14  0.0000000  0 10G24G31G32G01G25G11G14G10G18G12
  -4241660.39546  -3037390.89946  24134125.2744   24134124.1724   24134123.776
        38.9004         36.4004
 -14639372.92647 -11378963.23947  22202786.3644   22202783.7664   22202786.573
        45.8004         42.8004
 -24206668.28048 -18846533.86247  20684168.9904   20684169.2134   20684168.628
        50.5004         47.3004
  -1738176.82446  -1337709.79446  24526074.3004   24526074.8254   24526073.960
        38.3004         36.0004
 -13213390.45747 -10286146.12946  22300857.7334   22300858.7224   22300858.196
        44.9004         41.8004
     33384.59946     25662.15845  24763909.9104   24763911.3804   24763909.245
        36.1004         34.3004
 -17731110.94747 -13805857.45347  21951060.8604   21951059.2244   21951061.590
        45.6004         42.6004
 -25040577.59448 -19491865.37448  20331605.6524   20331605.9004   20331606.016
        51.0004         48.0004
 -17796962.15147 -13134047.34846  21643347.4154   21643345.3814   21643347.595
        44.9004         41.9004
 -15296216.24847 -11488894.88446  22364018.6354   22364015.2564   22364018.134
        44.1004         41.2004
 16 10 26  0 14 30.0000000  0 10G24G31G32G01G25G11G14G10G18G12
  -4138321.08346  -2956866.76146  24153790.2104   24153789.4624   24153789.926
        38.7004         36.2004
 -14728899.65947 -11448724.28147  22185748.9754   22185747.4614   22185749.386
        45.8004         42.8004
 -24224429.92648 -18860374.09847  20680789.1384   20680789.1804   20680788.602
        50.5004         47.3004
  -1793048.80146  -1380467.18546  24515631.6634   24515633.1334   24515630.231
        38.3004         36.0004
 -13284464.14847 -10341528.19646  22287332.3654   22287334.3564   22287332.445
        44.8004         41.9004
     40098.46945     30893.64945  24765187.8374   24765188.9284   24765187.639
        35.7004         34.0004
 -17781978.55247 -13845494.57347  21941381.5304   21941379.4074   21941382.387
        45.8004         42.8004
 -25013959.06148 -19471123.67048  20336670.8784   20336671.2924   20336670.961
        51.0004         48.0004
 -17724108.32047 -13077278.14646  21657209.1474   21657209.3824   21657211.395
        44.8004         41.8004
 -15303478.49847 -11494553.73746  22362635.9654   22362633.7144   22362635.841
        43.9004         40.9004
 16 10 26  0 15  0.0000000  0 10G24G31G32G01G25G11G14G10G18G12
  -4034914.24146  -2876289.99346  24173467.6514   24173466.2834   24173466.762
        38.5004         36.0004
 -14818094.03247 -11518226.35547  22168776.4434   22168774.4864   22168776.591
        46.0004         43.0004
 -24241959.19748 -18874033.26147  20677453.2814   20677453.6394   20677452.810
        50.5004         47.3004
  -1847439.69546  -1422849.65046  24505283.6614   24505283.0264   24505283.883
        38.5004         36.4004
 -13355112.49747 -10396578.83846  22273888.8834   22273889.7854   22273889.144
        44.8004         41.6004
     47330.15145     36528.72845  24766564.7354   24766563.0274   24766563.617
        35.4004         33.8004
 -17832703.13447 -13885020.24447  21931729.2804   21931726.9934   21931729.724
        45.8004         42.8004
 -24986825.45348 -19449980.61248  20341834.3024   20341834.4974   20341834.408
        51.0004         48.0004
 -17650892.56847 -13020226.94046  21671142.8014   21671142.2054   21671142.579
        44.8004         41.8004
 -15310121.48647 -11499730.07346  22361371.9224   22361368.9354   22361372.984
        43.9004         41.1004
 16 10 26  0 15 30.0000000  0 10G24G31G32G01G25G11G14G10G18G12
  -3931442.04046  -2795662.31646  24193157.4034   24193157.1594   24193156.984
        38.3004         36.2004
 -14906954.56347 -11587468.27947  22151866.8174   22151865.3074   22151866.258
        46.0004         43.0004
 -24259255.81148 -18887511.13447  20674162.0684   20674162.2294   20674161.608
        50.5004         47.3004
  -1901347.85246  -1464855.99646  24495023.2174   24495025.3564   24495022.936
        38.5004         36.2004
 -13425332.50547 -10451295.68946  22260526.4784   22260527.4924   22260527.523
        44.8004         41.8004
     55078.31045     42566.31845  24768037.0914   24768037.6964   24768037.480
        35.7004         34.1004
 -17883284.79647 -13924434.52547  21922103.3244   21922101.3794   21922103.918
        45.8004         42.6004
 -24959176.74048 -19428436.17547  20347095.4794   20347095.7054   20347095.196
        51.0004         47.8004
 -17577315.93147 -12962894.51446  21685143.8354   21685142.8854   21685144.566
        44.8004         41.9004
 -15316144.73247 -11504423.48346  22360226.1404   22360223.3984   22360225.864
        44.1004         41.4004
 16 10 26  0 16  0.0000000  0 10G24G31G32G01G25G11G14G10G18G12
  -3827906.72246  -2714985.44146  24212859.7374   24212858.4654   24212860.209
        38.3004         36.0004
 -14995479.95047 -11656449.04347  22135020.5594   22135019.1494   22135020.799
        46.0004         42.8004
 -24276319.64448 -18900807.62247  20670914.8374   20670914.8624   20670914.582
        50.5004         47.5004
  -1954771.63146  -1506484.92845  24484859.3714   24484858.0554   24484860.379
        38.2004         35.5004
 -13495121.23147 -10505676.48946  22247245.3564   22247247.0894   22247246.105
        44.6004         41.6004
     63342.12445     49005.69445  24769609.5374   24769607.2084   24769610.023
        35.7004         34.0004
 -17933723.53347 -13963737.46347  21912505.9204   21912503.6044   21912506.024
        45.8004         43.0004
 -24931012.93848 -19406490.35947  20352454.8264   20352455.1484   20352454.955
        50.8004         47.8004
 -17503379.59647 -12905281.79146  21699213.9874   21699212.3544   21699214.711
        44.8004         41.8004
 -15321547.48847 -11508633.40646  22359197.8384   22359195.5954   22359198.673
        44.1004         41.2004
 16 10 26  0 16 30.0000000  0 10G24G31G32G01G25G11G14G10G18G12
  -3724310.06746  -2634260.78546  24232573.0064   24232573.0174   24232573.600
        38.3004         36.0004
 -15083668.10447 -11725167.04547  22118239.0144   22118236.7734   22118239.363
        45.8004         42.6004
 -24293150.40848 -18913922.49847  20667712.0824   20667712.1374   20667711.450
        50.5004         47.3004
  -2007709.37446  -1547735.16045  24474784.5434   24474782.3404   24474784.576
        37.6004         35.3004
 -13564475.70747 -10559718.91346  22234047.6694   22234049.5184   22234047.690
        44.6004         41.8004
     72120.41245     55845.94145  24771280.4984   24771281.5594   24771281.333
        35.6004         34.1004
 -17984018.93947 -14002928.70747  21902934.2324   21902932.2024   21902935.324
        45.8004         42.6004
 -24902334.04848 -19384143.17648  20357912.3404   20357912.6334   20357912.176
        51.0004         48.0004
 -17429084.86047 -12847389.77947  21713351.7604   21713350.0734   21713352.410
        44.9004         42.1004
 -15326328.96847 -11512359.19346  22358287.8554   22358284.6084   22358287.615
        44.1004         41.1004
 16 10 26  0 17  0.0000000  0 10G24G31G32G01G25G11G14G10G18G12
  -3620653.74546  -2553489.62845  24252299.0044   24252297.9384   24252297.923
        38.3004         35.9004
 -15171517.95547 -11793621.41647  22101521.9744   22101519.6774   22101521.739
        46.0004         43.2004
 -24309747.91148 -18926855.60347  20664554.0764   20664553.9064   20664554.367
        50.5004         47.5004
  -2060159.45846  -1588605.36345  24464804.3714   24464804.2554   24464802.401
        37.8004         35.9004
 -13633393.00847 -10613420.68346  22220933.4354   22220934.8094   22220933.882
        44.8004         41.9004
     81411.97445     63086.15645  24773047.5524   24773047.4764   24773050.079
        35.7004         34.0004
 -18034170.94047 -14042008.19847  21893390.6134   21893389.1184   21893391.140
        45.8004         42.8004
 -24873140.12948 -19361394.67747  20363467.8544   20363468.2254   20363468.287
        50.8004         47.8004
 -17354432.48947 -12789219.09346  21727558.2914   21727555.7414   21727558.252
        44.9004         41.9004
 -15330488.73447 -11515600.54946  22357496.7384   22357494.0064   22357496.193
        44.1004         41.2004
 16 10 26  0 17 30.0000000  0 10G24G31G32G01G25G11G14G10G18G12
  -3516940.45246  -2472674.07746  24272034.2014   24272034.4614   24272033.215
        38.3004         36.0004
 -15259027.96347 -11861810.98147  22084868.8144   22084866.7154   22084869.170
        46.2004         43.2004
 -24326111.92348 -18939606.76947  20661439.7594   20661439.9404   20661438.773
        50.5004         47.5004
  -2112120.36246  -1629094.37745  24454914.3944   24454915.6134   24454914.952
        38.0004         35.7004
 -13701870.16347 -10666779.49146  22207902.7084   22207903.8234   22207904.013
        44.8004         41.9004
     91215.83045     70725.58345  24774912.7734   24774912.7564   24774912.680
        35.0004         33.4004
 -18084179.46247 -14080975.87447  21883874.5134   21883872.9514   21883875.321
        45.8004         42.8004
 -24843431.26348 -19338244.91947  20369121.0644   20369121.2934   20369120.656
        50.8004         47.8004
 -17279424.48547 -12730771.28846  21741830.8254   21741828.9034   21741832.314
        44.8004         41.6004
 -15334026.38747 -11518357.13646  22356823.4384   22356819.9004   22356823.251
        44.2004         41.4004
 16 10 26  0 18  0.0000000  0 10G24G31G32G01G25G11G14G10G18G12
  -3413171.63846  -2391815.27146  24291781.8674   24291781.5824   24291782.622
        38.7004         36.6004
 -15346196.80347 -11929734.72647  22068280.7834   22068278.5934   22068281.220
        46.2004         43.0004
 -24342242.17648 -18952175.79147  20658370.7444   20658370.5094   20658370.384
        50.5004         47.5004
  -2163590.41946  -1669200.93846  24445121.0084   24445121.6714   24445120.511
        38.2004         36.0004
 -13769904.22147 -10719793.02246  22194956.4884   22194957.6834   22194956.080
        44.8004         41.8004
    101530.77645     78763.15945  24776876.4324   24776877.1184   24776877.820
        35.0004         33.6004
 -18134044.68747 -14119831.87947  21874385.3314   21874383.7594   21874385.710
        45.8004         42.8004
 -24813207.47948 -19314693.92747  20374872.6774   20374873.0964   20374872.642
        50.8004         47.8004
 -17204061.65347 -12672047.02946  21756171.6954   21756170.0984   21756172.278
        44.4004         41.4004
 -15336940.77147 -11520628.05346  22356268.9234   22356265.4134   22356267.686
        44.1004         41.2004
 16 10 26  0 18 30.0000000  0 10G24G31G32G01G25G11G14G10G18G12
  -3309349.80446  -2310915.14346  24311538.3684   24311537.1584   24311537.662
        38.9004         36.6004
 -15433022.66047 -11997391.17847  22051758.4884   22051757.5444   22051758.456
        46.2004         43.2004
 -24358138.50948 -18964562.53747  20655345.4064   20655345.5634   20655345.332
        50.5004         47.5004
  -2214568.11746  -1708923.80046  24435420.9974   24435421.8974   24435421.537
        38.5004         36.2004
 -13837492.32647 -10772459.04546  22182094.7774   22182096.0204   22182094.690
        44.8004         41.9004
    112355.69245     87198.19245  24778937.7534   24778939.8584   24778936.726
        34.7004         32.9004
 -18183766.23647 -14158575.91147  21864923.5004   21864922.1724   21864923.695
        45.8004         43.0004
 -24782468.92848 -19290741.81148  20380722.3314   20380722.3804   20380722.636
        51.0004         48.0004
 -17128345.08247 -12613047.11346  21770580.0574   21770578.7524   21770581.767
        44.4004         41.8004
 -15339231.22547 -11522412.79246  22355832.2654   22355830.2734   22355832.836
        44.2004         41.6004
 16 10 26  0 19  0.0000000  0 10G24G31G32G01G25G11G14G10G18G12
  -3205475.83746  -2229974.38946  24331305.1954   24331304.0034   24331304.482
        38.9004         36.6004
 -15519504.13047 -12064779.27347  22035301.1054   22035301.4074   22035301.458
        46.2004         43.3004
 -24373800.62248 -18976766.76747  20652364.9254   20652365.2734   20652364.748
        50.5004         47.5004
  -2265051.92946  -1748261.85845  24425813.1854   24425813.5924   24425813.157
        38.3004         35.9004
 -13904631.54347 -10824775.29846  22169318.4624   22169319.6954   22169319.330
        44.8004         41.9004
    123689.25345     96029.65845  24781094.0834   24781094.5094   24781094.166
        35.0004         33.4004
 -18233344.01747 -14197207.91147  21855489.3084   21855487.7774   21855490.075
        45.8004         43.0004
 -24751215.71648 -19266388.66747  20386669.4874   20386669.3644   20386669.557
        51.0004         47.8004
 -17052276.23247 -12553772.69546  21785055.8454   21785054.2894   21785057.660
        44.6004         41.6004
 -15340897.27147 -11523710.99646  22355515.1244   22355512.3834   22355514.414
        44.2004         41.4004
 16 10 26  0 19 30.0000000  0 10G24G31G32G01G25G11G14G10G18G12
  -3101552.60546  -2148995.23646  24351080.1284   24351079.8144   24351080.747
        38.7004         36.2004
 -15605639.84347 -12131897.96147  22018909.8164   22018908.9434   22018909.743
        46.2004         43.0004
 -24389228.30348 -18988788.32147  20649429.3614   20649429.3034   20649429.043
        50.5004         47.5004
  -2315040.28646  -1787213.83245  24416301.7234   24416301.6844   24416301.927
        38.2004         35.9004
 -13971319.00947 -10876739.54247  22156628.6444   22156629.5994   22156628.898
        45.1004         42.3004
    135530.18745    105256.29245  24783349.8364   24783346.7194   24783347.608
        35.0004         33.6004
 -18282778.03247 -14235727.87647  21846082.1964   21846080.6914   21846083.305
        46.0004         43.0004
 -24719447.98648 -19241634.60048  20392714.9364   20392714.8754   20392714.709
        51.0004         48.0004
 -16975856.56647 -12494224.91346  21799598.5964   21799596.7714   21799598.283
        44.6004         41.6004
 -15341938.96647 -11524522.67846  22355317.1764   22355314.6804   22355317.821
        44.2004         41.6004
 16 10 26  0 20  0.0000000  0 10G24G31G32G01G25G11G14G10G18G12
  -2997581.78746  -2067979.03446  24370865.9864   24370864.6874   24370865.691
        38.5004         36.2004
 -15691427.99847 -12198745.84647  22002586.2804   22002583.8414   22002586.119
        46.2004         43.3004
 -24404421.29048 -19000626.99947  20646537.8044   20646538.2494   20646537.660
        50.5004         47.5004
  -2364531.70646  -1825778.60845  24406883.6234   24406882.3104   24406883.337
        37.8004         35.3004
 -14037551.80447 -10928349.48347  22144025.2464   22144025.9224   22144025.700
        45.3004         42.5004
    147877.45945    114877.39445  24785696.1674   24785697.1504   24785697.932
        35.6004         33.8004
 -18332067.98747 -14274135.59147  21836702.7584   21836700.7764   21836703.457
        46.0004         43.0004
 -24687165.85948 -19216479.69748  20398857.7194   20398857.9754   20398858.233
        51.0004         48.0004
 -16899087.18847 -12434404.62446  21814206.9604   21814205.2604   21814207.303
        44.4004         41.2004
 -15342355.59847 -11524847.32246  22355238.1274   22355235.4794   22355238.024
        44.4004         41.6004
 16 10 26  0 20 30.0000000  0 10G24G31G32G01G25G11G14G10G18G12
  -2893565.68446  -1986927.52846  24390657.5104   24390659.6134   24390657.913
        38.5004         36.2004
 -15776867.44547 -12265321.97147  21986327.5624   21986325.1884   21986327.417
        46.5004         43.7004
 -24419379.38248 -19012282.63747  20643691.4804   20643691.5634   20643690.711
        50.5004         47.5004
  -2413524.72246  -1863954.99645  24397560.0544   24397560.7804   24397561.548
        37.8004         35.7004
 -14103327.12547 -10979602.95747  22131507.6754   22131509.1494   22131509.003
        45.3004         42.3004
    160729.62145    124891.91445  24788141.3134   24788143.9634   24788141.215
        35.0004         33.1004
 -18381213.78647 -14312430.98147  21827350.4214   21827348.6604   21827351.278
        46.0004         43.0004
 -24654369.54148 -19190924.12548  20405098.8044   20405099.0424   20405098.760
        51.0004         48.0004
 -16821969.45647 -12374312.90746  21828882.3764   21828880.3844   21828883.571
        44.2004         41.4004
 -15342145.92747 -11524683.91246  22355277.9634   22355275.4474   22355278.004
        44.4004         41.2004
 16 10 26  0 21  0.0000000  0 10G24G31G32G01G25G11G14G10G18G12
  -2789505.82746  -1905841.92846  24410460.3464   24410460.8944   24410460.065
        38.3004         36.0004
 -15861956.62547 -12331625.16147  21970136.0104   21970132.8594   21970134.476
        46.7004         43.7004
 -24434102.30848 -19023755.04347  20640889.7294   20640889.8444   20640889.909
        50.5004         47.5004
  -2462017.82846  -1901741.82045  24388332.2774   24388332.4274   24388332.058
        38.0004         35.9004
 -14168642.08447 -11030497.71447  22119079.6274   22119079.7414   22119080.714
        45.5004         42.3004
    174085.70545    135299.22745  24790685.2394   24790681.5864   24790684.111
        34.9004         33.4004
 -18430215.35047 -14350613.97947  21818025.5414   21818024.2694   21818026.805
        46.2004         43.2004
 -24621059.24048 -19164968.05348  20411437.8244   20411437.9704   20411437.835
        51.0004         48.0004
 -16744504.84547 -12313950.88246  21843623.9554   21843621.0604   21843623.165
        44.2004         41.4004
 -15341309.98147 -11524032.51946  22355437.2074   22355434.4884   22355436.697
        44.2004         41.2004
 16 10 26  0 21 30.0000000  0 10G24G31G32G01G25G11G14G10G18G12
  -2685404.01146  -1824723.63546  24430271.1314   24430270.5034   24430271.599
        38.5004         36.2004
 -15946694.21947 -12397654.39947  21954010.0464   21954007.6194   21954009.473
        46.7004         43.5004
 -24448589.78248 -19035043.95247  20638132.9474   20638133.0454   20638132.133
        50.5004         47.5004
  -2510009.56746  -1939138.00046  24379198.9834   24379200.6524   24379198.441
        38.5004         36.7004
 -14233493.89547 -11081031.57147  22106737.9554   22106739.5394   22106738.565
        45.5004         42.3004
    187944.28745    146098.08345  24793319.0154   24793319.7754   24793322.056
        35.4004         34.0004
 -18479072.81947 -14388684.69347  21808727.7034   21808726.4404   21808728.152
        46.2004         43.2004
 -24587235.15248 -19138611.62248  20417874.0474   20417874.4174   20417874.453
        51.0004         48.0004
 -16666694.72247 -12253319.66446  21858430.4594   21858428.3444   21858431.784
        44.4004         41.4004
 -15339847.60547 -11522892.98546  22355714.8434   22355711.2224   22355715.521
        44.2004         41.2004
 16 10 26  0 22  0.0000000  0 10G24G31G32G01G25G11G14G10G18G12
  -2581262.01046  -1743574.00745  24450088.3694   24450088.9204   24450089.169
        38.3004         35.9004
 -16031078.99247 -12463408.72947  21937952.1554   21937950.7204   21937951.921
        46.5004         43.5004
 -24462841.60148 -19046149.26347  20635421.2274   20635421.0454   20635421.179
        50.5004         47.5004
  -2557498.55446  -1976142.40646  24370163.7314   24370163.4244   24370161.666
        38.9004         36.4004
 -14297879.72247 -11131202.28947  22094485.4894   22094487.6754   22094486.002
        45.3004         42.3004
    202303.90645    157287.40245  24796055.3534   24796052.8774   24796054.306
        35.6004         34.0004
 -18527785.72047 -14426642.77447  21799458.8194   21799457.2294   21799459.333
        46.2004         43.2004
 -24552897.52348 -19111855.04847  20424407.8314   20424408.6904   20424407.393
        51.0004         47.8004
 -16588539.96547 -12192419.85846  21873302.0934   21873300.7624   21873302.928
        44.4004         41.4004
 -15337758.19147 -11521264.85046  22356112.9404   22356109.8864   22356113.403
        44.2004         41.4004
 16 10 26  0 22 30.0000000  0 10G24G31G32G01G25G11G14G10G18G12
  -2477082.06746  -1662394.83245  24469913.9844   24469912.8594   24469913.374
        38.2004         35.7004
 -16115109.47447 -12528887.01147  21921961.8164   21921960.9264   21921961.629
        46.7004         43.9004
 -24476857.47648 -19057070.71147  20632753.8154   20632753.8434   20632753.295
        50.5004         47.5004
  -2604483.40046  -2012753.95045  24361221.9024   24361222.1924   24361222.667
        38.3004         35.7004
 -14361796.75047 -11181007.72847  22082322.2864   22082324.4274   22082321.590
        45.3004         42.5004
    217163.19545    168866.01945  24798878.3224   24798880.5284   24798881.059
        35.9004         34.0004
 -18576354.16647 -14464488.29647  21790217.1834   21790214.4954   21790218.003
        46.2004         43.3004
 -24518046.59348 -19084698.48747  20431039.6734   20431040.3694   20431039.410
        50.8004         47.7004
 -16510042.24847 -12131252.80846  21888240.2264   21888237.7524   21888239.603
        44.2004         41.2004
 -15335041.72147 -11519148.09946  22356630.0984   22356626.7664   22356630.848
        44.2004         41.6004
 16 10 26  0 23  0.0000000  0 10G24G31G32G01G25G11G14G10G18G12
  -2372866.04946  -1581187.55745  24489743.2804   24489744.8934   24489743.748
        37.8004         35.5004
 -16198783.94847 -12594087.86747  21906039.5714   21906038.2834   21906039.521
        47.0004         44.2004
 -24490637.15148 -19067808.11747  20630132.0054   20630131.4984   20630131.761
        50.7004         47.5004
  -2650962.66646  -2048971.58345  24352377.4984   24352375.4604   24352377.027
        37.5004         35.0004
 -14425242.23147 -11230445.71447  22070249.3014   22070250.9524   22070249.375
        45.5004         42.6004
    232520.82645    180832.97445  24801804.6864   24801802.1534   24801804.579
        35.6004         33.8004
 -18624777.68247 -14502220.87347  21781001.6324   21781000.1924   21781002.063
        46.3004         43.3004
 -24482682.64248 -19057142.17147  20437769.4514   20437769.9414   20437769.102
        50.8004         47.8004
 -16431202.53147 -12069819.28346  21903242.2584   21903241.3064   21903242.258
        44.1004         41.1004
 -15331697.93447 -11516542.52746  22357265.1944   22357263.2374   22357265.508
        44.2004         41.4004
 16 10 26  0 23 30.0000000  0 10G24G31G32G01G25G11G14G10G18G12
  -2268616.05046  -1499953.80145  24509582.2764   24509582.6854   24509582.317
        37.8004         35.7004
 -16282101.05447 -12659010.25247  21890184.4294   21890182.4384   21890183.878
        47.0004         43.9004
 -24504180.37348 -19078361.26847  20627554.6484   20627554.5264   20627554.655
        50.7004         47.5004
  -2696934.94246  -2084794.17245  24343628.9634   24343629.6974   24343629.725
        37.5004         35.5004
 -14488213.38047 -11279514.10247  22058266.2914   22058267.9364   22058267.596
        45.6004         42.6004
    248375.77045    193187.50745  24804818.8484   24804825.0754   24804820.474
        34.9004         33.1004
 -18673056.08347 -14539840.36947  21771814.4734   21771812.7144   21771814.510
        46.3004         43.2004
 -24446805.97548 -19029186.33847  20444596.7074   20444596.9514   20444596.993
        50.8004         47.8004
 -16352022.90047 -12008120.92746  21918309.8924   21918308.2624   21918311.351
        44.1004         41.1004
 -15327725.60147 -11513447.17246  22358022.5624   22358019.9264   22358023.188
        44.4004         41.6004
 16 10 26  0 24  0.0000000  0 10G24G31G32G01G25G11G14G10G18G12
  -2164333.60546  -1418694.74445  24529427.5034   24529426.4734   24529427.129
        37.8004         35.7004
 -16365059.65247 -12723653.25747  21874397.3424   21874395.2684   21874397.419
        46.9004         43.7004
 -24517486.86048 -19088729.95447  20625022.6224   20625022.3904   20625022.568
        50.7004         47.5004
  -2742398.91746  -2120220.67546  24334976.5064   24334976.9994   24334976.774
        38.3004         36.2004
 -14550707.44747 -11328210.74847  22046374.3944   22046375.4894   22046375.188
        45.6004         42.8004
    264726.25045    205928.17645  24807933.5164   24807934.1204   24807933.807
        35.2004         33.8004
 -18721189.33147 -14577346.76047  21762654.9614   21762653.1794   21762655.355
        46.3004         43.3004
 -24410416.87448 -19000831.19947  20451520.9404   20451521.4554   20451521.168
        50.8004         47.7004
 -16272503.97347 -11946158.16446  21933442.2334   21933440.0224   21933442.045
        44.1004         41.2004
 -15323125.04947 -11509862.31246  22358897.5184   22358894.3494   22358896.787
        44.4004         41.4004
 16 10 26  0 24 30.0000000  0 10G24G31G32G01G25G11G14G10G18G12
  -2060020.50046  -1337411.79545  24549277.7904   24549278.0224   24549277.316
        37.8004         35.5004
 -16447658.17547 -12788015.71047  21858680.4314   21858676.9034   21858679.051
        46.7004         43.7004
 -24530556.36548 -19098913.98347  20622535.7034   20622535.3474   20622535.571
        50.7004         47.5004
  -2787353.31546  -2155250.08246  24326423.9564   24326423.0414   24326423.176
        38.5004         36.4004
 -14612721.71847 -11376533.52847  22034573.3224   22034574.4614   22034574.256
        45.6004         42.6004
    281570.99945    219053.87545  24811137.0674   24811138.2624   24811138.443
        35.4004         33.8004
 -18769177.13747 -14614739.81947  21753523.1484   21753521.5764   21753523.841
        46.3004         43.3004
 -24373515.71648 -18972077.06347  20458543.3174   20458543.4754   20458543.634
        50.7004         47.7004
 -16192647.61847 -11883932.46246  21948639.0824   21948637.1134   21948639.709
        44.1004         41.2004
 -15317895.89047 -11505787.61246  22359892.0814   22359890.9214   22359892.358
        44.4004         41.6004
 16 10 26  0 25  0.0000000  0 10G24G31G32G01G25G11G14G10G18G12
  -1955678.67046  -1256106.47345  24569133.2314   24569131.3944   24569132.793
        37.6004         35.3004
 -16529895.53447 -12852096.73647  21843030.8664   21843028.0994   21843030.972
        46.9004         43.7004
 -24543388.57448 -19108913.10047  20620093.8104   20620093.2404   20620093.863
        50.7004         47.5004
  -2831796.78446  -2189881.34145  24317964.3564   24317965.0774   24317964.532
        38.3004         35.9004
 -14674253.45847 -11424480.29147  22022864.0584   22022865.6734   22022865.110
        45.8004         42.8004
    298908.51445    232563.63145  24814436.0364   24814436.3154   24814436.838
        35.4004         33.6004
 -18817019.55847 -14652019.58347  21744419.2024   21744417.8544   21744419.906
        46.3004         43.3004
 -24336102.78748 -18942924.13447  20465662.9804   20465662.9964   20465663.006
        50.7004         47.8004
 -16112455.89247 -11821445.42446  21963898.0784   21963896.3184   21963899.397
        43.9004         40.9004
 -15312038.20647 -11501223.16846  22361008.1234   22361004.3614   22361007.024
        44.4004         41.6004
 16 10 26  0 25 30.0000000  0 10G24G31G32G01G25G11G14G10G18G12
  -1851310.40946  -1174780.55345  24588994.7544   24588993.4664   24588996.195
        37.3004         35.0004
 -16611770.41247 -12915895.29047  21827450.1814   21827448.4144   21827449.947
        47.0004         44.0004
 -24555983.19548 -19118727.07247  20617697.2904   20617696.8204   20617697.213
        50.7004         47.7004
  -2875728.03046  -2224113.50045  24309604.3184   24309607.0104   24309605.468
        38.0004         35.9004
 -14735299.93147 -11472048.94947  22011247.0184   22011249.0344   22011246.503
        45.6004         42.6004
    316737.24145    246456.07445  24817831.2754   24817830.7154   24817830.412
        35.2004         33.6004
 -18864716.65347 -14689186.11347  21735342.6624   21735341.0164   21735342.990
        46.3004         43.3004
 -24298178.50448 -18913372.75847  20472879.5394   20472879.9324   20472879.308
        50.8004         47.8004
 -16031929.26347 -11758697.47546  21979222.5304   21979220.5724   21979222.491
        43.9004         40.9004
 -15305551.86447 -11496168.86246  22362242.0684   22362238.1454   22362241.799
        44.2004         41.4004
 16 10 26  0 26  0.0000000  0 10G24G31G32G01G25G11G14G10G18G12
  -1746916.91246  -1093434.97445  24608858.9034   24608857.1074   24608858.791
        37.1004         35.0004
 -16693281.18547 -12979410.13747  21811939.3644   21811937.8634   21811939.156
        47.2004         44.2004
 -24568340.01048 -19128355.75947  20615345.9004   20615345.3684   20615345.808
        50.7004         47.7004
  -2919145.73646  -2257945.50645  24301342.8404   24301344.9984   24301342.223
        38.0004         35.5004
 -14795858.50047 -11519237.42047  21999722.9794   21999723.5614   21999723.840
        45.5004         42.3004
    335055.56645    260730.08845  24821315.5134   24821316.9514   24821316.198
        35.0004         33.6004
 -18912268.14347 -14726239.17747  21726292.9184   21726292.1644   21726292.930
        46.3004         43.2004
 -24259743.24448 -18883423.21947  20480193.9994   20480193.7714   20480194.160
        50.8004         47.8004
 -15951069.31747 -11695689.79846  21994609.4914   21994607.1824   21994610.047
        43.9004         40.9004
 -15298436.60747 -11490624.48546  22363596.0914   22363592.9394   22363596.354
        44.2004         41.4004
 16 10 26  0 26 30.0000000  0 10G24G31G32G01G25G11G14G10G18G12
  -1642500.37546  -1012071.43645  24628727.9554   24628729.0384   24628728.925
        37.3004         35.3004
 -16774426.95447 -13042640.55547  21796497.2354   21796495.7474   21796497.372
        47.0004         43.9004
 -24580458.72648 -19137798.91147  20613039.7424   20613039.0294   20613039.574
        50.8004         47.7004
  -2962048.75246  -2291376.44145  24293177.6174   24293179.3604   24293178.244
        37.8004         35.5004
 -14855926.47047 -11566043.60147  21988292.3954   21988293.9864   21988292.209
        45.5004         42.5004
    353862.20546    275384.57945  24824894.7384   24824895.5704   24824895.160
        36.1004         34.5004
 -18959673.80447 -14763178.61247  21717271.9854   21717270.7784   21717272.081
        46.2004         43.2004
 -24220797.41848 -18853075.82647  20487604.8634   20487605.0264   20487605.212
        50.8004         47.7004
 -15869877.79647 -11632423.71246  22010060.6714   22010058.1864   22010061.055
        43.9004         41.1004
 -15290692.19347 -11484589.86946  22365069.6334   22365066.7744   22365070.305
        44.2004         41.4004
 16 10 26  0 27  0.0000000  0 10G24G31G32G01G25G11G14G10G18G12
  -1538062.46646   -930691.25345  24648603.2454   24648603.0374   24648603.383
        37.6004         35.7004
 -16855206.09047 -13105585.29447  21781125.0534   21781124.0134   21781124.551
        46.9004         44.0004
 -24592338.99148 -19147056.24947  20610779.0764   20610778.2654   20610778.775
        50.8004         47.7004
  -3004435.76046  -2324405.27645  24285113.6104   24285112.9864   24285111.653
        37.8004         35.7004
 -14915501.17647 -11612465.41547  21976955.6504   21976957.5354   21976955.886
        45.3004         42.5004
    373155.65945    290418.38745  24828565.5724   24828563.2794   24828564.912
        35.6004         33.6004
 -19006933.17547 -14800004.07547  21708279.1434   21708277.4364   21708279.926
        46.2004         43.3004
 -24181341.43748 -18822330.91647  20495112.9984   20495113.2604   20495112.989
        50.7004         47.7004
 -15788356.02847 -11568900.28346  22025572.7374   22025570.7224   22025573.616
        43.7004         40.9004
 -15282318.71547 -11478065.06946  22366663.2634   22366659.5614   22366662.859
        44.2004         41.4004
 16 10 26  0 27 30.0000000  0 10G24G31G32G01G25G11G14G10G18G12
  -1433604.92846   -849295.75945  24668478.5934   24668479.8464   24668478.315
        37.8004         35.5004
 -16935617.57047 -13168243.55947  21765823.9894   21765821.7604   21765824.136
        47.0004         44.2004
 -24603980.58048 -19156127.60447  20608563.7804   20608563.0214   20608563.481
        50.8004         47.7004
  -3046305.54846  -2357031.14545  24277146.2034   24277146.0204   24277147.017
        38.0004         35.9004
 -14974579.99647 -11658500.83347  21965713.1464   21965714.7254   21965713.558
        45.5004         42.5004
    392934.23845    305830.29245  24832330.3684   24832329.5534   24832330.087
        34.7004         33.3004
 -19054046.28247 -14836715.55647  21699314.2504   21699311.9744   21699315.079
        46.3004         43.3004
 -24141375.75848 -18791188.83947  20502718.2354   20502718.2444   20502718.000
        50.7004         47.5004
 -15706505.33047 -11505120.58746  22041147.2724   22041146.4454   22041148.593
        43.6004         40.6004
 -15273315.90647 -11471049.87346  22368375.6804   22368373.1994   22368374.668
        44.2004         41.2004
 16 10 26  0 28  0.0000000  0 10G24G31G32G01G25G11G14G10G18G12
  -1329129.46346   -767886.27745  24688361.7804   24688361.9694   24688359.861
        37.8004         35.7004
 -17015660.04447 -13230614.26547  21750592.7864   21750590.3144   21750592.661
        47.2004         44.4004
 -24615383.15248 -19165012.71447  20606393.7584   20606393.1754   20606393.679
        50.8004         47.7004
  -3087656.92746  -2389253.01346  24269276.8634   24269276.0574   24269276.745
        38.3004         36.0004
 -15033160.29947 -11704147.79847  21954565.8244   21954567.7434   21954566.281
        45.5004         42.5004
    413196.57345    321619.09745  24836184.1894   24836184.9974   24836185.886
        35.2004         33.6004
 -19101012.82947 -14873312.84147  21690377.1704   21690375.0934   21690377.121
        46.5004         43.5004
 -24100900.82748 -18759649.93547  20510419.9194   20510420.3564   20510419.370
        50.5004         47.3004
 -15624327.32447 -11441085.84246  22056786.8214   22056784.9914   22056787.362
        43.4004         40.6004
 -15263683.74947 -11463544.27946  22370208.7924   22370205.8884   22370208.441
        44.2004         41.4004
 16 10 26  0 28 30.0000000  0 10G24G31G32G01G25G11G14G10G18G12
  -1224638.28946   -686464.59545  24708244.3734   24708244.6014   24708245.356
        37.6004         35.3004
 -17095332.15747 -13292696.39247  21735431.2524   21735428.8024   21735431.280
        47.4004         44.5004
 -24626546.43348 -19173711.36047  20604269.4754   20604268.8284   20604269.336
        50.8004         47.7004
  -3128488.79146  -2421070.06645  24261506.9914   24261508.2634   24261506.661
        38.2004         35.9004
 -15091239.48647 -11749404.27347  21943514.2144   21943515.1104   21943514.774
        45.5004         42.6004
    433940.82045    337783.38945  24840133.4774   24840133.9364   24840133.826
        35.7004         34.1004
 -19147832.81247 -14909795.91647  21681467.1014   21681465.9394   21681467.729
        46.5004         43.7004
 -24059917.15748 -18727714.61847  20518218.5084   20518219.5774   20518218.609
        50.5004         47.3004
 -15541823.70047 -11376797.33946  22072486.0534   22072484.8884   22072486.717
        43.4004         40.6004
 -15253422.56347 -11455548.52946  22372160.6314   22372157.8114   22372160.885
        44.1004         41.1004
 16 10 26  0 29  0.0000000  0 10G24G31G32G01G25G11G14G10G18G12
  -1120132.56846   -605031.55145  24728132.4684   24728132.5694   24728132.090
        37.5004         35.2004
 -17174632.63947 -13354488.93947  21720340.5014   21720338.8854   21720340.976
        47.5004         44.4004
 -24637470.12548 -19182223.31247  20602190.6574   20602190.4204   20602190.878
        50.8004         47.7004
  -3168799.96546  -2452481.44646  24253835.3224   24253835.4004   24253834.755
        38.2004         36.0004
 -15148814.95747 -11794268.25147  21932557.5144   21932559.0544   21932558.014
        45.5004         42.6004
    455165.34645    354321.96945  24844170.9304   24844171.8084   24844172.874
        35.9004         34.1004
 -19194505.93147 -14946164.55747  21672585.6984   21672583.6204   21672586.115
        46.5004         43.5004
 -24018425.22548 -18695383.26147  20526114.6424   20526115.1524   20526114.886
        50.5004         47.3004
 -15458995.57447 -11312255.98746  22088248.1264   22088247.2174   22088249.264
        43.4004         40.4004
 -15242531.66647 -11447062.12446  22374233.6264   22374231.2984   22374232.989
        44.2004         41.2004
 16 10 26  0 29 30.0000000  0 10G24G31G32G01G25G11G14G10G18G12
  -1015614.49846   -523588.90845  24748022.1394   24748021.3494   24748020.944
        37.3004         35.2004
 -17253560.35947 -13415991.01647  21705321.5594   21705319.3144   21705321.686
        47.5004         44.4004
 -24648153.95948 -19190548.37047  20600157.3154   20600157.2874   20600157.164
        50.7004         47.7004
  -3208589.31446  -2483486.11846  24246264.1984   24246266.7954   24246263.818
        38.2004         36.0004
 -15205884.14947 -11838737.71847  21921697.6274   21921699.0364   21921698.524
        45.5004         42.5004
    476868.95345    371233.86845  24848301.5544   24848303.1564   24848302.606
        35.7004         34.1004
 -19241031.96847 -14982418.58547  21663732.1704   21663729.9244   21663732.521
        46.5004         43.5004
 -23976425.59348 -18662656.27547  20534107.1044   20534107.3564   20534107.603
        50.5004         47.5004
 -15375844.62247 -11247463.05646  22104071.5184   22104068.5574   22104072.235
        43.2004         40.4004
 -15231011.48347 -11438085.32646  22376426.1334   22376422.7834   22376427.189
        44.2004         41.2004
 16 10 26  0 30  0.0000000  0 10G24G31G32G01G25G11G14G10G18G12
   -911085.30746   -442137.58145  24767912.4034   24767913.4714   24767912.336
        37.3004         35.2004
 -17332114.04947 -13477201.64747  21690373.1844   21690370.7784   21690373.330
        47.4004         44.4004
 -24658597.58648 -19198686.26047  20598170.1954   20598170.2004   20598169.780
        50.7004         47.7004
  -3247855.70746  -2514083.33146  24238792.1054   24238793.6054   24238792.760
        38.3004         36.2004
 -15262444.53447 -11882810.72947  21910934.8114   21910936.0554   21910935.315
        45.6004         42.6004
    499049.68945    388517.53345  24852524.7154   24852522.6744   24852522.942
        35.2004         33.3004
 -19287410.51747 -15018557.69447  21654906.3364   21654904.7674   21654907.082
        46.5004         43.5004
 -23933918.76448 -18629534.08447  20542196.1324   20542196.0204   20542195.375
        50.5004         47.5004
 -15292372.35447 -11182419.76146  22119955.4374   22119954.2504   22119954.750
        43.2004         40.4004
 -15218862.24747 -11428618.37146  22378737.6904   22378734.7304   22378737.507
        44.1004         41.2004
 16 10 26  0 30 30.0000000  0 10G24G31G32G01G25G11G14G10G18G12
   -806547.61946   -360679.62245  24787804.6554   24787804.3434   24787803.734
        37.1004         35.2004
 -17410292.65947 -13538119.98747  21675496.7364   21675493.9094   21675496.163
        47.4004         44.4004
 -24668800.66648 -19206636.69547  20596228.7024   20596228.6824   20596228.243
        50.8004         47.8004
  -3286598.07946  -2544272.22846  24231421.2744   24231420.8644   24231421.853
        39.0004         36.6004
 -15318493.57847 -11926485.27847  21900268.7084   21900270.4654   21900269.567
        45.6004         42.8004
    521705.93745    406171.76745  24856831.9554   24856836.3514   24856834.194
        35.2004         33.8004
 -19333641.59547 -15054581.88447  21646108.6654   21646106.6144   21646109.569
        46.5004         43.5004
 -23890905.16848 -18596017.00447  20550381.3284   20550381.3714   20550381.632
        50.5004         47.5004
 -15208580.42347 -11117127.40246  22135900.7124   22135897.7554   22135900.826
        43.0004         40.2004
 -15206084.33847 -11418661.53746  22381169.2374   22381167.4764   22381169.534
        44.2004         41.4004
 16 10 26  0 31  0.0000000  0 10G24G31G32G01G25G11G14G10G18G12
   -702002.30346   -279215.72945  24807699.0564   24807699.1134   24807698.450
        37.1004         35.2004
 -17488094.77347 -13598744.97447  21660691.3224   21660688.4924   21660690.783
        47.4004         44.2004
 -24678762.92148 -19214399.48747  20594332.8944   20594332.6164   20594333.174
        50.8004         47.8004
  -3324815.31846  -2574051.93446  24224148.5894   24224149.6474   24224147.113
        39.0004         36.7004
 -15374028.72747 -11969759.39247  21889701.1754   21889702.6224   21889700.912
        45.6004         42.8004
    544835.88845    424195.08745  24861234.7534   24861235.6914   24861235.874
        35.2004         33.6004
 -19379725.07947 -15090491.06447  21637339.1264   21637337.5224   21637340.044
        46.5004         43.5004
 -23847385.67448 -18562105.71647  20558662.7174   20558662.7984   20558662.489
        50.5004         47.3004
 -15124470.31447 -11051587.09346  22151906.7624   22151905.8174   22151906.193
        43.0004         40.4004
 -15192677.79747 -11408214.88246  22383721.0334   22383717.4114   22383721.272
        44.2004         41.2004
 16 10 26  0 31 30.0000000  0 10G24G31G32G01G25G11G14G10G18G12
   -597451.36446   -197747.45845  24827595.1304   24827596.6994   24827594.773
        37.1004         35.0004
 -17565519.33147 -13659075.74847  21645957.2834   21645955.5974   21645956.667
        47.2004         44.2004
 -24688484.06048 -19221974.38547  20592483.4184   20592483.0444   20592483.236
        50.8004         47.8004
  -3362506.47046  -2603421.70846  24216974.1384   24216976.6104   24216973.661
        38.7004         36.0004
 -15429047.55047 -12012631.17747  21879231.3714   21879232.4054   21879231.442
        45.8004         42.8004
    568437.79445    442586.19645  24865728.5284   24865729.1494   24865727.970
        34.9004         33.3004
 -19425660.75547 -15126285.06747  21628598.5744   21628596.6294   21628598.903
        46.5004         43.5004
 -23803360.75048 -18527800.59047  20567040.0884   20567040.5404   20567039.908
        50.5004         47.5004
 -15040043.57847 -10985800.07046  22167971.8134   22167969.5574   22167973.483
        43.2004         40.2004
 -15178642.00947 -11397277.88746  22386391.8824   22386388.0444   22386390.863
        44.1004         41.2004
 16 10 26  0 32  0.0000000  0 10G24G31G32G01G25G11G14G10G18G12
   -492896.78946   -116276.36045  24847491.5344   24847490.6444   24847489.339
        37.1004         35.2004
 -17642564.83847 -13719111.16347  21631296.0044   21631294.1894   21631295.702
        47.2004         44.2004
 -24697963.74748 -19229361.15247  20590679.3644   20590678.8064   20590679.412
        50.8004         47.8004
  -3399670.40046  -2632380.67445  24209903.9974   24209903.4594   24209903.083
        38.0004         35.7004
 -15483547.49347 -12055098.64247  21868860.4504   21868861.3014   21868860.845
        45.8004         42.8004
    592510.17645    461343.93945  24870308.7564   24870307.3134   24870308.663
        34.3004         32.9004
 -19471448.26647 -15161963.62447  21619884.9364   21619883.1774   21619885.553
        46.5004         43.5004
 -23758830.97148 -18493102.06947  20575513.8104   20575514.2074   20575513.851
        50.5004         47.3004
 -14955301.76547 -10919767.51746  22184097.7444   22184095.2744   22184098.148
        43.0004         40.0004
 -15163978.07147 -11385851.41946  22389182.5294   22389179.9364   22389181.593
        44.4004         41.4004
 16 10 26  0 32 30.0000000  0 10G24G31G32G01G25G11G14G10G18G12
   -388339.93446    -34803.46045  24867385.6824   24867387.3634   24867385.805
        37.0004         35.0004
 -17719230.63147 -13778850.72047  21616707.8714   21616704.5594   21616707.720
        47.4004         44.4004
 -24707201.67348 -19236559.53647  20588921.3154   20588920.8734   20588921.291
        50.8004         47.8004
  -3436306.20646  -2660928.09945  24202931.2004   24202932.8554   24202931.386
        38.2004         35.7004
 -15537526.15547 -12097159.91047  21858587.9934   21858589.0494   21858588.338
        45.8004         42.8004
    617051.14245    480466.71645  24874978.2384   24874976.3644   24874977.864
        34.3004         33.1004
 -19517087.40247 -15197526.56247  21611200.6184   21611198.4984   21611200.617
        46.7004         43.7004
 -23713797.00548 -18458010.68447  20584083.3524   20584084.2594   20584083.140
        50.3004         47.3004
 -14870246.30947 -10853490.59446  22200283.2964   22200280.6164   22200284.114
        42.9004         39.9004
 -15148685.73347 -11373935.31946  22392092.2214   22392088.6114   22392091.583
        44.2004         41.2004
 16 10 26  0 33  0.0000000  0 10G24G31G32G01G25G11G14G10G18G12
   -283782.73446     46669.67245  24887284.1924   24887284.6054   24887283.968
        37.0004         34.8004
 -17795515.42947 -13838293.36347  21602189.9764   21602188.7374   21602190.346
        47.4004         44.2004
 -24716197.47448 -19243569.24747  20587209.2884   20587208.8904   20587209.160
        50.8004         47.7004
  -3472412.88846  -2689063.23146  24196059.3904   24196062.3614   24196059.632
        38.3004         36.0004
 -15590981.08347 -12138813.08047  21848416.3304   21848417.0934   21848417.325
        45.8004         42.8004
    642058.90945    499953.30445  24879734.5794   24879736.2644   24879736.850
        34.3004         32.7004
 -19562578.05047 -15232973.79547  21602543.2344   21602541.8354   21602544.007
        46.7004         43.7004
 -23668259.49048 -18422526.92047  20592749.0254   20592749.4414   20592749.490
        50.3004         47.3004
 -14784879.05547 -10786970.66646  22216529.0094   22216526.6804   22216528.961
        42.9004         39.9004
 -15132764.95347 -11361529.47846  22395121.8644   22395118.9534   22395122.426
        44.2004         41.4004
 16 10 26  0 33 30.0000000  0 10G24G31G32G01G25G11G14G10G18G12
   -179226.69346    128141.91745  24907179.1644   24907180.2084   24907180.100
        37.0004         34.8004
 -17871417.88647 -13897438.08647  21587745.8004   21587744.4214   21587745.405
        47.2004         44.2004
 -24724950.85448 -19250390.05147  20585543.2534   20585543.0654   20585542.621
        50.8004         47.7004
  -3507989.39946  -2716785.21746  24189291.0334   24189291.4194   24189290.755
        38.5004         36.2004
 -15643909.86847 -12180056.25747  21838344.0224   21838344.8814   21838344.163
        45.8004         42.8004
    667531.73645    519802.26245  24884582.8334   24884581.8024   24884585.054
        33.5004         32.4004
 -19607919.63247 -15268304.86947  21593915.6904   21593914.5224   21593917.081
        46.9004         43.9004
 -23622219.13348 -18386651.32947  20601510.2354   20601511.0524   20601510.150
        50.5004         47.3004
 -14699201.53447 -10720208.98946  22232831.5424   22232830.1094   22232833.235
        42.9004         40.0004
 -15116216.58747 -11348634.65046  22398271.1194   22398267.9414   22398270.934
        44.2004         41.2004
 16 10 26  0 34  0.0000000  0 10G24G31G32G01G25G11G14G10G18G12
    -74673.75346    209611.75345  24927075.6514   24927074.2394   24927076.253
        36.6004         34.5004
 -17946937.25847 -13956284.31947  21573375.7104   21573373.0394   21573375.723
        47.2004         44.4004
 -24733461.48048 -19257021.69747  20583923.6544   20583923.7984   20583923.482
        50.7004         47.7004
  -3543034.88946  -2744093.43846  24182622.4914   24182623.2684   24182622.662
        38.7004         36.4004
 -15696310.12847 -12220887.59447  21828372.6044   21828373.6534   21828372.441
        45.8004         42.8004
    693467.81145    540012.24145  24889518.1534   24889520.2484   24889519.027
        33.3004         32.0004
 -19653111.99847 -15303519.67847  21585315.8934   21585313.6364   21585316.689
        46.9004         43.9004
 -23575676.58648 -18350384.42047  20610367.2554   20610367.8684   20610367.419
        50.5004         47.5004
 -14613215.40847 -10653206.83046  22249194.7464   22249192.0154   22249194.041
        42.7004         39.9004
 -15099041.24847 -11335251.26046  22401539.6304   22401537.1044   22401538.957
        44.1004         41.2004
 16 10 26  0 34 30.0000000  0 10G24G31G32G01G25G11G14G10G18G12
     29875.19646    291078.47545  24946971.8884   24946969.0864   24946969.864
        36.4004         34.5004
 -18022071.96147 -14014830.80847  21559078.5454   21559075.7764   21559078.197
        47.4004         44.5004
 -24741729.01948 -19263463.94747  20582350.1884   20582350.3444   20582349.948
        50.7004         47.5004
  -3577548.46146  -2770987.15946  24176053.7764   24176054.0734   24176054.243
        38.7004         36.2004
 -15748179.44647 -12261305.21947  21818501.9294   21818503.5234   21818502.218
        45.8004         43.0004
    719865.55445    560581.91745  24894544.5764   24894539.5424   24894545.529
        33.0004         32.0004
 -19698154.99347 -15338618.09847  21576744.5404   21576742.2304   21576745.554
        46.9004         43.9004
 -23528632.58448 -18313726.76647  20619319.3124   20619320.0004   20619318.312
        50.5004         47.5004
 -14526922.41847 -10585965.55746  22265615.9194   22265613.3454   22265616.503
        42.7004         39.5004
 -15081238.35847 -11321378.86846  22404925.4444   22404923.5004   22404924.792
        43.9004         40.9004
 16 10 26  0 35  0.0000000  0 10G24G31G32G01G25G11G14G10G18G12
    134417.68046    372540.15545  24966864.7684   24966863.8744   24966863.535
        36.6004         34.5004
 -18096821.23247 -14073076.95047  21544853.8024   21544852.0114   21544853.991
        47.5004         44.4004
 -24749753.12448 -19269716.50547  20580823.6944   20580823.5604   20580823.591
        50.7004         47.7004
  -3611529.13946  -2797465.66946  24169587.7094   24169587.8214   24169586.609
        38.3004         36.0004
 -15799515.49347 -12301307.30447  21808733.7774   21808735.2424   21808733.534
        46.0004         43.0004
    746722.75545    581509.52945  24899650.5194   24899656.8354   24899654.611
        33.3004         32.0004
 -19743048.56847 -15373600.07947  21568201.2474   21568199.4464   21568201.736
        46.9004         43.7004
 -23481087.86948 -18276678.94247  20628366.4864   20628367.3614   20628366.596
        50.5004         47.3004
 -14440323.91847 -10518486.25146  22282094.8554   22282093.4774   22282093.516
        42.5004         39.5004
 -15062809.22147 -11307018.50846  22408433.9884   22408430.8314   22408434.967
        44.1004         41.2004
 16 10 26  0 35 30.0000000  0 10G24G31G32G01G25G11G14G10G18G12
    238952.69446    453996.01245  24986756.0014   24986755.9054   24986757.031
        36.4004         34.5004
 -18171183.92447 -14131021.86447  21530702.8204   21530701.0754   21530702.445
        47.5004         44.5004
 -24757533.42948 -19275779.06747  20579343.1164   20579342.9874   20579342.597
        50.7004         47.7004
  -3644976.08046  -2823528.28946  24163223.4684   24163223.5294   24163223.694
        38.5004         36.2004
 -15850315.92347 -12340892.02547  21799066.3334   21799067.2984   21799067.386
        46.0004         43.0004
    774037.73745    602793.97445  24904852.6754           .000    24904850.891
        32.6004         31.5004
 -19787792.36347 -15408465.35547  21559686.2034   21559684.4574   21559686.734
        46.7004         43.5004
 -23433043.16248 -18239241.52747  20637509.4464   20637509.7064   20637509.474
        50.5004         47.3004
 -14353421.29847 -10450769.91946  22298632.3784   22298630.1044   22298632.933
        42.3004         39.7004
 -15043753.10347 -11292169.55746  22412059.2824   22412057.1854   22412059.225
        43.9004         40.9004
 16 10 26  0 36  0.0000000  0 10G24G31G32G01G25G11G14G10G18G12
    343478.00846    535444.33145  25006646.1744   25006647.1664   25006647.233
        36.3004         34.3004
 -18245159.01647 -14188664.74247  21516626.3034   21516623.7614   21516625.880
        47.7004         44.7004
 -24765069.63848 -19281651.43647  20577909.4364   20577908.8434   20577909.680
        50.7004         47.7004
  -3677888.45946  -2849174.37046  24156959.8274   24156961.0924   24156959.049
        38.3004         36.0004
 -15900578.38747 -12380057.55047  21789501.6774   21789502.5344   21789502.739
        46.0004         43.0004
    801808.64045    624433.68745  24910135.5094           .000    24910137.449
        32.3004         31.7004
 -19832385.90147 -15443213.54447  21551200.0914   21551199.3924   21551200.610
        46.7004         43.7004
 -23384499.25048 -18201415.10947  20646747.1474   20646747.1814   20646747.221
        50.5004         47.3004
 -14266216.63447 -10382818.21946  22315226.3804   22315224.3124   22315228.220
        42.3004         39.5004
 -15024071.63847 -11276833.33646  22415804.5154   22415803.9924   22415804.417
        43.9004         41.1004
 16 10 26  0 36 30.0000000  0 10G24G31G32G01G25G11G14G10G18G12
    447992.08546    616883.87445  25026534.5564   25026535.5394   25026536.519
        36.3004         34.3004
 -18318745.43347 -14246004.78047  21502623.5844   21502620.1224   21502623.771
        47.9004         44.7004
 -24772361.38248 -19287333.31647  20576521.5874   20576521.5234   20576521.653
        50.7004         47.7004
  -3710265.46546  -2874403.23445  24150799.3244   24150798.2544   24150798.425
        38.2004         35.9004
 -15950300.62747 -12418802.13447  21780040.2954   21780041.4634   21780040.289
        46.2004         43.3004
    830033.65445    646427.17545          .000            .000    24915506.814
        31.7004         31.2004
 -19876828.95447 -15477844.47847  21542743.3684   21542742.1604   21542744.330
        46.7004         43.7004
 -23335456.90448 -18163200.30947  20656079.8944   20656079.7094   20656079.967
        50.3004         47.3004
 -14178711.58847 -10314632.49646  22331877.5054   22331876.1604   22331877.480
        42.3004         39.3004
 -15003764.81747 -11261009.83746  22419669.6474   22419666.5404   22419669.760
        44.1004         41.1004
 16 10 26  0 37  0.0000000  0 10G24G31G32G01G25G11G14G10G18G12
    552493.52846    698313.57945  25046422.2534   25046422.3344   25046424.880
        36.1004         34.1004
 -18391942.21847 -14303041.20447  21488693.5694   21488691.7644   21488694.033
        47.9004         44.7004
 -24779408.29648 -19292824.40147  20575180.3764   20575180.2884   20575180.341
        50.7004         47.7004
  -3742106.24546  -2899214.27646  24144740.2314   24144742.2364   24144740.117
        38.5004         36.4004
 -15999480.35647 -12457123.97247  21770681.8494   21770683.2524   21770682.868
        46.3004         43.3004
    858710.78044      7079.05343          .000            .000    24920965.541
        26.4004         23.4004
 -19921121.48847 -15512358.11447  21534315.0474   21534313.0204   21534316.015
        46.9004         43.9004
 -23285916.94648 -18124597.74547  20665506.5914   20665506.7214   20665506.577
        50.3004         47.2004
 -14090907.66747 -10246213.88046  22348586.4614   22348584.7734   22348587.121
        42.3004         39.7004
 -14982832.57347 -11244698.97446  22423653.3954   22423650.2744   22423652.668
        44.1004         41.1004
 16 10 26  0 37 30.0000000  0 10G24G31G32G01G25G11G14G10G18G12
    656980.73145    779732.19845  25066304.8244   25066306.5494   25066306.466
        35.9004         34.1004
 -18464748.29247 -14359773.17447  21474839.5894   21474838.0384   21474839.477
        47.9004         44.9004
 -24786210.04848 -19298124.46647  20573886.2874   20573886.0044   20573886.800
        50.7004         47.7004
  -3773410.07146  -2923606.91646  24138783.4954   24138784.6584   24138783.871
        38.7004         36.6004
 -16048115.31347 -12495021.31947  21761426.2044   21761427.4404   21761426.355
        46.3004         43.3004
    887838.03544     29705.21444          .000            .000    24926510.094
        26.4004         29.3004
 -19965263.10747 -15546754.17147  21525915.7604   21525913.4794   21525916.757
        47.0004         44.0004
 -23235880.19248 -18085608.08047  20675028.3344   20675028.7954   20675028.526
        50.3004         47.3004
 -14002806.53147 -10177563.65346  22365351.4604   22365349.9144   22365352.324
        42.5004         39.7004
 -14961275.83647 -11227901.51446  22427754.5664   22427751.8954   22427754.940
        44.1004         41.1004
 16 10 26  0 38  0.0000000  0 10G24G31G32G01G25G11G14G10G18G12
    761451.70345    861138.15945  25086184.5554   25086185.7804   25086183.110
        35.7004         33.8004
 -18537162.32447 -14416199.65747  21461059.3604   21461057.1624   21461058.907
        47.9004         44.9004
 -24792766.30048 -19303233.21547  20572638.3514   20572638.3894   20572638.617
        50.7004         47.5004
  -3804176.13146  -2947580.52246  24132929.5294   24132930.4614   24132928.479
        39.0004         36.7004
 -16096203.27447 -12532492.42247  21752275.1994   21752276.7434   21752275.311
        46.3004         43.3004
    917413.74144     52610.03045          .000            .000    24932133.426
        26.4004         30.0004
 -20009253.58547 -15581032.44047  21517544.6674   21517542.1884   21517544.923
        47.0004         43.9004
 -23185347.47848 -18046231.95047  20684644.3914   20684644.6004   20684643.689
        50.3004         47.3004
 -13914410.17147 -10108683.39946  22382173.7454   22382171.8534   22382172.789
        42.7004         39.7004
 -14939095.23847 -11210617.89946  22431975.6384   22431971.5074   22431975.741
        43.9004         40.9004
 16 10 26  0 38 30.0000000  0 10G24G31G32G01G25G11G14G10G18G12
    865905.49445    942530.70145  25106062.8654   25106062.4004   25106060.539
        35.7004         34.0004
 -18609183.70347 -14472320.17247  21447354.4304   21447351.8194   21447354.587
        47.9004         44.9004
 -24799076.69148 -19308150.39647  20571437.0504   20571437.4194   20571436.184
        50.5004         47.5004
  -3834403.67846  -2971134.49546  24127176.4944   24127178.1354   24127174.995
        39.0004         36.7004
 -16143742.00047 -12569535.55147  21743229.5074   21743230.6534   21743229.771
        46.5004         43.5004
    947435.50544      5465.80043          .000            .000    24937847.106
        26.4004         23.4004
 -20053092.37247 -15615192.51547  21509201.6914   21509200.1294   21509202.304
        47.0004         44.0004
 -23134319.66348 -18006470.02747  20694354.8014   20694354.9464   20694355.044
        50.3004         47.3004
 -13825719.98847 -10039574.18246  22399050.2714   22399048.8994   22399051.900
        42.5004         39.7004
 -14916291.37047 -11192848.63546  22436314.2424   22436312.4314   22436314.368
        43.9004         40.9004
 16 10 26  0 39  0.0000000  0 10G24G31G32G01G25G11G14G10G18G12
    970340.27445   1023908.44245  25125936.1814   25125937.1674   25125932.194
        35.7004         34.0004
 -18680811.67247 -14528134.12947  21433723.8814   21433721.6144   21433723.080
        47.9004         44.7004
 -24805140.83148 -19312875.69447  20570283.1784   20570283.3264   20570282.957
        50.5004         47.5004
  -3864092.04146  -2994268.31546  24121525.9754   24121528.1564   24121526.332
        38.9004         36.2004
 -16190729.33447 -12606149.03547  21734287.5464   21734289.1864   21734287.647
        46.5004         43.5004
    977901.28544     29190.21344          .000            .000    24943645.145
        26.4004         28.2004
 -20096779.40547 -15649234.34247  21500887.9004   21500886.0144   21500888.887
        47.0004         43.9004
 -23082797.65248 -17966323.02047  20704159.1264   20704159.3374   20704159.037
        50.3004         47.3004
 -13736737.93747  -9970237.53146  22415981.9104   22415982.0954   22415982.330
        42.3004         39.3004
 -14892865.26247 -11174594.52046  22440771.5084   22440770.4754   22440771.748
        43.9004         41.1004
 16 10 26  0 39 30.0000000  0 10G24G31G32G01G25G11G14G10G18G12
   1074754.37845   1105270.09345  25145805.9134   25145806.0254   25145804.497
        35.6004         33.6004
 -18752044.75147 -14583640.39147  21420169.0894   21420166.0554   21420169.120
        47.9004         44.9004
 -24810958.39248 -19317408.84647  20569175.9954   20569176.3294   20569175.444
        50.5004         47.5004
  -3893240.57346  -3016981.50246  24115980.2664   24115980.0004   24115979.892
        38.7004         36.4004
 -16237163.08547 -12642331.15047  21725451.8724   21725452.5984   21725452.273
        46.5004         43.3004
   1008809.54844     53238.13144          .000            .000    24949526.808
        26.4004         29.6004
 -20140314.15647 -15683157.51247  21492603.7914   21492601.6464   21492604.389
        46.9004         43.7004
 -23030782.32148 -17925791.60247  20714057.4564   20714057.8124   20714057.362
        50.3004         47.3004
 -13647465.44347  -9900674.55246  22432969.7964   22432969.7554   22432972.179
        42.0004         39.2004
 -14868816.54247 -11155855.24146  22445348.4674   22445346.7134   22445349.347
        43.7004         40.9004
 16 10 26  0 40  0.0000000  0 10G24G31G32G01G25G11G14G10G18G12
   1179146.62545   1186614.70745  25165669.4354   25165668.8524   25165668.155
        35.7004         34.0004
 -18822882.01148 -14638838.21747  21406688.4544   21406686.2514   21406688.058
        48.1004         44.9004
 -24816528.99748 -19321749.57547  20568116.3304   20568116.5884   20568116.096
        50.5004         47.7004
  -3921848.51046  -3039273.41446  24110536.7664   24110537.7034   24110536.211
        38.7004         36.4004
 -16283041.14747 -12678080.26247  21716721.3024   21716722.3684   21716721.781
        46.5004         43.5004
   1040158.25054      3704.62253          .000            .000    24955493.591
        26.4004         23.4004
 -20183696.58347 -15716961.98847  21484348.1164   21484346.2514   21484348.499
        46.9004         43.7004
 -22978274.61948 -17884876.52147  20724048.9514   20724049.6214   20724048.568
        50.3004         47.3004
 -13557904.04047  -9830886.46746  22450013.0894   22450012.3884   22450014.533
        42.2004         39.3004
 -14844146.05247 -11136631.47546  22450043.8584   22450042.0494   22450043.081
        43.9004         41.2004
 16 10 26  0 40 30.0000000  0 10G24G31G32G01G25G11G14G10G18G12
   1283514.91445   1267940.64545  25185526.7464   25185530.1224   25185530.588
        35.4004         33.8004
 -18893322.45348 -14693726.82547  21393284.1954   21393281.9564   21393284.291
        48.1004         45.1004
 -24821852.28048 -19325897.56647  20567103.3274   20567103.3624   20567103.029
        50.7004         47.5004
  -3949915.23946  -3061143.65746  24105195.6794   24105196.9584   24105196.197
        38.7004         36.4004
 -16328361.32047 -12713394.65947  21708097.9584   21708098.3754   21708098.551
        46.5004         43.5004
   1071945.25844     28493.76044          .000            .000    24961542.265
        26.4004         29.3004
 -20226926.16747 -15750647.35547  21476121.7944   21476119.9064   21476121.573
        46.7004         43.9004
 -22925275.42548 -17843578.46147  20734134.6654   20734134.9824   20734135.034
        50.3004         47.3004
 -13468055.94447  -9760874.98046  22467111.8614   22467109.6604   22467113.434
        42.2004         39.7004
 -14818854.84147 -11116924.03546  22454856.4464   22454853.5734   22454856.566
        43.9004         41.1004
 16 10 26  0 41  0.0000000  0 10G24G31G32G01G25G11G14G10G18G12
   1387857.95945   1349246.92045  25205385.6874   25205385.1054   25205385.879
        35.7004         34.0004
 -18963365.43648 -14748305.73747  21379955.5714   21379953.9384   21379955.872
        48.2004         45.2004
 -24826927.86248 -19329852.56347  20566137.3924   20566137.6054   20566136.967
        50.7004         47.5004
  -3977440.17446  -3082591.69246  24099959.0174   24099959.1354   24099958.383
        39.0004         36.7004
 -16373121.57047 -12748272.75447  21699579.2734   21699580.2144   21699579.705
        46.5004         43.3004
   1104168.42344     53662.97044          .000            .000    24967673.428
        26.4004         29.8004
 -20270002.70947 -15784213.47347  21467924.8584   21467923.4064   21467925.567
        46.9004         44.0004
 -22871785.72048 -17801898.18947  20744313.3004   20744313.8024   20744313.522
        50.3004         47.2004
 -13377922.68247  -9690641.29046  22484262.8824   22484262.0044   22484262.643
        42.3004         39.7004
 -14792943.81147 -11096733.60046  22459787.7454   22459785.2474   22459787.071
        43.7004         40.7004
 16 10 26  0 41 30.0000000  0 11G24G31G22G32G01G25G11G14G10G18G12
   1492174.57045   1430532.58245  25225236.4674   25225236.7834   25225235.886
        35.7004         34.0004
 -19033010.28248 -14802574.40847  21366702.5034   21366700.4394   21366702.684
        48.2004         45.1004
   -274542.37544   -195716.52745          .000            .000    25142602.333
        26.4004         30.8004
 -24831755.38548 -19333614.26747  20565218.8024   20565219.1464   20565218.084
        50.7004         47.7004
  -4004422.65346  -3103617.05246  24094823.2654   24094823.3374   24094823.297
        39.2004         36.7004
 -16417319.76947 -12782712.87647  21691168.2584   21691170.1384   21691169.233
        46.3004         43.3004
   1136825.63544      2172.97143          .000            .000    24973888.183
        26.4004         23.4004
 -20312925.96547 -15817660.14947  21459756.8714   21459755.3954   21459757.450
        47.0004         44.2004
 -22817806.45648 -17759836.43547  20754585.2984   20754585.5774   20754585.278
        50.3004         47.2004
 -13287506.38247  -9620187.03946  22501469.3164   22501467.2894   22501469.207
        42.2004         39.2004
 -14766413.43247 -11076060.58546  22464836.0214   22464833.2174   22464836.561
        43.9004         41.4004
 16 10 26  0 42  0.0000000  0 11G24G31G22G32G01G25G11G14G10G18G12
   1596462.98146   1511796.28245  25245081.7944   25245081.9494   25245079.861
        36.1004         34.3004
 -19102255.40448 -14856531.60747  21353525.3514   21353523.1034   21353524.939
        48.2004         45.1004
   -375620.54444    -31316.25243          .000            .000    25123367.127
        26.4004         23.4004
 -24836334.44648 -19337182.35747  20564347.3254   20564347.4944   20564347.259
        50.7004         47.5004
  -4030862.14246  -3124219.27946  24089792.9904   24089791.7694   24089791.879
        38.9004         36.6004
 -16460953.88147 -12816713.45247  21682865.2644   21682867.0374   21682865.136
        46.3004         43.3004
   1169914.92344     27957.84644          .000            .000    24980184.762
        26.4004         28.4004
 -20355695.52747 -15850987.06047  21451618.4734   21451616.5304   21451619.221
        47.2004         44.2004
 -22763338.64848 -17717393.99247  20764950.2454   20764950.5084   20764950.528
        50.3004         47.2004
 -13196808.46146  -9549513.35946  22518728.8034   22518726.2034   22518728.587
        41.8004         38.8004
 -14739264.07947 -11054905.23146  22470002.0884   22469999.1804   22470001.755
        43.9004         40.6004
 16 10 26  0 42 30.0000000  0 11G24G31G22G32G01G25G11G14G10G18G12
   1700721.38146   1593036.59545  25264922.7124   25264922.6484   25264921.340
        36.1004         34.1004
 -19171100.38248 -14910177.00347  21340425.1104   21340422.4054   21340425.006
        48.2004         45.2004
   -476635.61244   -110029.66845          .000            .000    25104143.733
        26.4004         34.0004
 -24840664.67748 -19340556.53647  20563523.3304   20563523.4304   20563522.904
        50.7004         47.7004
  -4056758.08446  -3144397.95246  24084864.3394   24084864.7484   24084864.365
        39.0004         36.9004
 -16504021.88847 -12850272.90047  21674669.7894   21674670.8694   21674669.740
        46.3004         43.2004
   1203434.17444     54080.71744          .000            .000    24986563.966
        26.4004         29.4004
 -20398311.28747 -15884194.13047  21443509.0544   21443507.2954   21443510.005
        47.4004         44.4004
 -22708383.29848 -17674571.64647  20775407.7364   20775408.0144   20775407.793
        50.3004         47.2004
 -13105830.55646  -9478621.50646  22536040.7194   22536039.1034   22536041.523
        41.6004         38.8004
 -14711497.29447 -11033268.75846  22475286.3974   22475282.0314   22475285.683
        43.6004         40.7004
 16 10 26  0 43  0.0000000  0 11G24G31G22G32G01G25G11G14G10G18G12
   1804948.70546   1674252.67545  25284756.1564   25284755.4364   25284756.676
        36.3004         34.5004
 -19239544.24448 -14963509.84347  21327400.6144   21327397.8894   21327400.421
        48.2004         45.2004
   -577585.61044   -188692.01545          .000            .000    25084933.033
        26.4004         34.0004
 -24844745.71348 -19343736.56747  20562746.8914   20562746.9934   20562746.752
        50.7004         47.7004
  -4082109.91746  -3164152.68346  24080038.3964   24080040.0494   24080040.021
        38.9004         36.2004
 -16546521.74347 -12883389.64947  21666581.9164   21666582.9274   21666582.441
        46.3004         43.3004
   1237381.40444        34.10943          .000            .000    24993021.913
        26.4004         23.4004
 -20440772.62747 -15917280.86347  21435428.7684   21435426.6974   21435429.031
        47.2004         44.2004
 -22652941.43248 -17631370.19947  20785958.2374   20785958.5194   20785958.106
        50.3004         47.2004
 -13014574.71846  -9407513.06246  22553405.5634   22553404.1894   22553405.997
        41.6004         39.0004
 -14683113.69947 -11011151.64446  22480687.3754   22480683.8964   22480687.033
        43.7004         40.9004
 16 10 26  0 43 30.0000000  0 11G24G31G22G32G01G25G11G14G10G18G12
   1909143.35246   1755443.28345  25304584.9004   25304582.8574   25304583.880
        36.1004         34.0004
 -19307586.14348 -15016529.46747  21314452.7224   21314449.9534   21314452.451
        48.2004         45.2004
   -678468.66545   -267302.14745          .000    25065731.3604   25065734.996
        34.5004         34.0004
 -24848577.16648 -19346722.10047  20562018.0794   20562017.7594   20562018.084
        50.7004         47.5004
  -4106917.16846  -3183483.06346  24075318.4994   24075320.6844   24075318.432
        38.7004         36.4004
 -16588451.44747 -12916062.12647  21658603.2244   21658604.3584   21658604.091
        46.3004         43.3004
   1271754.21544     26818.24744          .000            .000    24999563.917
        26.4004         28.9004
 -20483079.36147 -15950247.13447  21427378.2754   21427376.3624   21427379.631
        47.2004         44.2004
 -22597014.08548 -17587790.46047  20796600.1424   20796600.9014   20796601.008
        50.2004         47.0004
 -12923042.80846  -9336189.51546  22570823.8394   22570822.9724   22570826.531
        41.6004         38.8004
 -14654113.48547 -10988554.07346  22486206.0704   22486203.5214   22486205.416
        43.9004         41.1004
 16 10 26  0 44  0.0000000  0 11G24G31G22G32G01G25G11G14G10G18G12
   2013303.67446   1836607.22045  25324403.7634   25324405.5124   25324404.157
        36.1004         34.3004
 -19375225.11548 -15069235.13247  21301580.9094   21301579.2264   21301580.473
        48.4004         45.2004
   -779282.77645   -345858.60445  25046550.2824   25046544.6544   25046550.348
        35.9004         34.3004
 -24852158.66848 -19349512.87347  20561336.6234   20561336.2934   20561337.164
        50.7004         47.7004
  -4131179.37046  -3202388.73046  24070702.8344   24070701.6254   24070702.702
        39.0004         36.7004
 -16629809.09647 -12948288.84147  21650733.5144   21650734.3884   21650733.613
        46.5004         43.5004
   1306550.46644     53932.56845          .000            .000    25006182.285
        26.4004         30.1004
 -20525231.11647 -15983092.63047  21419356.4094   21419354.7074   21419356.394
        47.2004         44.2004
 -22540602.31448 -17543833.25547  20807335.0894   20807336.0924   20807335.146
        50.0004         47.0004
 -12831236.38446  -9264652.05646  22588293.6524   22588293.2954   22588292.162
        41.5004         38.6004
 -14624498.08647 -10965477.14046  22491841.9364   22491838.2754   22491842.563
        43.9004         40.9004
 16 10 26  0 44 30.0000000  0 11G24G31G22G32G01G25G11G14G10G18G12
   2117428.65945   1917743.57245  25344219.9974   25344219.2164   25344219.738
        35.9004         34.1004
 -19442460.66848 -15121626.44147  21288786.4714   21288784.2794   21288786.637
        48.4004         45.4004
   -880025.63556   -424359.51855  25027379.0915   25027376.6355   25027379.213
        36.4004         34.5004
 -24855489.82248 -19352108.58047  20560702.6414   20560702.2534   20560702.257
        50.7004         47.7004
  -4154896.00646  -3220869.24446  24066190.7544   24066190.2774   24066190.416
        39.0004         36.7004
 -16670592.69147 -12980068.24647  21642973.0094   21642973.2184   21642973.318
        46.5004         43.5004
      -740.904        -591.310            .000            .000    25012888.500
          .000            .000
 -20567227.35347 -16015816.94447  21411364.4574   21411362.9024   21411364.546
        47.0004         44.0004
 -22483707.20848 -17499499.41647  20818161.9014   20818162.5224   20818161.612
        50.0004         47.0004
 -12739157.35146  -9192902.21246  22605815.2114   22605814.8284   22605817.003
        41.1004         38.3004
 -14594268.13247 -10941921.30846  22497593.5334   22497592.1474   22497594.288
        43.9004         40.7004
 16 10 26  0 45  0.0000000  0 11G24G31G22G32G01G25G11G14G10G18G12
   2221516.67045   1998851.10345  25364026.1624   25364026.6334   25364024.649
        35.7004         34.0004
 -19509291.63548 -15173702.49147  21276068.9114   21276066.4774   21276068.595
        48.4004         45.4004
   -980695.37246   -502803.46945  25008221.9544   25008218.2464   25008222.216
        36.4004         34.5004
 -24858570.19648 -19354508.86847  20560116.5984   20560116.1174   20560116.724
        50.7004         47.7004
  -4178066.67846  -3238924.33546  24061779.4744   24061780.1514   24061779.800
        39.2004         36.7004
 -16710800.33647 -13011398.86547  21635321.5374   21635322.0884   21635322.337
        46.7004         43.7004
   1377405.64654     25541.37054          .000            .000    25019667.589
        26.4004         26.8004
 -20609067.83247 -16048419.89647  21403402.9294   21403400.6844   21403403.038
        47.0004         44.2004
 -22426329.84448 -17454789.79247  20829080.2644   20829081.1234   20829080.553
        50.0004         46.8004
 -12646807.27146  -9120941.10846  22623390.3474   22623388.7564   22623389.002
        41.1004         38.5004
 -14563424.91647 -10917887.64746  22503462.9624   22503460.6174   22503461.644
        43.9004         41.1004
 16 10 26  0 45 30.0000000  0 10G31G22G32G01G25G11G14G10G18G12
 -19575717.31448 -15225462.72147  21263428.5154   21263426.7314   21263428.340
        48.4004         45.4004
  -1081290.03946   -581188.92345  24989080.6934   24989078.0074   24989080.254
        36.6004         34.8004
 -24861399.41648 -19356713.44547  20559578.0124   20559577.4414   20559577.853
        50.7004         47.5004
  -4200690.92746  -3256553.66746  24057473.7414   24057474.5674   24057474.468
        39.0004         36.4004
 -16750430.16347 -13042279.22047  21627779.5794   21627781.1894   21627779.816
        46.5004         43.5004
   1413460.02354     53512.56155          .000            .000    25026529.477
        26.4004         30.0004
 -20650752.32747 -16080901.30047  21395470.3644   21395468.8084   21395470.751
        47.2004         44.2004
 -22368471.33948 -17409705.25347  20840090.7894   20840091.4024   20840090.129
        50.0004         47.0004
 -12554188.58146  -9048770.73446  22641014.7194   22641013.5694   22641017.080
        41.3004         38.5004
 -14531969.21647 -10893376.69146  22509448.5254   22509445.7054   22509449.138
        43.6004         40.6004
 16 10 26  0 46  0.0000000  0 10G31G22G32G01G25G11G14G10G18G12
 -19641736.91448 -15276906.52747  21250865.3964   21250863.1594   21250865.688
        48.4004         45.2004
  -1181807.36346   -659514.10045  24969952.1364   24969949.0064   24969953.716
        36.4004         34.6004
 -24863977.12048 -19358722.03647  20559087.1794   20559087.2304   20559086.799
        50.7004         47.5004
  -4222768.44446  -3273756.97346  24053274.3694   24053274.1294   24053275.167
        39.0004         36.7004
 -16789480.26747 -13072707.84747  21620348.1954   21620349.2164   21620348.506
        46.5004         43.5004
   1449929.33544     81807.00445          .000            .000    25033469.234
        26.4004         30.1004
 -20692280.31647 -16113260.74847  21387568.1224   21387566.1854   21387568.749
        47.2004         44.2004
 -22310132.87548 -17364246.72447  20851192.2784   20851192.6714   20851192.188
        50.2004         47.0004
 -12461302.57546  -8976392.01746  22658690.0044   22658688.7414   22658690.017
        41.1004         38.5004
 -14499902.05847 -10868389.28146  22515551.3704   22515548.2344   22515551.077
        43.6004         40.7004
 16 10 26  0 46 30.0000000  0 10G31G22G32G01G25G11G14G10G18G12
 -19707349.68348 -15328033.34247  21238379.6524   21238377.0344   21238380.285
        48.4004         45.4004
  -1282245.49846   -737777.54045  24950838.6904   24950835.4514   24950840.133
        36.6004         34.5004
 -24866302.88048 -19360534.31747  20558644.4954   20558644.7404   20558644.066
        50.7004         47.5004
  -4244298.81846  -3290533.94146  24049176.3764   24049176.6314   24049176.516
        38.9004         36.4004
 -16827948.79147 -13102683.30047  21613028.4574   21613029.3704   21613028.932
        46.5004         43.7004
   1486811.38844     24544.77444          .000            .000    25040485.544
        26.4004         25.3004
 -20733651.17447 -16145497.78147  21379696.1964   21379694.0614   21379696.873
        47.2004         44.2004
 -22251315.54548 -17318415.05147  20862385.3154   20862385.2924   20862385.974
        50.2004         47.0004
 -12368151.00246  -8903806.42846  22676416.6434   22676416.2754   22676418.266
        41.1004         38.3004
 -14467224.30847 -10842926.08746  22521768.8984   22521767.5014   22521769.053
        43.6004         40.6004
 16 10 26  0 47  0.0000000  0 10G31G22G32G01G25G11G14G10G18G12
 -19772554.83548 -15378842.52947  21225972.2484   21225969.0924   21225972.277
        48.6004         45.6004
  -1382602.10746   -815977.50345  24931740.7894   24931737.8394   24931742.265
        37.0004         35.0004
 -24868376.30448 -19362149.96447  20558249.8574   20558250.2044   20558249.360
        50.7004         47.5004
  -4265281.69946  -3306884.28546  24045182.2714   24045185.4314   24045181.367
        38.7004         36.4004
 -16865833.89847 -13132204.15547  21605819.5474   21605820.1704   21605820.576
        46.7004         43.7004
   1524103.78444     53476.66644          .000            .000    25047586.204
        26.4004         29.8004
 -20774865.19147 -16177612.56847  21371852.8394   21371851.0754   21371853.782
        47.4004         44.4004
 -22192020.52548 -17272211.14247  20873668.4104   20873668.6084   20873667.797
        50.2004         47.0004
 -12274736.31346  -8831015.76546  22694192.4184   22694190.5914   22694193.720
        41.1004         38.5004
 -14433936.84247 -10816987.79646  22528103.4544   22528100.5044   22528103.492
        43.4004         40.6004
 16 10 26  0 47 30.0000000  0 10G31G22G32G01G25G11G14G10G18G12
 -19837351.62348 -15429333.50947  21213641.1284   21213639.1574   21213641.483
        48.6004         45.6004
  -1482875.49146   -894112.62445  24912662.1594   24912657.0934   24912661.074
        37.3004         35.2004
 -24870196.98948 -19363568.67647  20557903.4464   20557903.5924   20557903.173
        50.7004         47.5004
  -4285716.78246  -3322807.79846  24041293.7484   24041296.0394   24041293.882
        39.0004         36.7004
 -16903133.88347 -13161269.05847  21598721.6684   21598722.3544   21598722.164
        46.9004         43.9004
   1561804.43454     82726.52654          .000            .000    25054757.912
        26.4004         29.3004
 -20815921.59947 -16209604.56147  21364040.4004   21364038.2044   21364040.869
        47.4004         44.4004
 -22132249.02248 -17225635.95347  20885042.5984   20885043.0174   20885042.651
        50.2004         47.0004
 -12181059.60146  -8758020.96546  22712018.7374   22712018.1464   22712019.983
        41.1004         38.6004
 -14400041.02047 -10790575.44646  22534555.2404   22534551.9004   22534555.389
        43.7004         41.1004
 16 10 26  0 48  0.0000000  0 10G31G22G32G01G25G11G14G10G18G12
 -19901739.32148 -15479505.70947  21201388.6384   21201386.7924   21201388.321
        48.6004         45.6004
  -1583063.01446   -972180.81045  24893596.3524   24893591.8474   24893596.407
        37.3004         35.2004
 -24871764.54648 -19364790.15647  20557605.3034   20557605.4784   20557604.934
        50.7004         47.5004
  -4305603.75846  -3338304.18046  24037511.3034   24037511.2224   24037511.273
        39.2004         36.9004
 -16939846.88547 -13189876.56247  21591735.0054   21591736.6374   21591735.622
        46.7004         43.7004
   1599911.30244     22897.54043          .000            .000    25062013.426
        26.4004         23.4004
 -20856819.83047 -16241473.28547  21356257.1434   21356255.4854   21356257.788
        47.4004         44.4004
 -22072002.19248 -17178690.38147  20896506.9084   20896507.3854   20896506.987
        50.0004         47.0004
 -12087123.38346  -8684823.93646  22729893.6764   22729892.6564   22729896.467
        41.3004         38.6004
 -14365537.91247 -10763689.90546  22541119.5944   22541116.7624   22541119.580
        43.7004         40.6004
 16 10 26  0 48 30.0000000  0 10G31G22G32G01G25G11G14G10G18G12
 -19965716.98348 -15529358.39347  21189214.0684   21189212.2654   21189213.988
        48.6004         45.6004
  -1683163.09046  -1050180.87645  24874548.6104   24874542.6474   24874548.054
        37.5004         35.2004
 -24873078.52048 -19365814.01847  20557355.1784   20557355.1354   20557354.743
        50.7004         47.5004
  -4324942.35946  -3353373.25646  24033831.0614   24033832.3884   24033831.028
        39.4004         36.9004
 -16975971.17547 -13218025.33947  21584860.8154   21584861.5994   21584860.517
        46.9004         43.9004
   1638420.67054     52918.79954          .000            .000    25069339.595
        26.4004         29.4004
 -20897559.68747 -16273218.61047  21348504.7464   21348503.0224   21348505.135
        47.4004         44.2004
 -22011281.29948 -17131375.41347  20908061.8174   20908062.5164   20908061.881
        50.0004         47.0004
 -11992929.43646  -8611426.06446  22747818.0584   22747817.7014   22747818.959
        41.1004         38.5004
 -14330428.18747 -10736331.68646  22547801.1644   22547797.9084   22547800.561
        43.6004         40.9004
 16 10 26  0 49  0.0000000  0  9G31G22G32G01G25G14G10G18G12
 -20029284.36148 -15578891.39547  21177118.2774   21177114.9574   21177118.908
        48.6004         45.4004
  -1783173.38146  -1128110.96445  24855516.5244   24855512.5554   24855517.127
        37.1004         35.0004
 -24874138.52648 -19366639.99147  20557153.6794   20557153.6144   20557153.241
        50.7004         47.5004
  -4343732.33746  -3368014.83446  24030254.3984   24030257.1164   24030255.287
        39.4004         36.7004
 -17011505.04447 -13245714.04147  21578098.9694   21578100.7814   21578099.605
        46.9004         44.0004
 -20938140.75947 -16304840.21147  21340781.8384   21340780.4954   21340782.349
        47.2004         44.2004
 -21950087.57648 -17083692.01047  20919706.5054   20919707.2894   20919706.701
        50.0004         46.8004
 -11898479.24446  -8537828.54046  22765793.3594   22765790.2284   22765794.889
        41.1004         38.3004
 -14294713.59747 -10708502.10546  22554597.4904   22554594.5134   22554597.528
        43.7004         40.7004
 16 10 26  0 49 30.0000000  0  9G31G22G32G01G25G14G10G18G12
 -20092440.41448 -15628103.87847  21165099.3874   21165096.8684   21165099.389
        48.6004         45.6004
  -1883092.16746  -1205969.75345  24836502.7174   24836498.1084   24836504.215
        37.1004         35.2004
 -24874944.20248 -19367267.79247  20557000.5724   20557000.3234   20557000.602
        50.7004         47.7004
  -4361973.44846  -3382228.74046  24026782.8094   24026784.4984   24026783.139
        39.4004         36.7004
 -17046446.76247 -13272941.34147  21571449.9114   21571450.4494   21571450.164
        47.0004         43.9004
 -20978562.82147 -16336337.90247  21333089.8564   21333088.2334   21333090.185
        47.2004         44.2004
 -21888422.22148 -17035641.09547  20931441.4394   20931441.8764   20931441.591
        50.2004         47.0004
 -11803775.11546  -8464033.12046  22783814.0424   22783811.0974   22783813.182
        40.9004         38.3004
 -14258394.96947 -10680201.90546  22561508.7114   22561505.4054   22561507.596
        43.4004         40.6004
 16 10 26  0 50  0.0000000  0  9G31G22G32G01G25G14G10G18G12
 -20155184.47648 -15676995.33647  21153160.0514   21153157.1944   21153159.427
        48.6004         45.6004
  -1982916.79046  -1283755.22845  24817507.2864   24817503.1974   24817508.490
        37.5004         35.3004
 -24875495.03548 -19367697.00147  20556895.6564   20556895.3384   20556895.636
        50.7004         47.5004
  -4379665.52246  -3396014.84946  24023417.2084   24023417.3584   24023418.582
        39.2004         36.7004
 -17080794.68547 -13299705.93747  21564913.2354   21564914.6534   21564913.584
        46.9004         43.9004
 -21018825.14147 -16367711.11747  21325427.8884   21325426.5664   21325428.385
        47.2004         44.0004
 -21826286.57148 -16987223.71647  20943265.1284   20943265.8804   20943265.442
        50.0004         46.8004
 -11708818.52746  -8390040.97546  22801883.7654   22801882.5694   22801883.998
        41.1004         38.5004
 -14221473.62647 -10651431.97746  22568535.0614   22568531.6304   22568535.304
        43.6004         40.6004
 16 10 26  0 50 30.0000000  0  9G31G22G32G01G25G14G10G18G12
 -20217516.00248 -15725565.31947  21141298.0204   21141295.9684   21141298.418
        48.6004         45.6004
  -2082645.46546  -1361465.88045  24798526.9234   24798524.3154   24798527.668
        37.0004         34.8004
 -24875790.70348 -19367927.38747  20556839.3924   20556839.0664   20556839.424
        50.7004         47.5004
  -4396808.39846  -3409372.97546  24020156.0794   24020156.5544   24020155.139
        39.2004         36.6004
 -17114547.18647 -13326006.55647  21558490.0234   21558491.6934   21558491.087
        46.9004         43.7004
 -21058927.49047 -16398959.68247  21317797.0364   21317795.3984   21317797.243
        47.2004         44.2004
 -21763681.87248 -16938440.85147  20955178.5194   20955178.6164   20955178.625
        50.0004         46.6004
 -11613611.77246  -8315853.89846  22819999.7744   22819998.9544   22820001.259
        41.1004         38.1004
 -14183950.61447 -10622193.26246  22575674.2124   22575672.3364   22575674.128
        43.4004         40.4004
 16 10 26  0 51  0.0000000  0  9G31G22G32G01G25G14G10G18G12
 -20279434.58548 -15773813.54647  21129515.8184   21129512.6104   21129515.710
        48.8004         45.8004
  -2182276.21446  -1439100.17245  24779568.8424   24779566.8054   24779569.614
        37.5004         35.5004
 -24875830.72548 -19367958.57147  20556831.8084   20556831.2314   20556831.921
        50.7004         47.5004
  -4413401.87446  -3422303.01046  24016998.2044   24016998.0304   24016998.028
        39.2004         36.7004
 -17147702.59647 -13351841.92747  21552181.2494   21552182.4184   21552181.601
        46.9004         43.7004
 -21098869.48647 -16430083.29847  21310196.5084   21310194.7584   21310197.030
        47.2004         44.4004
 -21700609.45748 -16889293.52247  20967180.8664   20967180.9554   20967180.351
        49.8004         46.6004
 -11518156.72446  -8241473.37846  22838164.3724   22838164.4824   22838166.531
        40.8004         37.9004
 -14145827.17447 -10592486.68546  22582929.7944   22582927.4424   22582929.845
        43.4004         40.6004
 16 10 26  0 51 30.0000000  0  9G31G22G32G01G25G14G10G18G12
 -20340939.22048 -15821739.20647  21117811.5134   21117809.0334   21117811.362
        48.8004         45.6004
  -2281806.78046  -1516656.45046  24760630.0814   24760626.5054   24760631.726
        38.2004         36.0004
 -24875614.72148 -19367790.24547  20556872.9344   20556872.6164   20556872.363
        50.7004         47.5004
  -4429445.86046  -3434804.83146  24013945.2514   24013944.2034   24013944.728
        39.0004         36.6004
 -17180259.36047 -13377210.81947  21545985.5074   21545986.2614   21545986.006
        46.9004         43.7004
 -21138650.76947 -16461081.69147  21302626.6704   21302624.9664   21302627.357
        47.4004         44.4004
 -21637070.60948 -16839782.74847  20979271.8574   20979272.1124   20979271.864
        49.8004         46.8004
 -11422455.41846  -8166900.94046  22856376.5414   22856373.9664   22856374.706
        40.6004         37.8004
 -14107104.48447 -10562313.14746  22590298.5344   22590294.7204   22590299.081
        43.6004         40.9004
 16 10 26  0 52  0.0000000  0  9G31G22G32G01G25G14G10G18G12
 -20402029.19448 -15869341.75147  21106186.4654   21106184.0824   21106186.432
        48.8004         45.6004
  -2381234.89846  -1594132.93445  24741709.2784   24741704.9364   24741710.520
        38.2004         35.7004
 -24875142.25848 -19367422.08547  20556962.7584   20556962.3224   20556962.292
        50.7004         47.5004
  -4444940.24546  -3446878.44346  24010997.7244   24010998.9204   24010996.751
        39.2004         37.1004
 -17212215.90947 -13402112.00647  21539904.7654   21539905.8224   21539904.904
        46.7004         43.7004
 -21178270.66847 -16491954.32447  21295086.9754   21295084.9914   21295087.450
        47.4004         44.4004
 -21573066.70548 -16789909.59047  20991451.6384   20991451.7884   20991451.565
        49.8004         46.6004
 -11326509.36746  -8092137.80546  22874634.8614   22874633.3974   22874636.873
        40.4004         37.8004
 -14067784.10947 -10531673.88446  22597780.4694   22597777.5244   22597781.205
        43.6004         40.6004
 16 10 26  0 52 30.0000000  0  9G31G22G32G01G25G14G10G18G12
 -20462703.91248 -15916620.70847  21094640.2914   21094638.0614   21094639.920
        48.8004         45.6004
  -2480558.46446  -1671527.93445  24722806.8424   24722802.9974   24722806.911
        37.6004         35.2004
 -24874412.91948 -19366853.76547  20557101.3264   20557101.1544   20557100.753
        50.7004         47.5004
  -4459884.87746  -3458523.64846  24008151.3954   24008154.6474   24008151.207
        39.4004         37.1004
 -17243570.65047 -13426544.25847  21533937.7354   21533939.3264   21533938.193
        46.9004         43.7004
 -21217728.93947 -16522701.01147  21287578.4054   21287576.2904   21287579.149
        47.4004         44.4004
 -21508599.06548 -16739675.08347  21003718.9214   21003719.8494   21003718.875
        49.8004         46.8004
 -11230320.62046  -8017185.54246  22892939.0204   22892936.8414   22892937.979
        40.4004         37.8004
 -14027867.09147 -10500569.70146  22605376.1004   22605374.0244   22605375.829
        43.6004         40.7004
 16 10 26  0 53  0.0000000  0  9G31G22G32G01G25G14G10G18G12
 -20522962.95748 -15963575.77447  21083173.4424   21083171.1894   21083173.642
        48.8004         45.8004
  -2579775.42946  -1748839.85445  24703929.2014   24703923.8394   24703929.021
        37.3004         35.3004
 -24873426.24248 -19366084.92147  20557289.1604   20557288.8494   20557288.728
        50.7004         47.5004
  -4474279.86746  -3469740.57046  24005412.6394   24005414.8044   24005413.067
        39.2004         36.6004
 -17274322.08747 -13450506.39747  21528086.0544   21528087.3324   21528086.744
        46.9004         43.7004
 -21257025.02347 -16553321.33347  21280100.6424   21280098.8044   21280100.996
        47.4004         44.5004
 -21443669.06848 -16689080.29647  21016075.0744   21016075.7064   21016075.141
        49.8004         46.8004
 -11133891.12046  -7942045.67546  22911287.2024   22911286.6164   22911289.899
        40.3004         37.4004
 -13987354.70747 -10469001.60546  22613085.2134   22613082.4124   22613084.755
        43.2004         40.0004
 16 10 26  0 53 30.0000000  0  9G31G22G32G01G25G14G10G18G12
 -20582805.96948 -16010206.65447  21071786.1644   21071782.9294   21071785.932
        48.9004         45.8004
  -2678883.53246  -1826066.99345  24685069.2914   24685063.4324   24685069.406
        37.8004         35.7004
 -24872181.84148 -19365115.25347  20557525.9094   20557525.7894   20557525.635
        50.7004         47.5004
  -4488125.06746  -3480529.08846  24002778.8524   24002778.9214   24002778.477
        39.0004         36.7004
 -17304468.73147 -13473997.26147  21522349.4254   21522350.0234   21522349.364
        46.7004         43.7004
 -21296158.51847 -16583814.95147  21272653.4574   21272651.6334   21272653.767
        47.4004         44.4004
 -21378278.09148 -16638126.31347  21028518.4494   21028518.9714   21028518.557
        49.8004         46.6004
 -11037222.93746  -7866719.84746  22929683.4134   22929681.0774   22929684.599
        40.3004         37.8004
 -13946248.54647 -10436970.84046  22620907.9524   22620904.4504   22620907.851
        43.2004         40.6004
 16 10 26  0 54  0.0000000  0  9G31G22G32G01G25G14G10G18G12
 -20642232.22248 -16056512.81047  21060477.1524   21060474.6414   21060477.309
        48.9004         45.8004
  -2777880.59546  -1903207.58845  24666229.2364   24666223.9914   24666229.070
        37.8004         35.5004
 -24870679.26148 -19363944.41047  20557812.1864   20557811.7614   20557812.112
        50.7004         47.7004
  -4501420.44646  -3490889.16646  24000250.6294   24000249.7064   24000249.094
        39.6004         37.3004
 -17334009.13747 -13497015.74047  21516727.3304   21516729.0314   21516727.540
        46.7004         43.7004
 -21335129.08747 -16614181.62147  21265237.9594   21265235.6894   21265238.116
        47.5004         44.4004
 -21312427.57248 -16586814.23547  21041049.5074   21041050.1424   21041049.386
        49.8004         46.8004
 -10940317.90046  -7791209.42346  22948124.2754   22948122.3984   22948123.982
        40.1004         37.4004
 -13904550.01247 -10404478.45446  22628842.6874   22628839.9674   22628843.369
        43.4004         40.4004
 16 10 26  0 54 30.0000000  0  9G31G22G32G01G25G14G10G18G12
 -20701241.01248 -16102493.65347  21049248.0764   21049245.3894   21049247.893
        48.8004         45.8004
  -2876764.92746  -1980260.32146  24647414.1104   24647409.4394   24647413.687
        38.5004         36.6004
 -24868918.08248 -19362572.05647  20558147.2204   20558146.9724   20558147.017
        50.7004         47.7004
  -4514166.09246  -3500820.89746  23997822.9994   23997824.3024   23997822.444
        39.6004         37.1004
 -17362941.85347 -13519560.69247  21511222.4684   21511222.9424   21511223.478
        46.7004         43.9004
 -21373936.07347 -16644420.82247  21257853.1284   21257850.9044   21257854.033
        47.5004         44.4004
 -21246118.86648 -16535145.12447  21053667.4554   21053668.1284   21053667.682
        49.8004         46.6004
 -10843178.23146  -7715516.20546  22966609.1474   22966606.8514   22966609.794
        40.3004         37.6004
 -13862260.61847 -10371525.69646  22636890.5974   22636887.2474   22636889.954
        43.4004         40.6004
 16 10 26  0 55  0.0000000  0 10G31G22G32G01G25G26G14G10G18G12
 -20759832.08548 -16148149.00547  21038098.4664   21038095.9574   21038098.306
        48.8004         45.8004
  -2975533.91646  -2057223.14246  24628618.9254   24628613.9084   24628618.354
        39.2004         37.1004
 -24866897.85148 -19360997.83747  20558531.3864   20558531.3364   20558531.065
        50.7004         47.7004
  -4526361.97346  -3510324.22146  23995501.9694   23995503.1054   23995502.212
        39.4004         36.9004
 -17391265.42847 -13541630.98347  21505832.8244   21505833.9804   21505833.923
        46.9004         43.9004
   -278762.03644      -591.310            .000            .000        -140.989
        26.4004           .000
 -21412579.12847 -16674532.29047  21250499.5604   21250497.5734   21250499.891
        47.5004         44.5004
 -21179353.45848 -16483120.15447  21066372.6964   21066373.1824   21066373.123
        49.8004         46.6004
 -10745805.71246  -7639641.54146  22985138.2394   22985136.3784   22985139.947
        40.4004         37.9004
 -13819381.89547 -10338113.67546  22645049.5424   22645046.1424   22645049.636
        43.4004         40.2004
 16 10 26  0 55 30.0000000  0  9G31G22G32G01G25G14G10G18G12
 -20818004.72148 -16193478.30647  21027028.9584   21027026.2524   21027028.973
        48.9004         45.9004
  -3074185.29946  -2134094.37846  24609845.9834   24609840.8924   24609845.283
        39.2004         36.7004
 -24864618.18648 -19359221.47547  20558965.2444   20558965.3974   20558964.813
        50.7004         47.7004
  -4538008.19746  -3519399.27046  23993287.4454   23993287.3404   23993286.122
        39.7004         37.4004
 -17418978.55847 -13563225.60747  21500559.1794   21500560.6614   21500559.729
        47.0004         44.0004
 -21451057.50647 -16704515.43547  21243177.1794   21243175.3914   21243178.052
        47.5004         44.4004
 -21112132.80548 -16430740.44147  21079164.3814   21079164.9144   21079164.668
        49.8004         46.6004
 -10648202.28346  -7563586.92446  23003713.1604   23003712.1134   23003714.369
        40.1004         37.4004
 -13775914.63847 -10304243.08646  22653320.1254   22653318.6374   22653318.825
        43.0004         40.0004
 16 10 26  0 56  0.0000000  0  9G31G22G32G01G25G14G10G18G12
 -20875758.37448 -16238481.13447  21016038.4214   21016035.8664   21016038.250
        48.9004         45.9004
  -3172717.23346  -2210872.50046  24591094.4144   24591091.0604   24591095.125
        38.5004         36.0004
 -24862078.59748 -19357242.56347  20559448.4654   20559448.4354   20559448.078
        50.7004         47.7004
  -4549104.87746  -3528046.07146  23991175.1904   23991176.1004   23991174.683
        39.7004         37.3004
 -17446079.80547 -13584343.45247  21495401.9624   21495402.9244   21495401.835
        47.0004         44.0004
 -21489371.46447 -16734370.45647  21235886.0784   21235884.8254   21235885.786
        47.5004         44.4004
 -21044458.34048 -16378007.10847  21092042.4404   21092043.3744   21092042.617
        49.8004         46.6004
 -10550370.04546  -7487354.03546  23022328.6854   23022329.1374   23022329.135
        40.1004         37.3004
 -13731860.39347 -10269915.12446  22661703.4544   22661701.2274   22661702.790
        42.9004         40.0004
 16 10 26  0 56 30.0000000  0  9G31G22G32G01G25G14G10G18G12
 -20933092.52548 -16283157.08147  21005128.7144   21005125.9234   21005128.880
        48.9004         45.9004
  -3271126.94046  -2287555.38246  24572369.9244   24572365.2324   24572371.093
        39.4004         37.3004
 -24859278.66648 -19355060.78547  20559981.2134   20559981.2874   20559980.901
        50.7004         47.5004
  -4559652.05446  -3536264.72246  23989166.7124   23989169.3424   23989167.168
        39.9004         37.4004
 -17472567.87547 -13604983.48647  21490361.1534   21490361.5274   21490361.708
        47.0004         44.0004
 -21527519.69147 -16764096.33247  21228627.1564   21228625.4224   21228627.704
        47.5004         44.5004
 -20976331.55948 -16324921.32347  21105006.4784   21105006.8554   21105006.146
        49.6004         46.5004
 -10452310.62946  -7410944.10546  23040988.6704   23040987.8604   23040989.805
        39.9004         37.3004
 -13687220.95447 -10235131.13446  22670199.3314   22670195.2254   22670200.035
        42.9004         40.2004
 16 10 26  0 57  0.0000000  0  9G31G22G32G01G25G14G10G18G12
 -20990006.71448 -16327505.77247  20994297.3294   20994295.2684   20994297.428
        48.9004         45.9004
  -3369413.03846  -2364141.95646  24553665.8034   24553661.8894   24553667.648
        39.2004         36.4004
 -24856217.95948 -19352675.82447  20560563.5754   20560563.7724   20560563.570
        50.7004         47.5004
  -4569649.90146  -3544055.27546  23987266.6054   23987267.0364   23987265.788
        39.9004         37.4004
 -17498441.42247 -13625144.68347  21485438.4594   21485438.4804   21485438.727
        47.0004         44.2004
 -21565501.83547 -16793692.79947  21221398.9974   21221397.8034   21221399.196
        47.5004         44.5004
 -20907753.95348 -16271484.23947  21118056.2654   21118056.8244   21118056.647
        49.6004         46.5004
 -10354026.51846  -7334359.11246  23059692.4224   23059690.5014   23059691.998
        39.9004         37.3004
 -13641997.99347 -10199892.43246  22678804.7574   22678801.7044   22678805.098
        42.9004         39.9004
 16 10 26  0 57 30.0000000  0  9G31G22G32G01G25G14G10G18G12
 -21046500.54948 -16371526.91847  20983547.4024   20983544.7354   20983547.376
        48.9004         45.9004
  -3467572.90846  -2440630.18146  24534987.4744   24534982.5474   24534988.578
        38.7004         36.4004
 -24852896.04748 -19350087.32247  20561195.5814   20561195.8194   20561195.207
        50.7004         47.5004
  -4579098.57746  -3551417.96346  23985467.7394   23985468.1704   23985467.525
        40.1004         37.4004
 -17523699.22047 -13644826.06747  21480631.5654   21480632.9014   21480631.819
        47.2004         44.2004
 -21603317.86547 -16823159.82547  21214203.1954   21214201.3054   21214204.264
        47.7004         44.7004
 -20838727.03848 -16217697.04947  21131191.4134   21131192.1664   21131191.242
        49.5004         46.3004
 -10255519.38746  -7257600.28746  23078436.5474   23078436.3404   23078438.016
        39.7004         37.3004
 -13596192.91147 -10164200.16046  22687521.4054   22687518.0094   22687520.892
        42.7004         39.9004
 16 10 26  0 58  0.0000000  0  9G31G22G32G01G25G14G10G18G12
 -21102573.18448 -16415219.86147  20972876.9994   20972874.5284   20972876.789
        48.9004         45.9004
  -3565604.06546  -2517018.14046  24516332.3014   24516327.8104   24516332.986
        39.4004         36.9004
 -24849312.44348 -19347294.89647  20561877.4554   20561877.6084   20561877.432
        50.7004         47.5004
  -4587998.28046  -3558352.82446  23983774.3894   23983773.7214   23983774.419
        39.6004         37.1004
 -17548340.02947 -13664026.68747  21475942.4954   21475943.2324   21475942.838
        47.2004         44.0004
 -21640967.14447 -16852496.91947  21207039.1574   21207036.9014   21207039.556
        47.7004         44.7004
 -20769252.36648 -16163560.96947  21144412.0404   21144412.7574   21144411.626
        49.5004         46.3004
 -10156791.21546  -7180669.25746  23097224.7124   23097222.6884   23097226.560
        39.9004         37.1004
 -13549807.21847 -10128055.44646  22696349.0104   22696344.6924   22696348.046
        43.0004         40.2004
 16 10 26  0 58 30.0000000  0  9G31G22G32G01G25G14G10G18G12
 -21158224.62448 -16458584.59847  20962286.8644   20962284.2064   20962286.377
        48.9004         45.9004
  -3663504.49046  -2593304.16746  24497700.6984   24497697.8554   24497703.630
        39.0004         36.4004
 -24845466.72048 -19344298.21647  20562609.2494   20562609.3304   20562608.823
        50.5004         47.5004
  -4596349.21246  -3564860.04646  23982184.2994   23982184.3224   23982184.529
        39.6004         37.1004
 -17572362.59047 -13682745.54647  21471370.9674   21471371.7424   21471371.609
        47.0004         44.0004
 -21678448.81747 -16881703.40447  21199906.2294   21199904.2564   21199907.046
        47.7004         44.7004
 -20699331.46048 -16109077.17247  21157718.0864   21157718.3904   21157717.956
        49.5004         46.6004
 -10057844.11046  -7103567.61346  23116053.2414   23116051.6794   23116053.290
        39.7004         36.9004
 -13502842.41947 -10091459.51246  22705284.7054   22705282.4284   22705284.427
        43.0004         40.2004
 16 10 26  0 59  0.0000000  0 10G31G22G32G01G25G26G14G10G18G12
 -21213454.54648 -16501620.87247  20951776.5924   20951774.5024   20951776.327
        48.9004         45.9004
  -3761272.31546  -2669486.87846  24479096.8614   24479093.0074   24479099.609
        38.7004         36.2004
 -24841358.44848 -19341096.96547  20563391.2524   20563391.2314   20563390.430
        50.5004         47.5004
  -4604151.58946  -3570939.91046  23980699.6254   23980701.3674   23980698.625
        39.6004         37.3004
 -17595765.73147 -13700981.75347  21466917.9184   21466918.2354   21466918.040
        47.0004         44.0004
    -70786.69944    -37570.133            .000    25503785.092        -140.989
        26.4004          1.500
 -21715762.64247 -16910779.10547  21192806.1694   21192803.4974   21192806.317
        47.7004         44.7004
 -20628965.88648 -16054246.86947  21171108.6214   21171108.1504   21171109.371
        49.6004         46.5004
  -9958680.27046  -7026297.13046  23134923.2314   23134923.0304   23134923.638
        39.6004         37.3004
 -13455300.57647 -10054413.93846  22714331.8174   22714329.0864   22714331.572
        43.0004         40.0004
 16 10 26  0 59 30.0000000  0  9G31G22G32G01G25G14G10G18G12
 -21268262.34748 -16544328.23047  20941347.2094   20941345.0034   20941347.505
        49.1004         46.1004
  -3858905.17746  -2745564.48046  24460517.6424   24460513.0734   24460519.758
        38.9004         36.6004
 -24836987.18848 -19337690.78347  20564223.0964   20564223.1574   20564222.990
        50.5004         47.5004
  -4611405.83046  -3576592.59746  23979318.7824   23979320.5854   23979318.172
        39.7004         37.1004
 -17618548.26047 -13718734.35447  21462582.1654   21462583.1344   21462582.504
        47.0004         44.0004
 -21752908.24647 -16939723.72247  21185737.4334   21185735.3524   21185738.015
        47.7004         44.7004
 -20558157.23648 -15999071.30947  21184583.0204   21184582.5904   21184583.381
        49.6004         46.5004
  -9859301.61846  -6948859.22246  23153835.2964   23153833.4484   23153836.282
        39.7004         37.3004
 -13407182.96247 -10016919.68346  22723487.7654   22723485.2424   22723488.008
        42.7004         39.7004
 16 10 26  1  0  0.0000000  0 10G31G22G32G01G25G26G14G10G18G12
 -21322647.87148 -16586706.52747  20930998.2364   20930996.2044   20930998.180
        49.3004         46.3004
  -3956400.82146  -2821535.15646  24441966.1434   24441962.1184   24441967.609
        39.2004         36.9004
 -24832352.44548 -19334079.28647  20565105.0634   20565105.0854   20565104.539
        50.5004         47.5004
  -4618111.90646  -3581818.15246  23978044.4334   23978046.7544   23978044.499
        39.7004         37.3004
 -17640709.04547 -13736002.48247  21458364.4854   21458366.4214   21458365.050
        47.0004         44.0004
   -294346.90344   -216123.98545          .000    25460060.9394   25460053.923
        27.2004         35.5004
 -21789885.00347 -16968536.76547  21178700.7934   21178699.0684   21178701.290
        47.7004         44.7004
 -20486907.03748 -15943551.68947  21198140.9574   21198141.2254   21198140.881
        49.5004         46.3004
  -9759710.39846  -6871255.67846  23172786.3264   23172785.5954   23172786.409
        39.7004         37.4004
 -13358491.07947  -9978977.92846  22732754.1394   22732752.0724   22732755.017
        42.9004         40.2004
 16 10 26  1  0 30.0000000  0 10G31G22G32G01G25G26G14G10G18G12
 -21376610.53148 -16628755.33247  20920729.4394   20920726.9334   20920729.967
        49.3004         46.1004
  -4053757.20946  -2897397.25446  24423438.6564   24423436.5074   24423439.907
        39.2004         36.9004
 -24827453.85348 -19330262.20747  20566037.2204   20566037.4644   20566036.687
        50.5004         47.5004
  -4624270.30846  -3586616.93446  23976871.8714   23976873.5884   23976871.749
        39.7004         37.3004
 -17662246.95047 -13752785.25847  21454266.2954   21454267.7744   21454266.003
        47.0004         44.0004
   -406264.88345   -303332.68845  25438757.0784   25438762.5054   25438757.824
        35.6004         34.5004
 -21826692.23647 -16997217.70847  21171696.6824   21171694.4824   21171696.924
        47.7004         44.7004
 -20415216.95048 -15887689.30447  21211782.8974   21211783.6744   21211782.976
        49.3004         46.1004
  -9659908.54746  -6793488.00246  23191778.9334   23191776.7464   23191780.181
        40.1004         37.8004
 -13309226.97847  -9940590.32746  22742130.4794   22742126.7814   22742128.012
        43.0004         40.2004
 16 10 26  1  1  0.0000000  0 10G31G22G32G01G25G26G14G10G18G12
 -21430150.09748 -16670474.45247  20910541.0234   20910538.4674   20910540.999
        49.3004         46.1004
  -4150971.73846  -2973148.84246  24404941.0164   24404935.6514   24404940.802
        39.6004         36.9004
 -24822290.89248 -19326239.12247  20567019.6464   20567019.5604   20567019.485
        50.5004         47.5004
  -4629881.33746  -3590989.25046  23975804.0304   23975805.7484   23975803.874
        39.7004         37.3004
 -17683160.95147 -13769081.87047  21450286.6714   21450287.6404   21450286.907
        47.0004         44.0004
   -518271.55146   -390610.50245  25417444.8254   25417448.7884   25417445.255
        36.1004         34.1004
 -21863329.80847 -17025766.46047  21164725.0244   21164722.5504   21164725.092
        47.7004         44.7004
 -20343088.60848 -15831485.43247  21225508.3974   21225509.3174   21225508.583
        49.3004         46.1004
  -9559897.54146  -6715557.37446  23210808.9784   23210808.4634   23210810.587
        40.1004         37.4004
 -13259392.35647  -9901758.15746  22751612.2314   22751609.7344   22751612.397
        43.0004         40.4004
 16 10 26  1  1 30.0000000  0 10G31G22G32G01G25G26G14G10G18G12
 -21483266.07348 -16711863.50747  20900433.7174   20900431.2384   20900433.678
        49.3004         46.3004
  -4248042.28346  -3048788.30545  24386466.3814   24386464.1934   24386467.917
        38.5004         35.7004
 -24816863.09648 -19322009.66947  20568052.6014   20568052.5594   20568052.609
        50.5004         47.5004
  -4634945.36246  -3594935.25246  23974839.5704   23974842.1194   23974838.323
        39.2004         36.6004
 -17703449.93447 -13784891.45147  21446425.6644   21446426.8104   21446426.585
        47.2004         44.2004
   -630364.57246   -477955.69545  25396115.6164   25396116.1734   25396117.600
        36.4004         34.5004
 -21899796.79247 -17054182.28647  21157785.6604   21157783.1304   21157785.907
        47.9004         44.7004
 -20270523.58848 -15774941.28747  21239317.3114   21239318.1554   21239316.892
        49.3004         46.3004
  -9459679.95046  -6637465.77046  23229880.6854   23229878.3704   23229881.866
        39.7004         36.9004
 -13208988.48847  -9862482.39046  22761203.1194   22761200.4394   22761203.884
        43.0004         39.9004
 16 10 26  1  2  0.0000000  0 10G31G22G32G01G25G26G14G10G18G12
 -21535958.13548 -16752922.23647  20890407.0134   20890404.2644   20890407.659
        49.3004         46.3004
  -4344966.95746  -3124313.98746  24368024.9764   24368021.9804   24368024.941
        38.9004         37.1004
 -24811170.05848 -19317573.54047  20569135.7704   20569135.7504   20569135.815
        50.5004         47.5004
  -4639462.71846  -3598455.31246  23973981.8134   23973981.9614   23973981.427
        39.4004         37.1004
 -17723112.89947 -13800213.23347  21442683.8064   21442684.7624   21442684.695
        47.0004         44.2004
   -742541.48146   -565366.19445  25374766.1544   25374769.3234   25374767.135
        36.8004         34.8004
 -21936092.91747 -17082464.97547  21150878.4684   21150876.7564   21150879.015
        47.7004         44.7004
 -20197523.60448 -15718058.19847  21253209.3964   21253209.3794   21253209.255
        49.5004         46.5004
  -9359257.94546  -6559214.83046  23248989.7154   23248990.1894   23248990.228
        39.4004         36.7004
 -13158017.27547  -9822764.56046  22770902.4404   22770900.6154   22770901.697
        42.9004         40.0004
 16 10 26  1  2 30.0000000  0 10G31G22G32G01G25G26G14G10G18G12
 -21588225.88548 -16793650.32847  20880460.0814   20880458.0414   20880460.036
        49.3004         46.1004
  -4441742.89946  -3199723.81546  24349608.4414   24349605.4604   24349610.721
        40.1004         37.6004
 -24805211.31048 -19312930.35647  20570270.0364   20570269.6324   20570269.845
        50.5004         47.5004
  -4643433.84946  -3601549.72846  23973225.1834   23973227.0864   23973224.741
        39.6004         37.4004
 -17742148.84747 -13815046.41747  21439060.9074   21439062.3764   21439061.157
        47.0004         44.0004
   -854799.80946   -652840.11545  25353405.2654   25353409.2964   25353404.986
        36.8004         34.8004
 -21972217.39947 -17110613.91547  21144003.9334   21144001.8384   21144004.528
        47.7004         44.7004
 -20124090.27348 -15660837.42847  21267182.9764   21267183.4674   21267183.182
        49.5004         46.3004
  -9258633.22946  -6480805.99646  23268138.2884   23268135.0514   23268139.374
        39.0004         36.6004
 -13106480.87347  -9782606.31446  22780709.3944   22780706.5044   22780711.427
        42.9004         40.0004
 16 10 26  1  3  0.0000000  0 10G31G22G32G01G25G26G14G10G18G12
 -21640069.01048 -16834047.55147  20870594.9634   20870592.2224   20870594.969
        49.3004         46.1004
  -4538368.51546  -3275016.51545  24331218.9104   24331212.6514   24331221.315
        38.5004         35.5004
 -24798986.37948 -19308079.75547  20571454.4994   20571454.2194   20571454.222
        50.5004         47.5004
  -4646859.16646  -3604218.86846  23972573.3284   23972575.1694   23972574.015
        39.7004         37.1004
 -17760556.82447 -13829390.27647  21435558.2754   21435559.7644   21435558.952
        47.2004         44.0004
   -967137.17746   -740375.72445  25332028.0734   25332033.0904   25332026.846
        37.3004         35.3004
 -22008169.65247 -17138628.65747  21137162.5744   21137160.5204   21137163.391
        47.9004         44.9004
 -20050225.30148 -15603280.32647  21281238.3224   21281239.2804   21281239.100
        49.3004         45.9004
  -9157807.80646  -6402240.73746  23287325.1844   23287323.4624   23287326.287
        39.0004         36.7004
 -13054380.78647  -9742008.83946  22790624.9434   22790620.0474   22790624.312
        42.9004         40.0004
 16 10 26  1  3 30.0000000  0 10G31G22G32G01G25G26G14G10G18G12
 -21691487.31848 -16874113.74447  20860809.8604   20860807.5664   20860809.843
        49.1004         46.1004
  -4634841.10346  -3350190.05446  24312863.3594   24312858.7634   24312863.595
        39.2004         37.4004
 -24792494.80048 -19303021.37647  20572689.8144   20572689.7274   20572690.110
        50.5004         47.5004
  -4649739.16446  -3606463.05646  23972025.6564   23972027.0204   23972025.264
        39.7004         37.4004
 -17778335.82547 -13843244.03547  21432175.6144   21432176.3714   21432175.542
        47.2004         44.2004
  -1079551.27646   -827971.11345  25310637.8504   25310639.7524   25310635.293
        37.3004         35.3004
 -22043949.22747 -17166508.83447  21130353.7874   21130351.8924   21130354.417
        47.9004         44.7004
 -19975930.37548 -15545388.19747  21295376.2964   21295377.3704   21295376.624
        49.1004         45.9004
  -9056784.02046  -6323520.92646  23306549.0764   23306547.3944   23306548.463
        39.4004         37.1004
 -13001719.23647  -9700973.83846  22800645.7984   22800643.6914   22800646.448
        43.0004         40.0004
 16 10 26  1  4  0.0000000  0 10G31G22G32G01G25G26G14G10G18G12
 -21742480.61648 -16913848.76047  20851106.6584   20851103.8904   20851106.419
        49.3004         46.3004
  -4731158.53446  -3425242.56646  24294532.0994   24294531.3054   24294533.377
        39.9004         37.1004
 -24785736.15548 -19297754.90447  20573975.7004   20573975.6074   20573975.346
        50.5004         47.5004
  -4652074.27646  -3608282.67046  23971580.5844   23971582.7814   23971579.810
        39.7004         37.4004
 -17795484.97747 -13856606.99147  21428911.9284   21428913.1944   21428912.763
        47.2004         44.2004
  -1192039.58746   -915624.28445  25289230.1784   25289233.7674   25289227.578
        37.1004         34.8004
 -22079555.58847 -17194254.04547  21123578.3504   21123575.7884   21123578.965
        47.9004         44.9004
 -19901207.17848 -15487162.36347  21309595.6084   21309596.8264   21309595.638
        48.9004         45.9004
  -8955564.00346  -6244648.21146  23325811.8504   23325810.3584   23325810.945
        39.4004         36.9004
 -12948497.26047  -9659502.19046  22810772.6804   22810769.6644   22810771.570
        42.9004         39.9004
 16 10 26  1  4 30.0000000  0 10G31G22G32G01G25G26G14G10G18G12
 -21793048.43248 -16953252.22847  20841483.7524   20841481.1664   20841483.827
        49.3004         46.3004
  -4827318.34846  -3500172.31946  24276233.7364   24276231.8724   24276234.801
        39.2004         36.4004
 -24778709.96748 -19292279.95147  20575312.9274   20575312.5854   20575312.468
        50.5004         47.3004
  -4653864.96446  -3609678.05646  23971241.1704   23971242.1474   23971241.111
        39.7004         37.3004
 -17812003.38447 -13869478.46347  21425768.6384   21425769.5824   21425769.297
        47.2004         44.2004
  -1304599.64646  -1003333.39045  25267811.9104   25267813.9574   25267810.626
        37.0004         34.6004
 -22114988.44247 -17221864.05447  21116835.6974   21116833.6104   21116835.794
        47.9004         44.9004
 -19826057.50748 -15428604.20347  21323896.5644   21323897.2244   21323896.248
        49.1004         46.1004
  -8854149.74346  -6165624.13746  23345108.7484   23345107.8064   23345110.315
        39.2004         36.4004
 -12894718.00147  -9617596.28046  22821008.6804   22821003.9124   22821008.947
        43.0004         40.4004
 16 10 26  1  5  0.0000000  0 10G31G22G32G01G25G26G14G10G18G12
 -21843190.63848 -16992324.06647  20831942.2754   20831939.3274   20831942.037
        49.5004         46.3004
  -4923318.47946  -3574977.63746  24257965.3534   24257963.6724   24257965.373
        39.0004         36.4004
 -24771415.78648 -19286596.17747  20576701.0594   20576700.7114   20576700.890
        50.5004         47.3004
  -4655111.80846  -3610649.66746  23971002.1174   23971004.3634   23971002.983
        39.4004         36.7004
 -17827890.21347 -13881857.80347  21422745.2994   21422746.5144   21422746.311
        47.2004         44.2004
  -1417229.02846  -1091096.58245  25246377.6024   25246382.0744   25246377.941
        36.8004         34.6004
 -22150246.79347 -17249338.09347  21110126.3604   21110123.8234   21110126.818
        47.9004         44.9004
 -19750483.01148 -15369715.00747  21338278.5184   21338278.7594   21338279.193
        49.3004         46.3004
  -8752543.48246  -6086450.44745  23364444.3754   23364442.0904   23364445.169
        38.7004         35.9004
 -12840381.74747  -9575256.30746  22831347.9884   22831344.2014   22831348.210
        43.0004         40.0004
 16 10 26  1  5 30.0000000  0 10G31G22G32G01G25G26G14G10G18G12
 -21892906.89648 -17031063.98947  20822481.4934   20822478.7774   20822481.355
        49.5004         46.3004
  -5019156.50846  -3649656.60046  24239729.8734   24239726.5694   24239732.174
        39.7004         37.8004
 -24763853.12348 -19280703.18447  20578140.4394   20578139.7104   20578140.054
        50.5004         47.5004
  -4655815.30846  -3611197.88746  23970867.6744   23970871.4804   23970867.739
        39.6004         37.1004
 -17843144.59647 -13893744.32247  21419842.8454   21419843.0884   21419843.344
        47.2004         44.2004
  -1529925.27946  -1178911.83145  25224931.5954   25224937.6824   25224932.370
        37.0004         34.8004
 -22185330.24847 -17276675.84347  21103450.2154   21103448.0814   21103450.948
        47.9004         44.9004
 -19674485.48948 -15310496.18047  21352740.5304   21352740.7774   21352741.017
        49.5004         46.3004
  -8650747.01946  -6007128.55346  23383814.9714   23383813.4724   23383815.444
        38.7004         36.2004
 -12785490.77147  -9532484.10146  22841793.0674   22841790.1484   22841792.073
        42.7004         39.7004
 16 10 26  1  6  0.0000000  0 10G31G22G32G01G25G26G14G10G18G12
 -21942196.72548 -17069471.62347  20813101.7064   20813099.2374   20813101.966
        49.5004         46.5004
  -5114830.32046  -3724207.63246  24221523.0774   24221519.8864   24221525.155
        39.9004         37.1004
 -24756021.51148 -19274600.60447  20579630.7894   20579630.1194   20579630.890
        50.5004         47.5004
  -4655976.05346  -3611323.19246  23970838.0944   23970839.9234   23970838.949
        39.7004         37.1004
 -17857765.75547 -13905137.41847  21417060.6604   21417061.2364   21417060.567
        47.2004         44.2004
  -1642685.92446  -1266777.26645  25203474.2314   25203479.2004   25203473.352
        37.0004         34.8004
 -22220238.04747 -17303876.71347  21096806.9244   21096805.3724   21096807.433
        47.9004         44.9004
 -19598066.70748 -15250949.09347  21367282.2894   21367283.1354   21367281.627
        49.3004         46.3004
  -8548762.47246  -5927660.07146  23403223.3914   23403221.2854   23403222.967
        38.7004         36.4004
 -12730047.58947  -9489281.64546  22852343.1054   22852339.9944   22852343.231
        42.7004         40.0004
 16 10 26  1  6 30.0000000  0 10G31G22G32G01G25G26G14G10G18G12
 -21991060.73648 -17107547.45547  20803803.4424   20803800.8174   20803803.489
        49.5004         46.3004
  -5210337.84846  -3798629.12746  24203350.2374   24203345.1424   24203350.452
        39.6004         37.4004
 -24747920.52548 -19268288.13347  20581172.5154   20581171.8714   20581172.138
        50.5004         47.5004
  -4655594.62746  -3611025.96546  23970910.2844   23970912.9714   23970911.668
        39.7004         37.1004
 -17871752.92647 -13916036.50147  21414399.1254   21414399.4584   21414399.587
        47.2004         44.2004
  -1755508.48046  -1354691.00245  25182003.7124   25182009.3774   25182007.391
        36.6004         34.6004
 -22254969.56247 -17330940.21647  21090197.8914   21090195.8214   21090198.014
        47.9004         44.7004
 -19521228.40048 -15191075.12347  21381903.5484   21381904.5584   21381904.059
        49.1004         45.9004
  -8446591.98646  -5848046.76446  23422665.9814   23422663.3544   23422666.219
        38.9004         36.6004
 -12674053.91647  -9445650.19646  22862999.2914   22862995.1774   22862999.314
        43.0004         40.2004
 16 10 26  1  7  0.0000000  0 10G31G22G32G01G25G26G14G10G18G12
 -22039498.36448 -17145291.02747  20794585.5594   20794583.2044   20794585.527
        49.3004         46.3004
  -5305676.31146  -3872918.83846  24185205.3204   24185202.5514   24185207.220
        39.6004         36.6004
 -24739549.69848 -19261765.40247  20582765.4084   20582764.8124   20582765.410
        50.7004         47.5004
  -4654671.59046  -3610306.72146  23971086.5074   23971088.0494   23971085.355
        39.2004         36.6004
 -17885105.35347 -13926440.97347  21411857.7704   21411858.7824   21411857.786
        47.2004         44.2004
  -1868390.49646  -1442651.05645  25160525.6124   25160528.4394   25160526.817
        36.4004         34.3004
 -22289524.27047 -17357865.95647  21083622.5804   21083620.2414   21083622.812
        47.9004         44.9004
 -19443972.37548 -15130875.65747  21396604.9734   21396605.8834   21396605.266
        48.9004         45.8004
  -8344237.75746  -5768290.24646  23442142.6304   23442141.9674   23442143.182
        39.0004         36.7004
 -12617511.71147  -9401591.29246  22873756.1444   22873756.1394   22873757.378
        42.7004         39.3004
 16 10 26  1  7 30.0000000  0 10G31G22G32G01G25G26G14G10G18G12
 -22087509.42648 -17182702.22047  20785449.4164   20785447.2324   20785449.269
        49.3004         46.3004
  -5400843.59046  -3947075.17246  24167096.2704   24167094.2494   24167096.534
        39.2004         37.1004
 -24730908.58648 -19255032.06647  20584409.9354   20584408.7174   20584409.789
        50.7004         47.5004
  -4653207.67746  -3609166.01446  23971364.8234   23971367.4524   23971365.552
        39.4004         37.3004
 -17897822.31647 -13936350.28647  21409437.7314   21409439.1124   21409438.302
        47.2004         44.2004
  -1981329.42846  -1530655.47645  25139033.0234   25139037.3874   25139035.363
        36.8004         35.0004
 -22323901.78147 -17384653.62047  21077080.9354   21077078.8384   21077081.807
        47.9004         44.9004
 -19366300.49048 -15070352.12847  21411385.7664   21411385.8784   21411385.291
        48.9004         45.9004
  -8241701.69546  -5688392.04846  23461653.9484   23461653.4294   23461654.686
        38.9004         36.4004
 -12560423.16847  -9357106.73046  22884619.3474   22884619.0044   22884619.519
        42.2004         39.3004
 16 10 26  1  8  0.0000000  0 10G31G22G32G01G25G26G14G10G18G12
 -22135093.61648 -17219780.78847  20776394.7624   20776391.4684   20776394.979
        49.3004         46.3004
  -5495837.20146  -4021096.17346  24149020.0174   24149016.1214   24149020.704
        40.1004         37.6004
 -24721996.69448 -19248087.72547  20586105.3934   20586104.6184   20586105.366
        50.7004         47.5004
  -4651203.58546  -3607604.38346  23971746.3764   23971748.8944   23971746.304
        39.6004         37.1004
 -17909903.13447 -13945763.89147  21407138.9314   21407139.3334   21407139.598
        47.2004         44.0004
  -2094322.87046  -1618702.35745  25117532.9684   25117534.4274   25117534.790
        36.8004         34.8004
 -22358101.37947 -17411302.64747  21070572.8884   21070570.2844   21070573.799
        47.9004         44.9004
 -19288214.52548 -15009505.95247  21426244.9194   21426245.3604   21426245.354
        48.9004         45.8004
  -8138986.37246  -5608354.14346  23481199.7784   23481198.4074   23481200.728
        38.7004         36.2004
 -12502790.11347  -9312197.85146  22895588.7134   22895586.4824   22895589.040
        42.5004         39.9004
 16 10 26  1  8 30.0000000  0 10G31G22G32G01G25G26G14G10G18G12
 -22182250.86048 -17256526.66747  20767420.7644   20767418.3374   20767420.813
        49.3004         46.3004
  -5590655.37846  -4094980.49246  24130977.0304   24130973.3374   24130977.961
        39.9004         37.3004
 -24712813.51948 -19240931.99547  20587852.9354   20587852.3134   20587852.777
        50.5004         47.5004
  -4648659.92646  -3605622.36546  23972231.0064   23972232.8294   23972230.556
        39.7004         37.3004
 -17921347.16147 -13954681.30447  21404961.3804   21404962.1304   21404961.525
        47.2004         44.2004
  -2207368.26446  -1706789.72345  25096020.8434   25096023.1874   25096020.249
        36.8004         34.8004
 -22392122.55247 -17437812.64247  21064098.5464   21064096.3024   21064099.371
        47.9004         44.9004
 -19209716.30248 -14948338.52547  21441183.1034   21441183.0794   21441182.559
        48.8004         45.6004
  -8036093.49946  -5528177.91745  23500778.7184   23500779.4734   23500781.358
        38.2004         35.9004
 -12444614.16847  -9266865.92646  22906658.7214   22906655.9604   22906659.788
        42.7004         39.7004
 16 10 26  1  9  0.0000000  0 10G31G22G32G01G25G26G14G10G18G12
 -22228980.84148 -17292939.61747  20758528.3684   20758525.6164   20758527.904
        49.3004         46.3004
  -5685295.45946  -4168725.99746  24112966.7094   24112964.4224   24112966.336
        39.4004         36.9004
 -24703358.68048 -19233564.58647  20589651.8684   20589651.3444   20589651.561
        50.5004         47.5004
  -4645577.50346  -3603220.49646  23972817.4054   23972818.4864   23972818.614
        39.7004         37.3004
 -17932153.77747 -13963102.02547  21402904.8204   21402905.3704   21402905.419
        47.2004         44.0004
  -2320463.11346  -1794915.60945  25074498.4274   25074504.4494   25074498.144
        37.1004         35.2004
 -22425964.46147 -17464182.95247  21057658.8544   21057656.3474   21057659.697
        47.9004         44.9004
 -19130807.67148 -14886851.30747  21456198.5534   21456199.0264   21456197.768
        48.6004         45.6004
  -7933025.42946  -5447865.18246  23520394.0804   23520391.6724   23520394.268
        38.5004         36.4004
 -12385897.29847  -9221112.53646  22917833.0694   22917830.1854   22917832.435
        42.5004         39.9004
 16 10 26  1  9 30.0000000  0 10G31G22G32G01G25G26G14G10G18G12
 -22275283.65248 -17329019.70947  20749717.4824   20749714.4604   20749717.641
        49.3004         46.3004
  -5779755.31346  -4242331.13046  24094993.6874   24094989.2044   24094994.739
        40.1004         37.9004
 -24693631.63848 -19225985.07247  20591503.0574   20591502.5214   20591502.393
        50.5004         47.5004
  -4641956.89446  -3600399.27146  23973505.7684   23973506.2524   23973505.893
        39.7004         37.3004
 -17942322.33547 -13971025.55747  21400970.0774   21400970.6064   21400970.355
        47.0004         44.0004
  -2433604.91846  -1883078.05245  25052968.5334   25052970.5914   25052969.028
        37.1004         35.2004
 -22459626.72247 -17490413.29147  21051252.7334   21051250.7214   21051253.511
        47.9004         44.7004
 -19051490.46748 -14825045.73347  21471292.0464   21471292.9044   21471291.929
        48.4004         45.4004
  -7829784.06846  -5367417.38446  23540040.3454   23540038.1394   23540041.902
        38.9004         36.7004
 -12326642.00147  -9174939.57246  22929108.3854   22929105.9024   22929109.822
        42.5004         39.9004
 16 10 26  1 10  0.0000000  0 10G31G22G32G01G25G26G14G10G18G12
 -22321159.15748 -17364766.83547  20740987.6124   20740984.7474   20740987.428
        49.5004         46.5004
  -5874032.56346  -4315793.94446  24077051.7064   24077050.0234   24077054.138
        40.3004         37.3004
 -24683631.99748 -19218193.14947  20593406.1464   20593405.2224   20593405.980
        50.5004         47.5004
  -4637798.98446  -3597159.39846  23974296.0594   23974298.2974   23974296.846
        39.6004         37.1004
 -17951852.34947 -13978451.53247  21399156.5364   21399157.0304   21399155.868
        47.0004         44.0004
  -2546791.20946  -1971275.19145  25031428.6114   25031432.8474   25031429.266
        37.3004         35.0004
 -22493108.55847 -17516503.03147  21044881.3124   21044878.9824   21044881.977
        47.9004         44.9004
 -18971766.61748 -14762923.27847  21486462.5764   21486463.5724   21486462.896
        48.4004         45.4004
  -7726371.58446  -5286836.23846  23559718.4674   23559717.4644   23559717.669
        38.7004         36.2004
 -12266850.44047  -9128348.71546  22940486.1474   22940484.2444   22940486.085
        42.5004         39.7004
 16 10 26  1 10 30.0000000  0 10G31G22G32G01G25G26G14G10G18G12
 -22366607.30448 -17400180.94847  20732338.9684   20732336.1294   20732338.674
        49.5004         46.3004
  -5968124.92746  -4389112.63746  24059146.9354   24059142.3544   24059146.756
        39.4004         36.6004
 -24673359.21848 -19210188.38447  20595360.7574   20595359.9934   20595360.562
        50.5004         47.3004
  -4633104.53146  -3593501.40346  23975190.1814   23975192.8554   23975190.823
        39.6004         37.1004
 -17960743.21347 -13985379.46547  21397464.0274   21397465.4344   21397464.693
        47.0004         44.0004
  -2660019.40646  -2059504.97445  25009885.4624   25009886.8564   25009884.311
        37.1004         35.0004
 -22526409.42747 -17542451.75547  21038544.8424   21038542.1514   21038546.080
        47.9004         44.9004
 -18891637.96148 -14700485.39147  21501711.2774   21501711.6934   21501711.191
        48.6004         45.4004
  -7622790.19446  -5206123.50546  23579427.9594   23579428.6894   23579428.923
        38.5004         36.2004
 -12206524.60447  -9081341.56946  22951965.9874   22951963.7284   22951966.176
        42.5004         39.7004
 16 10 26  1 11  0.0000000  0 10G31G22G32G01G25G26G14G10G18G12
 -22411627.94848 -17435261.94247  20723771.6774   20723769.0464   20723771.416
        49.5004         46.3004
  -6062029.80046  -4462285.34046  24041279.0614   24041274.5244   24041279.969
        39.7004         37.6004
 -24662812.88248 -19201970.45447  20597367.7214   20597366.9464   20597367.593
        50.5004         47.5004
  -4627874.30146  -3589425.91946  23976187.8774   23976187.2144   23976187.101
        39.6004         36.9004
 -17968994.42447 -13991808.96147  21395894.5674   21395894.6454   21395895.206
        47.0004         44.0004
  -2773287.03046  -2147765.49545  24988329.3074   24988331.6424   24988332.340
        37.3004         35.2004
 -22559528.83947 -17568259.08647  21032242.2064   21032239.8834   21032242.757
        47.9004         44.9004
 -18811106.44248 -14637733.57547  21517035.7634   21517036.1924   21517035.665
        48.6004         45.4004
  -7519041.77746  -5125280.63345  23599172.1404   23599169.9404   23599172.239
        38.2004         35.5004
 -12145666.59647  -9033919.76146  22963546.0674   22963544.6604   22963546.090
        42.3004         39.7004
 16 10 26  1 11 30.0000000  0 10G31G22G32G01G25G26G14G10G18G12
 -22456220.87048 -17470009.65647  20715285.9754   20715283.2274   20715285.601
        49.5004         46.3004
  -6155745.23246  -4535310.33246  24023441.4584   24023441.6904   24023443.772
        40.3004         37.8004
 -24651992.48948 -19193538.97647  20599426.7404   20599426.2184   20599426.779
        50.5004         47.5004
  -4622109.14646  -3584933.60046  23977283.6974   23977284.9464   23977282.929
        39.6004         37.4004
 -17976605.52047 -13997739.67547  21394445.6214   21394446.4404   21394446.324
        47.2004         44.0004
  -2886591.57546  -2236054.75045  24966768.5814   24966770.8294   24966768.598
        37.1004         35.0004
 -22592465.80948 -17593924.23747  21025974.5414   21025972.4234   21025975.223
        48.1004         45.1004
 -18730173.91448 -14574669.29647  21532436.7244   21532437.1794   21532436.803
        48.4004         45.4004
  -7415128.83346  -5044309.53645  23618944.4084   23618945.5864   23618947.833
        37.6004         35.5004
 -12084278.47747  -8986084.85346  22975228.6474   22975225.9394   22975228.253
        42.3004         39.5004
 16 10 26  1 12  0.0000000  0 10G31G22G32G01G25G26G14G10G18G12
 -22500386.08648 -17504424.09247  20706881.5434   20706878.9434   20706881.371
        49.5004         46.3004
  -6249268.85846  -4608185.92946  24005646.8174   24005643.3694   24005647.933
        40.6004         37.8004
 -24640897.60848 -19184893.61847  20601537.6794   20601537.5444   20601537.182
        50.5004         47.5004
  -4615809.93346  -3580025.17346  23978481.9794   23978483.5314   23978481.152
        39.4004         37.1004
 -17983576.05947 -14003171.24747  21393119.0314   21393120.0494   21393118.961
        47.2004         44.2004
  -2999930.43946  -2324370.75845  24945200.3044   24945204.4964   24945201.548
        37.1004         35.2004
 -22625219.79748 -17619446.81147  21019741.5124   21019739.4984   21019742.531
        48.1004         45.1004
 -18648842.33548 -14511294.07847  21547913.3514   21547914.8284   21547913.697
        48.4004         45.4004
  -7311053.54446  -4963211.95346  23638749.5284   23638750.3554   23638751.551
        38.0004         36.0004
 -12022362.01247  -8937838.23446  22987010.1184   22987008.0954   22987011.487
        42.0004         39.0004
 16 10 26  1 12 30.0000000  0 10G31G22G32G01G25G26G14G10G18G12
 -22544123.83448 -17538505.42447  20698558.3264   20698555.8074   20698558.358
        49.3004         46.3004
  -6342598.04946  -4680910.00646  23987885.8934   23987883.7514   23987887.598
        40.1004         37.4004
 -24629527.73448 -19176033.97347  20603701.2314   20603701.0424   20603700.826
        50.5004         47.5004
  -4608977.52946  -3574701.28746  23979783.1074   23979783.1504   23979781.791
        39.4004         37.1004
 -17989905.57747 -14008103.32047  21391914.6274   21391915.2624   21391915.091
        47.2004         44.2004
  -3113301.15946  -2412711.59145  24923627.9204   24923629.9204   24923627.438
        37.5004         35.5004
 -22657790.23048 -17644826.36547  21013543.5874   21013541.7354   21013544.122
        48.1004         45.1004
 -18567113.62948 -14447609.40747  21563466.1304   21563466.3944   21563465.238
        48.4004         45.4004
  -7206818.06846  -4881989.52746  23658586.5984   23658584.5284   23658585.943
        38.3004         36.0004
 -11959920.04546  -8889182.15146  22998892.2164   22998890.7034   22998893.148
        41.8004         39.0004
 16 10 26  1 13  0.0000000  0 10G31G22G32G01G25G26G14G10G18G12
 -22587433.83848 -17572253.46647  20690317.1754   20690314.4534   20690317.331
        49.5004         46.5004
  -6435730.69746  -4753480.88846  23970165.2594   23970163.0684   23970166.304
        40.8004         38.6004
 -24617882.42748 -19166959.70547  20605916.9584   20605917.3844   20605916.823
        50.5004         47.3004
  -4601612.85046  -3568962.57846  23981184.6014   23981184.7404   23981183.402
        39.6004         37.3004
 -17995593.70647 -14012535.62247  21390832.7184   21390833.0134   21390833.582
        47.2004         44.4004
  -3226701.11146  -2501075.20945  24902047.2174   24902050.6424   24902047.137
        37.6004         35.3004
 -22690176.28248 -17670062.24447  21007380.8554   21007378.8234   21007381.614
        48.1004         45.1004
 -18484989.73948 -14383616.79047  21579093.4364   21579094.4724   21579094.275
        48.4004         45.2004
  -7102424.43546  -4800643.83846  23678450.3934   23678451.0614   23678452.598
        38.5004         36.2004
 -11896954.24847  -8840117.88046  23010874.5844   23010872.5724   23010873.910
        42.2004         39.7004
 16 10 26  1 13 30.0000000  0 10G31G22G32G01G25G26G14G10G18G12
 -22630316.44448 -17605668.46547  20682156.5504   20682153.6884   20682156.667
        49.5004         46.5004
  -6528664.38946  -4825896.75346  23952480.2374   23952477.2764   23952481.453
        41.1004         38.3004
 -24605961.23748 -19157670.47147  20608185.6864   20608185.8534   20608185.948
        50.5004         47.3004
  -4593716.82346  -3562809.88646  23982685.6424   23982688.7334   23982686.601
        39.6004         37.1004
 -18000640.09147 -14016467.85647  21389872.1324   21389873.0544   21389872.405
        47.2004         44.2004
  -3340127.78346  -2589459.61546  24880463.2664   24880466.8944   24880463.788
        38.0004         36.0004
 -22722377.61048 -17695154.17847  21001253.0504   21001251.2014   21001253.120
        48.1004         45.1004
 -18402472.63848 -14319317.77447  21594796.1074   21594796.3544   21594795.668
        48.2004         45.1004
  -6997874.56546  -4719176.48445  23698346.2374   23698345.6414   23698347.625
        38.0004         35.7004
 -11833466.60847  -8790646.98846  23022956.7464   23022954.5384   23022956.696
        42.5004         39.5004
 16 10 26  1 14  0.0000000  0 10G31G22G32G01G25G26G14G10G18G12
 -22672770.98848 -17638749.92547  20674077.8674   20674074.9814   20674077.758
        49.5004         46.5004
  -6621396.73446  -4898155.78446  23934833.8144   23934829.0774   23934834.490
        40.4004         37.4004
 -24593763.65148 -19148165.86847  20610506.6524   20610506.9014   20610506.751
        50.5004         47.3004
  -4585290.26746  -3556243.79846  23984290.0964   23984290.8984   23984289.292
        39.6004         37.3004
 -18005044.36547 -14019899.74447  21389034.1174   21389034.9014   21389034.578
        47.2004         44.2004
  -3453578.59246  -2677862.81246  24858873.8194   24858877.9064   24858873.047
        38.2004         36.0004
 -22754393.30648 -17720101.45547  20995160.8004   20995159.1144   20995160.428
        48.1004         45.1004
 -18319564.43048 -14254714.00247  21610572.7094   21610574.1144   21610573.024
        48.2004         45.2004
  -6893170.59746  -4637588.98245  23718271.0654   23718270.1434   23718272.111
        37.6004         35.2004
 -11769460.02247  -8740771.72546  23035136.4684   23035134.0054   23035137.147
        42.0004         39.0004
 16 10 26  1 14 30.0000000  0 10G31G22G32G01G25G26G14G10G18G12
 -22714798.07248 -17671498.27947  20666080.2894   20666077.7344   20666080.399
        49.5004         46.5004
  -6713925.59746  -4970256.22046  23917226.0814   23917223.7574   23917226.833
        40.6004         38.3004
 -24581289.23148 -19138445.53447  20612880.4394   20612880.8344   20612879.977
        50.5004         47.3004
  -4576334.33346  -3549265.17146  23985993.9884   23985995.1904   23985994.104
        39.7004         37.6004
 -18008806.26247 -14022831.06847  21388318.3754   21388318.8314   21388318.112
        47.2004         44.2004
  -3567050.95746  -2766282.78646  24837281.4364   24837284.9754   24837281.818
        38.3004         36.0004
 -22786222.78848 -17744903.63647  20989103.7654   20989101.6674   20989104.251
        48.1004         45.1004
 -18236266.80448 -14189806.79247  21626423.5994   21626425.0504   21626423.680
        48.2004         45.2004
  -6788315.12746  -4555883.45245  23738223.7944   23738224.9174   23738224.797
        37.6004         35.5004
 -11704936.44146  -8690493.60446  23047415.4944   23047411.5334   23047415.299
        41.8004         39.3004
 16 10 26  1 15  0.0000000  0 10G31G22G32G01G25G26G14G10G18G12
 -22756397.68648 -17703913.53747  20658163.8934   20658161.4074   20658163.955
        49.5004         46.5004
  -6806248.59046  -5042196.18546  23899657.7904   23899655.0544   23899659.977
        41.1004         38.5004
 -24568537.48848 -19128509.11947  20615307.1304   20615307.2054   20615306.587
        50.5004         47.3004
  -4566849.84846  -3541874.66346  23987798.1444   23987800.8904   23987798.276
        39.9004         37.4004
 -18011925.47947 -14025261.61347  21387724.3494   21387725.4594   21387724.857
        47.2004         44.2004
  -3680542.36646  -2854717.60845  24815684.7374   24815686.7104   24815685.450
        38.3004         35.9004
 -22817865.20848 -17769560.05647  20983082.3734   20983080.1714   20983082.370
        48.1004         45.1004
 -18152581.90848 -14124597.82347  21642348.5124   21642349.8274   21642348.385
        48.2004         45.1004
  -6683310.38146  -4474061.60445  23758206.2054   23758205.1594   23758207.470
        37.6004         35.2004
 -11639897.93547  -8639814.20946  23059791.3684   23059788.5194   23059791.731
        42.2004         39.3004
 16 10 26  1 15 30.0000000  0 10G31G22G32G01G25G26G14G10G18G12
 -22797569.51848 -17735995.46447  20650329.5234   20650326.9754   20650329.503
        49.6004         46.6004
  -6898363.11946  -5113973.79546  23882128.4984   23882125.4164   23882130.469
        40.6004         37.6004
 -24555507.97648 -19118356.25747  20617786.8354   20617786.7304   20617786.458
        50.5004         47.3004
  -4556837.87646  -3534073.16246  23989702.3074   23989705.6784   23989701.781
        39.7004         37.1004
 -18014401.79447 -14027191.19547  21387252.9934   21387253.8574   21387253.723
        47.2004         44.2004
  -3794050.24446  -2943165.21945  24794084.5784   24794087.8154   24794086.297
        38.2004         35.9004
 -22849319.86748 -17794070.17447  20977096.7714   20977094.6544   20977097.373
        48.1004         45.1004
 -18068511.76448 -14059088.65947  21658346.7214   21658347.6784   21658346.869
        48.2004         45.2004
  -6578157.81046  -4392124.55545  23778217.8694   23778216.0544   23778216.328
        37.1004         35.0004
 -11574347.03246  -8588735.60846  23072265.4974   23072261.6874   23072265.272
        41.8004         39.0004
 16 10 26  1 16  0.0000000  0 10G31G22G32G01G25G26G14G10G18G12
 -22838313.73748 -17767744.18647  20642576.1534   20642573.3344   20642576.485
        49.6004         46.6004
  -6990267.29846  -5185587.44146  23864642.0034   23864637.0944   23864641.952
        41.1004         39.0004
 -24542200.21748 -19107986.57047  20620319.6304   20620318.9724   20620319.034
        50.5004         47.3004
  -4546299.55446  -3525861.52246  23991709.3504   23991711.8744   23991709.772
        39.7004         37.3004
 -18016234.97647 -14028619.64247  21386904.2114   21386905.0544   21386904.142
        47.0004         44.2004
  -3907572.03746  -3031623.71145  24772480.4704   24772484.0094   24772480.568
        37.5004         35.2004
 -22880586.32848 -17818433.63647  20971146.9424   20971144.8184   20971147.339
        48.1004         45.2004
 -17984058.38148 -13993280.85747  21674418.1704   21674418.9464   21674418.490
        48.2004         45.2004
  -6472860.43746  -4310074.68245  23798254.4184   23798252.5494   23798255.845
        37.0004         34.8004
 -11508285.91046  -8537259.39246  23084835.5384   23084834.0694   23084836.930
        41.6004         39.0004
 16 10 26  1 16 30.0000000  0 10G31G22G32G01G25G26G14G10G18G12
 -22878630.64848 -17799159.94047  20634903.9554   20634901.2984   20634904.102
        49.6004         46.6004
  -7081958.50946  -5257035.14346  23847191.9334   23847189.3154   23847193.897
        41.3004         38.3004
 -24528613.73148 -19097399.69247  20622905.0044   20622904.4454   20622905.143
        50.5004         47.3004
  -4535235.86046  -3517240.44446  23993814.3614   23993816.1174   23993815.035
        39.7004         37.3004
 -18017424.81347 -14029546.77647  21386678.3214   21386678.5344   21386678.644
        47.2004         44.2004
  -4021105.16346  -3120090.95645  24750877.2514   24750880.0014   24750877.728
        37.5004         35.3004
 -22911663.92848 -17842649.94947  20965232.7754   20965231.3854   20965233.730
        48.2004         45.2004
 -17899223.79148 -13927176.00547  21690561.6574   21690562.1224   21690562.171
        48.2004         45.2004
  -6367419.74846  -4227913.14745  23818319.5874   23818319.7264   23818318.768
        37.0004         34.8004
 -11441716.57246  -8485387.16346  23097503.3144   23097499.4764   23097503.476
        41.5004         39.0004
 16 10 26  1 17  0.0000000  0 10G31G22G32G01G25G26G14G10G18G12
 -22918520.06948 -17830242.58047  20627313.3884   20627310.2404   20627313.133
        49.6004         46.5004
  -7173434.13246  -5328314.84546  23829784.4014   23829780.8934   23829785.039
        40.8004         38.3004
 -24514748.10548 -19086595.30447  20625543.4754   20625543.0124   20625543.399
        50.5004         47.5004
  -4523647.89946  -3508210.90746  23996019.7334   23996020.8144   23996019.383
        39.6004         37.1004
 -18017971.19447 -14029972.49947  21386573.8674   21386575.0194   21386574.082
        47.2004         44.2004
  -4134647.03846  -3208565.05545  24729270.2424   24729275.3494   24729272.361
        37.8004         35.5004
 -22942551.82648 -17866718.44247  20959355.1994   20959353.3894   20959355.367
        48.2004         45.2004
 -17814010.02848 -13860775.70147  21706777.2514   21706778.1884   21706777.609
        48.2004         45.1004
  -6261838.53046  -4145642.09145  23838408.4084   23838408.8764   23838412.242
        37.3004         35.2004
 -11374641.82246  -8433121.10746  23110268.0074   23110264.1034   23110267.118
        41.5004         39.0004
 16 10 26  1 17 30.0000000  0 10G31G22G32G01G25G26G14G10G18G12
 -22957982.20648 -17860992.27547  20619803.5894   20619800.5934   20619803.810
        49.5004         46.5004
  -7264692.23946  -5399425.07846  23812418.6424   23812415.0304   23812420.764
        40.9004         38.5004
 -24500602.81948 -19075573.01547  20628235.1024   20628234.8044   20628235.288
        50.5004         47.3004
  -4511536.74446  -3498773.60846  23998324.6574   23998325.4814   23998324.544
        39.6004         37.1004
 -18017873.94647 -14029896.70747  21386592.6434   21386593.4744   21386593.122
        47.2004         44.2004
  -4248195.10146  -3297043.92045  24707661.9914   24707666.0284   24707659.027
        37.5004         35.5004
 -22973249.10348 -17890638.40447  20953513.5784   20953512.1454   20953514.170
        48.2004         45.1004
 -17728419.11448 -13794081.52647  21723064.0044   21723065.1784   21723064.275
        48.1004         44.9004
  -6156118.38646  -4063262.80645  23858529.3534   23858527.4034   23858532.806
        37.3004         35.3004
 -11307063.41847  -8380462.59846  23123127.3224   23123125.0394   23123127.913
        42.0004         39.7004
 16 10 26  1 18  0.0000000  0 10G31G22G32G01G25G26G14G10G18G12
 -22997017.22648 -17891409.14547  20612375.5484   20612373.0544   20612375.203
        49.6004         46.6004
  -7355730.49846  -5470364.02146  23795095.1314   23795090.6154   23795095.887
        40.9004         38.5004
 -24486177.44348 -19064332.47347  20630980.2654   20630979.6764   20630979.704
        50.5004         47.3004
  -4498903.49746  -3488929.56246  24000728.3594   24000729.4554   24000727.966
        39.6004         37.1004
 -18017132.97147 -14029319.30447  21386733.3524   21386734.4454   21386733.710
        47.2004         44.2004
  -4361746.72246  -3385525.60145  24686053.8184   24686057.8604   24686054.901
        37.6004         35.5004
 -23003755.30248 -17914409.46047  20947708.7594   20947706.7804   20947709.496
        48.2004         45.2004
 -17642453.15747 -13727095.10247  21739423.0564   21739423.6414   21739422.952
        47.9004         44.7004
  -6050262.10946  -3980777.43745  23878671.3124   23878671.2354   23878672.490
        37.8004         35.9004
 -11238984.23547  -8327413.88546  23136082.8604   23136079.8214   23136082.448
        42.0004         39.2004
 16 10 26  1 18 30.0000000  0 10G31G22G32G01G25G26G14G10G18G12
 -23035625.26048 -17921493.30247  20605028.7014   20605025.8044   20605028.798
        49.6004         46.6004
  -7446546.29646  -5541129.55546  23777813.3184   23777810.3084   23777814.580
        41.5004         39.0004
 -24471471.47748 -19052873.28047  20633778.9174   20633778.0904   20633778.937
        50.5004         47.3004
  -4485749.34546  -3478679.55346  24003231.2864   24003233.3814   24003232.515
        39.6004         37.1004
 -18015748.23247 -14028240.26147  21386996.6374   21386997.6654   21386997.472
        47.0004         44.0004
  -4475299.32846  -3474008.05646  24664446.8494   24664450.8234   24664446.836
        38.3004         36.0004
 -23034069.73248 -17938031.08847  20941939.9394   20941938.0704   20941940.605
        48.2004         45.1004
 -17556114.22747 -13659818.04847  21755852.9444   21755853.9404   21755853.045
        47.9004         44.7004
  -5944271.34046  -3898187.23545  23898841.2974   23898839.9834   23898842.032
        37.8004         35.5004
 -11170406.28146  -8273976.52046  23149132.1094   23149130.4764   23149132.245
        41.6004         38.5004
 16 10 26  1 19  0.0000000  0 10G31G22G32G01G25G26G14G10G18G12
 -23073806.29848 -17951244.74147  20597763.4254   20597760.1474   20597763.615
        49.6004         46.8004
  -7537137.10846  -5611719.79046  23760574.2564   23760570.7084   23760575.744
        41.6004         38.8004
 -24456484.45548 -19041195.07547  20636630.5964   20636630.3214   20636630.404
        50.5004         47.3004
  -4472075.42046  -3468024.53846  24005832.9104   24005835.7404   24005833.075
        39.7004         37.1004
 -18013719.65047 -14026659.52947  21387383.0094   21387383.8774   21387382.451
        47.0004         44.0004
  -4588850.32746  -3562489.25046  24642838.3534   24642840.9204   24642838.114
        38.2004         36.0004
 -23064191.65048 -17961502.70047  20936207.7884   20936205.5874   20936207.795
        48.1004         45.1004
 -17469404.39947 -13592251.98647  21772353.2064   21772354.3674   21772353.273
        47.9004         44.9004
  -5838148.50146  -3815494.12945  23919035.8144   23919033.9484   23919037.729
        38.0004         35.7004
 -11101332.41146  -8220152.69846  23162276.8054   23162273.9554   23162276.372
        41.5004         38.8004
 16 10 26  1 19 30.0000000  0 10G31G22G32G01G25G26G14G10G18G12
 -23111560.67948 -17980663.71247  20590579.0654   20590575.7824   20590579.143
        49.8004         46.6004
  -7627500.88346  -5682133.15346  23743378.7394   23743374.0964   23743380.127
        41.3004         38.3004
 -24441215.94748 -19029297.53547  20639536.2324   20639535.8324   20639536.215
        50.5004         47.3004
  -4457883.00946  -3456965.48646  24008534.8064   24008535.6034   24008535.480
        39.7004         37.3004
 -18011047.27147 -14024577.13447  21387891.9014   21387891.9574   21387893.104
        47.0004         44.0004
  -4702397.06446  -3650967.19246  24621231.6844   24621234.5444   24621232.313
        38.9004         36.4004
 -23094120.07847 -17984823.55047  20930512.2554   20930510.2064   20930513.251
        47.9004         44.9004
 -17382325.77047 -13524398.55047  21788923.9114   21788924.8354   21788923.932
        47.9004         44.7004
  -5731896.06246  -3732700.04545  23939253.8074   23939255.5644   23939254.967
        38.0004         35.9004
 -11031764.72146  -8165944.10046  23175515.5524   23175512.0494   23175515.768
        41.5004         38.6004
 16 10 26  1 20  0.0000000  0 10G31G22G32G01G25G26G14G10G18G12
 -23148888.43148 -18009750.24047  20583475.4544   20583472.7314   20583475.536
        49.8004         46.8004
  -7717635.31246  -5752367.76246  23726227.1544   23726223.7144   23726227.769
        41.3004         39.0004
 -24425665.46648 -19017180.27647  20642495.4954   20642494.9054   20642495.345
        50.5004         47.3004
  -4443173.24346  -3445503.30446  24011333.9584   24011336.0414   24011333.070
        39.6004         37.1004
 -18007731.05747 -14021993.06147  21388522.7894   21388522.9744   21388523.382
        47.2004         44.2004
  -4815937.08446  -3739439.83045  24599624.2904   24599627.5374   24599625.209
        38.3004         35.9004
 -23123854.51647 -18007993.24347  20924853.8674   20924852.1884   20924854.610
        47.9004         44.9004
 -17294880.44747 -13456259.36947  21805564.0214   21805564.9734   21805564.404
        47.7004         44.5004
  -5625515.88346  -3649806.42645  23959495.6134   23959497.9224   23959499.784
        37.1004         34.6004
 -10961705.10546  -8111352.20246  23188848.1024   23188844.9084   23188847.317
        41.6004         39.0004
 16 10 26  1 20 30.0000000  0 10G31G22G32G01G25G26G14G10G18G12
 -23185789.85648 -18038504.55447  20576453.5024   20576450.7394   20576453.983
        49.8004         46.8004
  -7807537.90946  -5822421.74646  23709119.2354   23709115.1394   23709122.175
        41.6004         38.6004
 -24409832.55748 -19004842.93747  20645508.4644   20645507.9564   20645508.221
        50.5004         47.3004
  -4427947.41046  -3433639.02846  24014231.6584   24014232.3964   24014231.633
        39.6004         36.9004
 -18003771.08947 -14018907.35047  21389276.3194   21389276.8374   21389276.573
        47.2004         44.2004
  -4929467.63146  -3827905.05946  24578020.4104   24578024.3804   24578022.010
        38.5004         36.4004
 -23153394.24147 -18031011.20647  20919232.8214   20919230.7934   20919233.691
        47.9004         44.9004
 -17207070.53547 -13387836.11247  21822273.7794   21822274.7224   21822273.480
        47.5004         44.5004
  -5519010.48846  -3566815.23845  23979764.4714   23979764.4254   23979765.119
        36.4004         34.3004
 -10891156.28946  -8056379.07746  23202271.9824   23202269.4114   23202273.435
        41.6004         39.0004
 16 10 26  1 21  0.0000000  0 10G31G22G32G01G25G26G14G10G18G12
 -23222265.03648 -18066926.74547  20569512.4924   20569509.5874   20569512.434
        50.0004         46.8004
  -7897206.20946  -5892293.18946  23692056.3474   23692052.4784   23692058.046
        41.5004         39.0004
 -24393716.75648 -18992285.17047  20648575.1214   20648574.3644   20648574.946
        50.5004         47.3004
  -4412206.74346  -3421373.53046  24017226.3924   24017227.2614   24017224.787
        39.2004         36.7004
 -17999167.41347 -14015320.05947  21390152.6644   21390152.9164   21390153.169
        47.2004         44.2004
  -5042986.09846  -3916360.92546  24556419.6724   24556422.0914   24556419.109
        38.7004         36.6004
 -23182738.54047 -18053876.88547  20913649.6174   20913646.3474   20913650.270
        47.9004         44.9004
 -17118898.20247 -13319130.43647  21839052.8964   21839053.4364   21839052.600
        47.5004         44.4004
  -5412381.76846  -3483727.96445  24000055.6694   24000053.6794   24000056.943
        36.6004         34.8004
 -10820120.70246  -8001026.65646  23215789.4714   23215786.8134   23215791.067
        41.5004         38.8004
 16 10 26  1 21 30.0000000  0 10G31G22G32G01G25G26G14G10G18G12
 -23258314.27348 -18095017.02147  20562652.2064   20562649.5334   20562652.241
        49.8004         46.8004
  -7986637.64247  -5961979.98646  23675037.1784   23675034.8264   23675036.728
        42.0004         39.7004
 -24377317.58948 -18979506.59647  20651695.7674   20651695.0804   20651695.919
        50.5004         47.3004
  -4395952.50146  -3408707.87146  24020318.5274   24020321.7774   24020318.515
        39.6004         37.1004
 -17993920.13647 -14011231.25347  21391151.0664   21391151.8074   21391151.471
        47.2004         44.2004
  -5156489.91346  -4004805.39546  24534820.7874   24534822.5094   24534820.687
        39.2004         36.7004
 -23211886.67847 -18076589.70147  20908102.3374   20908099.8634   20908103.458
        47.9004         44.9004
 -17030365.55647 -13250143.99947  21855900.0614   21855900.8364   21855900.292
        47.5004         44.5004
  -5305631.89946  -3400546.25145  24020369.3974   24020366.4954   24020371.965
        37.0004         34.8004
 -10748601.18246  -7945297.17346  23229398.5554   23229396.2204   23229399.508
        41.3004         38.6004
 16 10 26  1 22  0.0000000  0 10G31G22G32G01G25G26G14G10G18G12
 -23293937.71748 -18122775.51947  20555873.4304   20555870.9474   20555873.358
        49.8004         46.8004
  -8075830.40146  -6031480.84346  23658064.6534   23658061.3824   23658066.093
        41.8004         38.8004
 -24360634.61948 -18966506.87447  20654870.1174   20654869.9034   20654869.754
        50.5004         47.3004
  -4379186.09746  -3395643.09046  24023509.7414   24023510.7934   24023510.526
        39.7004         36.9004
 -17988029.41247 -14006641.06647  21392271.7924   21392272.6084   21392272.263
        47.2004         44.2004
  -5269976.39546  -4093236.38246  24513224.7424   24513227.3334   24513225.395
        39.4004         36.9004
 -23240837.80048 -18099149.01847  20902593.3994   20902591.0174   20902594.319
        48.1004         45.1004
 -16941474.75447 -13180878.46847  21872815.5004   21872815.7044   21872815.462
        47.5004         44.4004
  -5198763.01646  -3317271.78745  24040707.4184   24040707.4414   24040706.476
        37.3004         35.3004
 -10676599.85646  -7889192.23846  23243100.8444   23243096.7034   23243100.386
        41.3004         38.6004
 16 10 26  1 22 30.0000000  0 10G31G22G32G01G25G26G14G10G18G12
 -23329135.68748 -18150202.49047  20549175.5644   20549172.9504   20549175.891
        49.8004         46.8004
  -8164781.95546  -6100793.74546  23641137.7824   23641134.4064   23641138.328
        41.8004         39.0004
 -24343667.38748 -18953285.65747  20658098.5864   20658098.1814   20658098.150
        50.3004         47.3004
  -4361908.67046  -3382180.14546  24026797.0654   24026798.0914   24026796.707
        39.4004         36.6004
 -17981495.38947 -14001549.60247  21393514.8084   21393515.8744   21393515.889
        47.2004         44.0004
  -5383442.99646  -4181651.84445  24491631.8314   24491635.5634   24491630.652
        38.7004         35.9004
 -23269591.12048 -18121554.19647  20897121.9854   20897119.6024   20897122.512
        48.1004         45.1004
 -16852227.92647 -13111335.52347  21889798.1574   21889798.9734   21889797.546
        47.4004         44.4004
  -5091777.46946  -3233906.45145  24061064.2474   24061066.2894   24061064.998
        37.3004         35.0004
 -10604119.26746  -7832713.83746  23256892.2844   23256888.8044   23256892.237
        41.1004         38.1004
 16 10 26  1 23  0.0000000  0 10G31G22G32G01G25G26G14G10G18G12
 -23363908.50748 -18177298.19547  20542559.0004   20542555.6124   20542558.798
        50.0004         47.0004
  -8253489.73246  -6169916.72346  23624256.9494   23624253.4224   23624258.803
        41.6004         39.2004
 -24326415.43648 -18939842.57947  20661381.2854   20661381.3714   20661380.959
        50.3004         47.3004
  -4344121.70246  -3368320.14146  24030182.7534   24030184.0314   24030183.454
        39.7004         37.3004
 -17974318.27847 -13995957.03447  21394880.7034   21394881.4264   21394880.548
        47.2004         44.2004
  -5496887.05246  -4270049.74745  24470044.4094   24470047.3374   24470045.293
        38.2004         35.9004
 -23298145.86948 -18143804.64147  20891688.1814   20891685.5434   20891689.032
        48.2004         45.2004
 -16762627.25347 -13041516.85347  21906848.1374   21906849.6454   21906848.690
        47.2004         44.2004
  -4984677.54646  -3150451.98545  24081446.6004   24081444.3564   24081446.667
        36.8004         34.6004
 -10531161.73246  -7775863.80046  23270777.1114   23270772.3514   23270777.405
        40.8004         37.9004
 16 10 26  1 23 30.0000000  0 10G31G22G32G01G25G26G14G10G18G12
 -23398256.22648 -18204062.66347  20536022.3524   20536019.3214   20536022.452
        49.8004         46.8004
  -8341951.26346  -6238847.76246  23607423.5344   23607419.6684   23607423.004
        41.8004         39.2004
 -24308878.28548 -18926177.27247  20664719.1834   20664718.5754   20664719.032
        50.3004         47.2004
  -4325826.56746  -3354064.17546  24033663.7974   24033665.5654   24033664.138
        39.7004         37.3004
 -17966498.26047 -13989863.50447  21396368.7974   21396369.9824   21396368.845
        47.2004         44.2004
  -5610305.94946  -4358428.06646  24448461.5974   24448464.9814   24448461.988
        38.7004         36.7004
 -23326501.41848 -18165899.86547  20886291.7474   20886289.8014   20886292.305
        48.2004         45.1004
 -16672674.93847 -12971424.18647  21923966.2324   21923967.1074   21923965.972
        47.2004         44.2004
  -4877465.78846  -3066910.37645  24101846.9884   24101845.4864   24101852.860
        36.1004         34.1004
 -10457730.34346  -7718644.52546  23284750.5954   23284746.2604   23284750.644
        41.1004         38.6004
 16 10 26  1 24  0.0000000  0 10G31G22G32G01G25G26G14G10G18G12
 -23432179.03448 -18230496.01047  20529566.9064   20529564.0534   20529566.861
        49.8004         46.8004
  -8430164.38647  -6307585.26346  23590638.0764   23590634.2244   23590640.778
        42.3004         39.9004
 -24291055.48548 -18912289.36847  20668110.7144   20668110.3464   20668110.516
        50.3004         47.3004
  -4307024.60346  -3339413.28146  24037242.0764   24037243.1364   24037241.490
        39.9004         37.4004
 -17958035.63347 -13983269.22347  21397979.2624   21397980.3814   21397979.896
        47.2004         44.2004
  -5723696.95646  -4446784.65946  24426883.4374   24426886.7424   24426883.714
        39.0004         36.6004
 -23354657.05348 -18187839.30747  20880934.1464   20880932.2264   20880934.436
        48.2004         45.2004
 -16582373.16647 -12901059.20447  21941150.2004   21941151.2574   21941150.186
        47.4004         44.4004
  -4770143.52845  -2983282.66745  24122270.3174   24122269.0804   24122270.841
        35.9004         34.0004
 -10383826.96846  -7661057.46946  23298813.7854   23298811.1624   23298815.004
        41.3004         38.6004
 16 10 26  1 24 30.0000000  0 10G31G22G32G01G25G26G14G10G18G12
 -23465677.45148 -18256598.65647  20523192.1304   20523189.4264   20523192.703
        49.8004         46.8004
  -8518126.86947  -6376127.47546  23573897.8554   23573894.9684   23573898.207
        42.0004         39.0004
 -24272946.59448 -18898178.53947  20671556.8034   20671556.6124   20671556.664
        50.5004         47.3004
  -4287717.27546  -3324368.58546  24040916.7714   24040916.6664   24040915.548
        39.9004         37.3004
 -17948930.65047 -13976174.42047  21399712.2354   21399713.1634   21399712.761
        47.2004         44.2004
  -5837057.51246  -4535117.48446  24405311.9914   24405315.0064   24405312.175
        39.4004         36.9004
 -23382611.69348 -18209622.12747  20875614.8444   20875612.7054   20875615.170
        48.2004         45.2004
 -16491724.12147 -12830423.60547  21958400.0684   21958400.3584   21958400.846
        47.4004         44.2004
  -4662713.63945  -2899571.05445  24142712.7114   24142712.4654   24142712.584
        35.7004         33.8004
 -10309453.95746  -7603104.47646  23312966.0654   23312963.8174   23312965.799
        41.1004         38.3004
 16 10 26  1 25  0.0000000  0 10G31G22G32G01G25G26G14G10G18G12
 -23498751.79348 -18282370.85847  20516898.2854   20516895.7654   20516898.018
        49.8004         46.8004
  -8605835.98947  -6444472.22846  23557207.7544   23557205.4174   23557209.303
        42.0004         39.7004
 -24254551.15548 -18883844.42947  20675056.9204   20675057.1424   20675056.621
        50.5004         47.3004
  -4267906.00246  -3308931.20946  24044685.9124   24044687.3384   24044685.192
        39.9004         37.4004
 -17939183.61147 -13968579.30647  21401566.7724   21401567.5244   21401567.155
        47.2004         44.2004
  -5950384.89246  -4623424.45046  24383745.4674   24383749.5044   24383747.295
        39.4004         36.9004
 -23410364.72648 -18231247.85647  20870333.3654   20870331.2034   20870334.029
        48.2004         45.2004
 -16400729.95647 -12759519.07347  21975716.1054   21975716.5124   21975716.221
        47.4004         44.2004
  -4555178.66545  -2815777.57545  24163174.6364   24163172.5554   24163175.243
        35.4004         33.6004
 -10234614.12446  -7544787.70846  23327208.6694   23327205.7364   23327207.849
        41.1004         38.5004
 16 10 26  1 25 30.0000000  0 10G31G22G32G01G25G26G14G10G18G12
 -23531402.12048 -18307812.64947  20510685.5994   20510682.4134   20510685.866
        49.8004         46.8004
  -8693289.69647  -6512617.99346  23540566.7214   23540562.2014   23540567.561
        42.3004         39.5004
 -24235868.72748 -18869286.68947  20678612.0974   20678612.0654   20678612.197
        50.3004         47.3004
  -4247592.18446  -3293102.24246  24048551.5074   24048552.6344   24048552.071
        39.9004         37.4004
 -17928794.86347 -13960484.15647  21403543.7664   21403544.2694   21403544.300
        47.2004         44.2004
  -6063676.49446  -4711703.54846  24362187.5024   24362190.2434   24362185.936
        39.2004         36.6004
 -23437915.30248 -18252715.82647  20865090.2704   20865088.4314   20865090.667
        48.1004         45.1004
 -16309392.99047 -12688347.44147  21993096.3624   21993097.3624   21993096.479
        47.2004         44.0004
  -4447540.23945  -2731903.44345  24183656.2804   24183659.9264   24183659.511
        35.2004         33.6004
 -10159310.06746  -7486109.21246  23341539.2204   23341533.4334   23341538.951
        41.3004         38.8004
 16 10 26  1 26  0.0000000  0 10G31G22G32G01G25G26G14G10G18G12
 -23563629.02548 -18332924.50047  20504552.6574   20504550.1284   20504553.048
        49.8004         46.8004
  -8780485.38647  -6580562.69746  23523972.9204   23523969.6014   23523974.933
        42.2004         39.5004
 -24216898.84148 -18854504.96247  20682222.2744   20682221.7854   20682222.743
        50.5004         47.3004
  -4226777.32246  -3276882.83846  24052511.1504   24052514.1874   24052511.944
        39.7004         37.3004
 -17917764.79847 -13951889.28347  21405642.4064   21405642.8474   21405642.772
        47.2004         44.2004
  -6176929.62046  -4799952.64946  24340636.4024   24340638.5854   24340637.945
        39.0004         36.6004
 -23465262.76048 -18274025.53847  20859886.2524   20859884.3224   20859887.419
        48.1004         45.1004
 -16217715.37247 -12616910.37447  22010541.9324   22010543.2584   22010541.327
        47.0004         44.0004
  -4339800.43345  -2647950.39545  24204161.9164   24204161.1924   24204165.498
        34.7004         33.3004
 -10083544.26846  -7427070.92546  23355956.8854   23355952.1544   23355955.944
        41.5004         38.6004
 16 10 26  1 26 30.0000000  0 10G31G22G32G01G25G26G14G10G18G12
 -23595432.82248 -18357706.64547  20498500.3894   20498497.5784   20498500.170
        49.8004         46.6004
  -8867420.74747  -6648304.49946  23507430.8704   23507427.3234   23507431.566
        42.3004         39.7004
 -24197641.06648 -18839498.91247  20685886.7384   20685886.3814   20685886.531
        50.3004         47.3004
  -4205462.91746  -3260274.17946  24056569.0704   24056568.7384   24056566.545
        39.6004         37.1004
 -17906093.78347 -13942794.97747  21407863.5754   21407863.6424   21407864.038
        47.2004         44.0004
  -6290141.68346  -4888169.78046  24319092.4864   24319094.8614   24319091.102
        39.2004         36.7004
 -23492406.34248 -18295176.37247  20854721.0594   20854719.3424   20854721.795
        48.1004         45.1004
 -16125699.35647 -12545209.58647  22028052.6794   22028053.3244   22028052.935
        47.0004         44.2004
  -4231961.82545  -2563920.32545  24224681.7934   24224678.9634   24224685.741
        34.3004         32.6004
 -10007319.49146  -7367674.99346  23370460.6584   23370457.6604   23370462.518
        41.5004         38.6004
 16 10 26  1 27  0.0000000  0 10G31G22G32G01G25G26G14G10G18G12
 -23626813.64048 -18382159.21247  20492529.3364   20492526.2594   20492529.553
        49.8004         46.8004
  -8954093.52547  -6715841.74746  23490937.2104   23490933.1344   23490938.205
        42.7004         39.5004
 -24178094.94248 -18824268.17247  20689606.1554   20689605.6444   20689605.454
        50.3004         47.3004
  -4183650.43446  -3243277.38446  24060718.1564   24060719.8244   24060719.369
        39.9004         37.4004
 -17893782.21147 -13933201.52647  21410205.8444   21410207.0674   21410205.870
        47.2004         44.2004
  -6403309.94746  -4976352.71946  24297555.9154   24297561.0524   24297556.244
        39.0004         36.7004
 -23519345.14248 -18316167.62747  20849594.9884   20849593.0694   20849595.434
        48.1004         45.2004
 -16033347.41047 -12473247.05047  22045626.7314   22045627.3854   22045626.443
        47.2004         44.2004
  -4124026.77045  -2479815.04245  24245222.8554   24245220.3884   24245221.913
        33.5004         32.4004
  -9930638.37146  -7307923.46346  23385053.3714   23385050.5544   23385051.966
        41.5004         38.6004
 16 10 26  1 27 30.0000000  0 10G31G22G32G01G25G26G14G10G18G12
 -23657771.92048 -18406282.52247  20486637.6144   20486635.0624   20486637.047
        49.8004         46.8004
  -9040501.17247  -6783172.39346  23474493.2784   23474490.3264   23474493.350
        42.0004         38.8004
 -24158260.03348 -18808812.39247  20693380.6794   20693380.1834   20693380.086
        50.3004         47.3004
  -4161341.49446  -3225893.80146  24064964.2044   24064963.9824   24064964.175
        39.6004         36.7004
 -17880830.61547 -13923109.35147  21412670.7964   21412671.7264   21412671.502
        47.2004         44.2004
  -6516431.83146  -5064499.51046  24276030.7104   24276032.9714   24276033.371
        39.4004         37.1004
 -23546078.34848 -18336998.68447  20844507.4494   20844506.0214   20844507.586
        48.2004         45.2004
 -15940661.38847 -12401024.20547  22063264.3424   22063265.6844   22063264.260
        47.2004         44.4004
  -4015997.42845  -2395636.28545  24265776.5514   24265776.1834   24265774.466
        33.1004         32.6004
  -9853503.80846  -7247818.57546  23399731.3154   23399726.9984   23399732.339
        41.3004         38.3004
 16 10 26  1 28  0.0000000  0 10G31G22G32G01G25G26G14G10G18G12
 -23688308.20348 -18430077.00147  20480827.3084   20480824.3394   20480827.128
        49.8004         46.8004
  -9126641.18847  -6850294.48946  23458103.1014   23458098.3614   23458102.447
        42.2004         39.9004
 -24138135.85648 -18793131.21647  20697210.1614   20697209.8934   20697210.116
        50.3004         47.2004
  -4138537.63646  -3208124.54146  24069304.7484   24069303.4314   24069303.574
        39.2004         36.7004
 -17867239.38847 -13912518.77647  21415257.3694   21415257.9664   21415257.205
        47.2004         44.2004
  -6629504.59546  -5152608.04646  24254514.3324   24254515.9314   24254514.426
        39.9004         37.8004
 -23572605.06148 -18357668.85247  20839459.9064   20839458.1154   20839460.518
        48.2004         45.2004
 -15847643.71947 -12328542.92347  22080965.0344   22080965.8164   22080964.955
        47.2004         44.0004
  -3907875.91245  -2311385.73145  24286353.5864   24286351.7304   24286355.074
        33.3004         32.0004
  -9775916.93146  -7187361.25746  23414495.7844   23414491.6134   23414496.025
        41.3004         38.6004
 16 10 26  1 28 30.0000000  0 10G31G22G32G01G25G26G14G10G18G12
 -23718422.66348 -18453542.79047  20475096.7544   20475093.6334   20475096.274
        50.0004         47.0004
  -9212511.40547  -6917206.30446  23441760.9304   23441758.2834   23441762.738
        42.5004         39.7004
 -24117721.98448 -18777224.30147  20701095.0294   20701094.4634   20701094.696
        50.3004         47.3004
  -4115240.40346  -3189970.83746  24073736.2954   24073738.2014   24073736.509
        38.9004         36.6004
 -17853009.07347 -13901430.19747  21417964.2774   21417965.7084   21417964.874
        47.2004         44.0004
  -6742525.60146  -5240676.26146  24233006.9924   24233009.8714   24233005.747
        40.4004         37.9004
 -23598924.81148 -18378177.73547  20834451.7924   20834449.4604   20834451.876
        48.2004         45.2004
 -15754296.66447 -12255804.97847  22098727.6354   22098728.8334   22098727.813
        47.0004         43.9004
  -3799664.21445  -2227065.02345  24306943.4784   24306946.9024   24306950.046
        33.1004         32.4004
  -9697881.30746  -7126554.27746  23429345.6354   23429341.8164   23429345.776
        41.3004         38.5004
 16 10 26  1 29  0.0000000  0 10G31G22G32G01G25G26G14G10G18G12
 -23748115.88048 -18476680.33647  20469446.4134   20469443.3004   20469445.606
        50.0004         47.0004
  -9298109.36347  -6983906.01646  23425473.1584   23425467.4904   23425474.820
        42.5004         39.7004
 -24097018.00548 -18761091.33947  20705034.7134   20705034.4804   20705034.682
        50.3004         47.3004
  -4091451.39246  -3171433.92146  24078264.8684   24078265.7454   24078264.004
        39.6004         37.4004
 -17838140.22247 -13889844.06547  21420794.3304   21420795.2874   21420794.327
        47.2004         44.0004
  -6855492.18146  -5328702.09846  24211509.7434   24211511.4154   24211510.223
        40.4004         37.6004
 -23625036.56348 -18398524.55047  20829482.8314   20829480.6544   20829483.477
        48.2004         45.4004
 -15660622.57047 -12182812.19347  22116554.2494   22116554.3534   22116553.801
        46.9004         43.9004
  -3691364.63645  -2142675.80045  24327556.0094   24327553.5314   24327559.120
        33.7004         32.6004
  -9619400.18146  -7065400.14046  23444280.1744   23444276.4274   23444278.087
        41.3004         38.3004
 16 10 26  1 29 30.0000000  0 10G31G22G32G01G25G26G14G10G18G12
 -23777388.23748 -18499489.93947  20463875.8134   20463872.6014   20463875.821
        50.0004         46.8004
  -9383432.88147  -7050391.88846  23409236.4734   23409231.9724   23409237.485
        42.3004         39.7004
 -24076023.47348 -18744731.96547  20709029.6494   20709029.5354   20709029.450
        50.3004         47.3004
  -4067172.24746  -3152515.08346  24082884.5914   24082885.7264   24082884.904
        39.7004         37.3004
 -17822633.37547 -13877760.79247  21423745.3024   21423746.0594   21423745.610
        47.0004         44.2004
  -6968401.66646  -5416683.41946  24190024.6274   24190026.8954   24190023.918
        40.1004         37.6004
 -23650939.53948 -18418708.67647  20824553.5794   20824551.5814   20824554.311
        48.2004         45.2004
 -15566623.64647 -12109566.27547  22134440.8954   22134442.1384   22134440.891
        46.9004         43.7004
  -3582979.73245  -2058219.96045  24348184.8564   24348178.3124   24348177.167
        33.1004         32.2004
  -9540475.43846  -7003900.32846  23459298.7054   23459294.8434   23459299.320
        41.1004         38.3004
 16 10 26  1 30  0.0000000  0 10G31G22G32G01G25G26G14G10G18G12
 -23806240.13748 -18521971.92047  20458385.2364   20458382.3624   20458385.137
        49.8004         46.8004
  -9468479.24447  -7116661.77046  23393051.4874   23393049.3404   23393052.918
        42.3004         39.5004
 -24054737.97648 -18728145.87247  20713080.1594   20713080.0824   20713080.223
        50.3004         47.3004
  -4042404.61346  -3133215.60646  24087597.2064   24087597.9434   24087597.696
        39.7004         37.3004
 -17806489.14247 -13865180.86047  21426817.3074   21426817.6834   21426817.187
        47.0004         44.0004
  -7081251.43046  -5504618.20346  24168548.9644   24168551.3934   24168549.308
        40.1004         37.4004
 -23676632.85248 -18438729.43547  20819664.1334   20819662.3614   20819664.558
        48.2004         45.4004
 -15472302.23747 -12036069.08547  22152389.7084   22152390.6414   22152389.398
        46.9004         43.9004
  -3474511.89945  -1973699.56745  24368821.3064           .000    24368818.158
        32.6004         31.7004
  -9461109.43246  -6942056.66746  23474401.7014   23474397.7444   23474403.077
        41.1004         38.6004
 16 10 26  1 30 30.0000000  0 10G31G22G32G01G25G26G14G10G18G12
 -23834671.76848 -18544126.42047  20452974.7604   20452971.9964   20452974.588
        49.8004         47.0004
  -9553246.34647  -7182714.05046  23376922.1864   23376916.9174   23376922.911
        42.2004         39.7004
 -24033160.99448 -18711332.65047  20717186.3674   20717186.1144   20717185.972
        50.3004         47.3004
  -4017150.08346  -3113536.74846  24092403.3534   24092402.9004   24092403.762
        39.7004         37.4004
 -17789708.13447 -13852104.73247  21430010.7304   21430011.4714   21430011.516
        47.2004         44.0004
  -7194038.69046  -5592504.22046  24147085.0774   24147088.6344   24147085.764
        40.1004         37.3004
 -23702115.56448 -18458586.09447  20814814.9284   20814812.9494   20814815.238
        48.2004         45.2004
 -15377660.59347 -11962322.35347  22170399.5074   22170400.8054   22170399.186
        46.9004         43.9004
  -3365962.90445  -1889115.98545  24389480.3684           .000    24389479.861
        32.4004         31.3004
  -9381305.37446  -6879871.69046  23489587.7264   23489584.5614   23489585.793
        41.1004         38.6004
 16 10 26  1 31  0.0000000  0 10G31G22G32G01G25G26G14G10G18G12
 -23862683.80948 -18565953.96247  20447644.3154   20447641.6394   20447644.392
        50.0004         47.0004
  -9637731.60547  -7248546.72946  23360843.8764   23360840.7934   23360847.106
        42.5004         40.0004
 -24011292.11748 -18694291.96147  20721347.8264   20721347.3804   20721347.032
        50.3004         47.2004
  -3991410.38046  -3093479.83946  24097302.0054   24097301.5334   24097301.567
        39.7004         37.3004
 -17772291.01447 -13838532.93347  21433325.2384   21433325.3984   21433325.463
        47.0004         44.0004
  -7306760.75346  -5680339.48046  24125636.7554   24125638.9314   24125636.714
        40.4004         38.1004
 -23727387.08948 -18478278.19147  20810005.9264   20810004.0574   20810006.457
        48.2004         45.2004
 -15282701.12647 -11888327.96747  22188470.3064   22188470.8124   22188469.918
        46.7004         43.7004
  -3257334.80045  -1804470.65245  24410146.9174           .000    24410150.439
        32.1004         31.7004
  -9301066.27646  -6817347.71446  23504856.0294   23504852.8784   23504856.558
        41.1004         38.5004
 16 10 26  1 31 30.0000000  0 10G31G22G32G01G25G26G14G10G18G12
 -23890276.82648 -18587454.99847  20442393.9094   20442390.5034   20442393.828
        50.0004         47.0004
  -9721932.84947  -7314158.08846  23344821.2964   23344819.2434   23344822.873
        42.7004         39.5004
 -23989130.95948 -18677023.52447  20725564.5564   20725564.6964   20725563.964
        50.3004         47.2004
  -3965187.20146  -3073046.15046  24102291.5114   24102292.3674   24102292.267
        39.7004         37.1004
 -17754238.42947 -13824465.97447  21436759.8974   21436760.8784   21436759.795
        47.0004         44.0004
  -7419415.09446  -5768121.91646  24104198.0564   24104202.2504   24104199.210
        40.3004         37.6004
 -23752446.51248 -18497805.00047  20805237.3004   20805235.3564   20805237.957
        48.2004         45.2004
 -15187426.05847 -11814087.68647  22206599.5134   22206600.7104   22206600.018
        46.5004         43.3004
  -3148630.91845  -1719766.32145  24430832.4224           .000    24430836.546
        32.3004         31.7004
  -9220394.14046  -6754486.29746  23520207.2394   23520204.4534   23520208.756
        41.1004         38.3004
 16 10 26  1 32  0.0000000  0 10G31G22G32G01G25G26G14G10G18G12
 -23917451.15748 -18608629.78647  20437222.4994   20437219.4334   20437222.579
        50.0004         47.0004
  -9805847.73547  -7379546.32446  23328852.8504   23328849.3064   23328854.896
        42.5004         39.7004
 -23966677.05748 -18659526.96347  20729837.6444   20729837.3344   20729837.728
        50.3004         47.2004
  -3938482.22046  -3052237.05346  24107373.1124   24107375.6574   24107372.382
        39.9004         37.4004
 -17735551.10447 -13809904.40047  21440315.9404   21440317.1514   21440316.415
        47.0004         43.9004
  -7531998.88946  -5855849.50046  24082774.1614   24082774.9464   24082775.162
        39.9004         37.3004
 -23777292.81548 -18517165.74647  20800509.2304   20800507.2174   20800509.439
        48.2004         45.4004
 -15091837.76947 -11739603.30547  22224790.2154   22224790.6064   22224789.374
        46.5004         43.7004
  -3039852.17345  -1635003.73145  24451536.1774           .000    24451535.195
        32.1004         31.5004
  -9139292.15946  -6691289.95046  23535640.7774   23535637.7694   23535642.206
        40.9004         38.3004
 16 10 26  1 32 30.0000000  0 10G31G22G32G01G25G26G14G10G18G12
 -23944207.14148 -18629478.58347  20432130.7454   20432127.8954   20432130.062
        50.0004         47.0004
  -9889473.70847  -7444709.39746  23312939.4704   23312935.2804   23312940.326
        42.7004         39.7004
 -23943929.97348 -18641801.95947  20734166.5764   20734166.1814   20734167.028
        50.3004         47.2004
  -3911297.26246  -3031053.94546  24112548.0364   24112546.4604   24112547.256
        39.9004         37.6004
 -17716229.78547 -13794848.81447  21443993.5194   21443993.6424   21443993.620
        47.0004         43.9004
  -7644509.44646  -5943519.98746  24061364.5944   24061368.4404   24061364.890
        40.1004         37.6004
 -23801925.41748 -18536359.98747  20795822.0004   20795819.2854   20795823.011
        48.2004         45.4004
 -14995938.56447 -11664876.65147  22243039.0554   22243039.6614   22243039.066
        46.5004         43.7004
  -2931001.37645  -1550184.91745  24472248.7434   24472252.1434   24472246.478
        32.4004         31.9004
  -9057762.24146  -6627760.11246  23551154.6714   23551153.3114   23551155.569
        40.9004         38.5004
 16 10 26  1 33  0.0000000  0 10G31G22G32G01G25G26G14G10G18G12
 -23970545.52048 -18650001.98747  20427118.8034   20427116.0194   20427118.982
        50.0004         47.0004
  -9972808.55247  -7509645.66046  23297081.0824   23297078.0574   23297082.126
        42.5004         39.7004
 -23920889.33848 -18623848.21247  20738550.6324   20738550.4764   20738549.775
        50.3004         47.2004
  -3883633.97046  -3009498.15746  24117810.1744   24117811.1944   24117809.044
        39.7004         37.3004
 -17696275.22247 -13779299.78947  21447790.4974   21447790.8114   21447790.790
        47.0004         43.9004
  -7756944.07646  -6031131.28646  24039969.5384   24039971.1994   24039970.915
        39.9004         37.4004
 -23826343.34448 -18555386.94847  20791175.0904   20791172.7864   20791176.411
        48.2004         45.4004
 -14899730.80847 -11589909.58047  22261345.8894   22261347.7654   22261346.561
        46.5004         43.2004
  -2822080.72245  -1465311.62745          .000            .000    24492974.332
        31.6004         31.2004
  -8975807.33646  -6563899.15646  23566750.9604   23566748.9824   23566749.920
        40.8004         37.9004
 16 10 26  1 33 30.0000000  0 10G31G22G32G01G25G26G14G10G18G12
 -23996466.80448 -18670200.36947  20422186.2974   20422183.4974   20422185.933
        50.0004         47.0004
 -10055849.66247  -7574353.00746  23281280.3264   23281276.6864   23281281.593
        43.0004         40.6004
 -23897554.66648 -18605665.34247  20742991.2154   20742991.2304   20742990.977
        50.3004         47.2004
  -3855494.18346  -2987571.01646  24123164.7534   24123168.0804   24123163.932
        39.2004         36.6004
 -17675688.17647 -13763257.92147  21451707.8794   21451708.5994   21451708.361
        47.0004         43.9004
  -7869300.04846  -6118681.26646  24018586.9344   24018590.3784   24018584.223
        39.6004         36.7004
 -23850545.59448 -18574245.83647  20786569.7054   20786567.3354   20786570.600
        48.2004         45.4004
 -14803216.76847 -11514703.84247  22279712.8324   22279713.2384   22279711.866
        46.3004         43.2004
  -2713092.56045  -1380385.80645          .000            .000    24513710.994
        30.7004         30.7004
  -8893430.55846  -6499709.46446  23582427.2624   23582424.2754   23582426.711
        40.8004         38.1004
 16 10 26  1 34  0.0000000  0 11G03G31G22G32G01G25G26G14G10G18G12
   -249975.09044   -165764.90545          .000            .000    24705238.566
        26.4004         35.5004
 -24021971.25348 -18690073.95247  20417332.9264   20417330.0954   20417333.097
        50.0004         47.0004
 -10138594.78647  -7638829.73946  23265534.1134   23265529.5534   23265535.002
        42.9004         39.7004
 -23873925.56848 -18587253.06047  20747487.7354   20747487.5104   20747487.613
        50.3004         47.2004
  -3826879.68046  -2965273.97946  24128610.8414   24128611.5154   24128609.362
        39.2004         36.9004
 -17654469.48447 -13746723.86347  21455745.0864   21455746.2004   21455746.004
        46.9004         44.0004
  -7981574.86046  -6206168.03146  23997221.9594   23997223.6524   23997220.341
        39.2004         36.9004
 -23874531.39548 -18592936.05347  20782005.6974   20782003.2424   20782006.384
        48.4004         45.4004
 -14706398.92147 -11439261.34347  22298135.7794   22298137.1384   22298135.989
        46.2004         43.2004
  -2604038.81944  -1295409.00745          .000            .000    24534465.774
        29.5004         30.5004
  -8810634.56846  -6435193.12346  23598182.8304   23598179.1074   23598183.135
        40.8004         38.3004
 16 10 26  1 34 30.0000000  0 11G03G31G22G32G01G25G26G14G10G18G12
   -351881.23546   -245172.24146  24685846.0474   24685848.3864   24685846.153
        37.0004         36.0004
 -24047059.63948 -18709623.32947  20412559.0524   20412555.6984   20412558.963
        50.0004         47.0004
 -10221041.75747  -7703074.13546  23249843.6784   23249841.2944   23249847.000
        43.0004         40.4004
 -23850001.67048 -18568611.08047  20752040.2124   20752039.9654   20752040.217
        50.3004         47.2004
  -3797792.26946  -2942608.43146  24134145.2974   24134147.2264   24134145.145
        39.7004         37.4004
 -17632620.00147 -13729698.28447  21459903.7184   21459903.8324   21459904.045
        46.9004         43.9004
  -8093765.68146  -6293589.40446  23975873.1394   23975875.7184   23975874.270
        40.1004         38.1004
 -23898300.09448 -18611457.12847  20777482.4474   20777480.0814   20777483.088
        48.4004         45.4004
 -14609279.59847 -11363583.95347  22316617.2084   22316617.9094   22316617.596
        46.2004         42.8004
  -2494921.85154     75077.05354          .000            .000    24555238.024
        26.4004         25.6004
  -8727421.98646  -6370352.11746  23614017.3824   23614014.8404   23614018.722
        40.8004         38.1004
 16 10 26  1 35  0.0000000  0 11G03G31G22G32G01G25G26G14G10G18G12
   -453616.32046   -324446.36946  24666487.9784   24666487.6444   24666486.438
        38.2004         36.0004
 -24071732.39348 -18728848.84247  20407863.6324   20407860.6954   20407863.336
        50.0004         47.0004
 -10303188.02047  -7767084.20846  23234212.2904   23234208.5504   23234214.182
        43.0004         40.0004
 -23825782.44948 -18549738.95147  20756648.9144   20756648.6744   20756648.167
        50.2004         47.2004
  -3768233.78946  -2919575.81646  24139771.2534   24139771.9334   24139771.316
        39.7004         37.3004
 -17610140.55847 -13712181.82347  21464181.1354   21464181.6894   21464180.870
        46.9004         43.9004
  -8205869.75846  -6380943.10146  23954540.3004   23954543.3094   23954540.524
        40.9004         38.6004
 -23921850.54148 -18629808.12747  20773001.1184   20772998.5754   20773001.735
        48.4004         45.4004
 -14511861.13747 -11287673.45647  22335155.9004   22335156.8684   22335155.737
        46.0004         43.0004
  -2385744.01354    160003.04054          .000            .000    24576010.137
        26.4004         29.8004
  -8643795.51546  -6305188.61946  23629930.2954   23629927.9284   23629931.686
        40.6004         37.6004
 16 10 26  1 35 30.0000000  0 10G03G31G22G32G01G25G26G14G10G12
   -555177.84846   -403585.23545  24647160.8154   24647160.3714   24647161.620
        37.8004         35.5004
 -24095990.28548 -18747751.08647  20403248.1614   20403244.6284   20403247.606
        50.2004         47.2004
 -10385031.47847  -7830858.31746  23218638.4584   23218635.4124   23218638.722
        43.0004         40.2004
 -23801267.57848 -18530636.45447  20761314.3524   20761313.9034   20761313.987
        50.3004         47.3004
  -3738206.07546  -2896177.59546  24145482.7054   24145485.1594   24145482.714
        39.4004         36.7004
 -17587032.09947 -13694175.22947  21468578.2084   21468579.3724   21468578.623
        46.9004         43.9004
  -8317884.49546  -6468227.27346  23933224.9534   23933227.4034   23933225.153
        41.3004         38.6004
 -23945182.15248 -18647988.59447  20768561.4224   20768558.7734   20768561.383
        48.4004         45.6004
 -14414145.95647 -11211531.77147  22353750.1544   22353750.8204   22353750.190
        46.0004         43.2004
  -8559758.20746  -6239704.99746  23645922.1564   23645920.4914   23645920.715
        40.3004         37.6004
 16 10 26  1 36  0.0000000  0 10G03G31G22G32G01G25G26G14G10G12
   -656563.28046   -482586.87646  24627869.0734   24627867.3704   24627868.185
        38.0004         36.0004
 -24119833.57248 -18766330.26647  20398710.5724   20398707.2454   20398710.834
        50.2004         47.2004
 -10466569.05947  -7894394.10446  23203122.8424   23203118.9784   23203122.917
        43.0004         40.2004
 -23776456.59448 -18511303.23047  20766035.8704   20766035.6854   20766035.828
        50.3004         47.3004
  -3707710.97646  -2872415.17646  24151286.3824   24151288.1474   24151287.158
        39.2004         36.7004
 -17563295.51947 -13675679.17647  21473095.0594   21473096.3314   21473096.586
        46.9004         43.9004
  -8429807.14646  -6555439.70846  23911927.1714   23911928.3044   23911925.376
        41.3004         38.6004
 -23968293.75848 -18665997.63647  20764163.2834   20764160.7344   20764164.528
        48.4004         45.6004
 -14316136.47047 -11135160.78147  22372400.9234   22372402.1594   22372401.090
        46.0004         43.2004
  -8475312.59646  -6173903.24146  23661991.7014   23661989.4094   23661991.949
        40.4004         37.9004
 16 10 26  1 36 30.0000000  0 10G03G31G22G32G01G25G26G14G10G12
   -757770.02946   -561449.29146  24608609.4634   24608609.8574   24608608.185
        38.3004         36.2004
 -24143262.85648 -18784586.84247  20394252.0874   20394248.9314   20394251.796
        50.2004         47.2004
 -10547799.04447  -7957690.21446  23187664.0684   23187661.4834   23187666.015
        43.0004         40.4004
 -23751349.13448 -18491738.97347  20770813.5634   20770813.1514   20770813.265
        50.3004         47.3004
  -3676750.45046  -2848290.05946  24157178.7444   24157179.9364   24157177.706
        39.4004         37.1004
 -17538931.75847 -13656694.42047  21477731.6734   21477732.3684   21477732.203
        46.9004         43.9004
  -8541634.98846  -6642578.30446  23890646.1434   23890647.8514   23890644.928
        40.9004         37.8004
 -23991184.78048 -18683834.79247  20759806.9034   20759804.8294   20759807.202
        48.4004         45.6004
 -14217834.99847 -11058562.25947  22391107.4354   22391108.1114   22391107.651
        46.2004         43.2004
  -8390461.20746  -6107785.26146  23678137.2024   23678137.3754   23678138.596
        40.8004         38.1004
 16 10 26  1 37  0.0000000  0 10G03G31G22G32G01G25G26G14G10G12
   -858795.59746   -640170.48446  24589385.3494   24589384.2674   24589384.986
        38.5004         36.0004
 -24166278.66148 -18802521.23147  20389872.2084   20389869.0244   20389871.971
        50.2004         47.2004
 -10628718.76447  -8020744.53046  23172265.5284   23172263.9244   23172267.577
        43.2004         40.4004
 -23725944.78648 -18471943.39347  20775648.0824   20775647.0154   20775648.178
        50.3004         47.2004
  -3645326.32246  -2823803.72446  24163158.3414   24163160.5394   24163158.087
        39.6004         37.1004
 -17513941.80247 -13637221.71747  21482487.0284   21482487.9324   21482486.319
        46.9004         43.9004
  -8653365.29546  -6729640.84446  23869385.1304   23869387.4214   23869384.702
        40.6004         37.9004
 -24013853.91248 -18701499.05347  20755493.1604   20755490.9074   20755493.361
        48.6004         45.6004
 -14119243.94947 -10981738.07547  22409868.2304   22409868.5904   22409868.338
        46.0004         42.8004
  -8305206.83646  -6041353.28846  23694361.3094   23694359.1254   23694360.428
        40.6004         37.4004
 16 10 26  1 37 30.0000000  0 10G03G31G22G32G01G25G26G14G10G12
   -959637.35646   -718748.48845  24570195.7384   24570193.8394   24570196.415
        38.2004         35.9004
 -24188881.73348 -18820134.00347  20385571.1294   20385567.7634   20385571.232
        50.2004         47.2004
 -10709325.94647  -8083555.34946  23156926.7554   23156923.9424   23156928.160
        43.2004         40.4004
 -23700243.10248 -18451916.11247  20780538.7534   20780538.0784   20780538.792
        50.3004         47.2004
  -3613440.53146  -2798957.64546  24169226.3974   24169228.5014   24169226.660
        39.7004         37.3004
 -17488326.67147 -13617261.86047  21487361.3394   21487362.2254   21487361.894
        46.9004         43.9004
  -8764995.36046  -6816625.30346  23848142.0374   23848144.4994   23848140.807
        40.4004         37.8004
 -24036300.43048 -18718989.83747  20751221.4394   20751219.6384   20751221.989
        48.4004         45.6004
 -14020365.71947 -10904690.10147  22428684.5174   22428685.4154   22428683.755
        45.8004         42.6004
  -8219552.16446  -5974609.38546  23710660.7084   23710658.0514   23710661.424
        39.9004         37.1004
 16 10 26  1 38  0.0000000  0 10G03G31G22G32G01G25G26G14G10G12
  -1060292.80046   -797181.33045  24551041.0644   24551040.8754   24551038.807
        38.0004         35.5004
 -24211072.60748 -18837425.57947  20381348.1714   20381345.2724   20381348.227
        50.2004         47.2004
 -10789618.50847  -8146120.97346  23141647.7264   23141645.3384   23141648.510
        43.2004         40.4004
 -23674243.70848 -18431656.84447  20785485.7194   20785485.4154   20785485.281
        50.2004         47.0004
  -3581095.06746  -2773753.35546  24175380.5654   24175383.1344   24175380.657
        39.6004         37.1004
 -17462087.38847 -13596815.65447  21492355.2184   21492355.3474   21492356.432
        46.9004         44.0004
  -8876522.45746  -6903529.48646  23826919.2894   23826921.2564   23826920.391
        40.6004         37.9004
 -24058523.56148 -18736306.55147  20746992.4404   20746990.7504   20746992.679
        48.4004         45.6004
 -13921202.77647 -10827420.29347  22447553.7734   22447554.4784   22447553.770
        45.5004         42.5004
  -8133500.40746  -5907556.06946  23727035.6324   23727033.5344   23727037.150
        39.6004         36.9004
 16 10 26  1 38 30.0000000  0 10G03G31G22G32G01G25G26G14G10G12
  -1160759.35446   -875466.90745  24531921.7944   24531923.5344   24531920.366
        38.0004         35.7004
 -24232852.15448 -18854396.64547  20377203.3934   20377200.8084   20377203.379
        50.2004         47.2004
 -10869593.66747  -8208439.27146  23126429.3424   23126424.6984   23126430.282
        43.4004         40.4004
 -23647946.21548 -18411165.29247  20790490.0544   20790489.8554   20790489.900
        50.2004         47.0004
  -3548291.84646  -2748192.39546  24181623.5094   24181623.5234   24181623.070
        39.4004         36.9004
 -17435224.96047 -13575883.88447  21497466.2814   21497467.0124   21497466.393
        46.9004         43.9004
  -8987943.90846  -6990351.34946  23805716.1064   23805718.5394   23805715.993
        40.6004         38.1004
 -24080522.49848 -18753448.57047  20742805.8874   20742804.6294   20742806.353
        48.4004         45.6004
 -13821757.52647 -10749930.52747  22466478.9504   22466479.6794   22466479.284
        45.6004         42.8004
  -8047054.44546  -5840195.57046  23743487.9954   23743483.4754   23743486.026
        39.9004         37.8004
 16 10 26  1 39  0.0000000  0 10G03G31G22G32G01G25G26G14G10G12
  -1261034.38246   -953603.23345  24512840.8094   24512842.4964   24512840.503
        38.0004         35.7004
 -24254220.81648 -18871047.53647  20373136.8284   20373134.4294   20373136.679
        50.2004         47.3004
 -10949249.44347  -8270508.73646  23111271.4764   23111267.4174   23111273.208
        43.2004         40.4004
 -23621350.22048 -18390441.14947  20795550.8874   20795550.5634   20795550.680
        50.2004         47.0004
  -3515032.82546  -2722276.28546  24187952.6374   24187954.4504   24187952.183
        39.6004         37.1004
 -17407740.52547 -13554467.42747  21502696.5204   21502697.4474   21502696.560
        46.9004         43.9004
  -9099256.90646  -7077088.73146  23784533.6984   23784536.7234   23784534.377
        40.9004         38.6004
 -24102296.31848 -18770415.17847  20738662.8824   20738661.1814   20738663.656
        48.4004         45.6004
 -13722032.42047 -10672222.74047  22485455.3654   22485455.8094   22485455.225
        45.6004         42.8004
  -7960216.56746  -5772529.67146  23760011.3394   23760008.2784   23760012.081
        40.3004         37.8004
 16 10 26  1 39 30.0000000  0 10G03G31G22G32G01G25G26G14G10G12
  -1361115.37146  -1031588.46045  24493795.7264   24493795.8014   24493795.079
        37.3004         35.0004
 -24275179.16648 -18887378.70447  20369148.6084   20369146.2744   20369148.500
        50.2004         47.2004
 -11028583.38947  -8332327.37946  23096173.3954   23096170.3474   23096174.128
        43.2004         40.6004
 -23594455.30548 -18369484.07147  20800668.6324   20800668.9474   20800668.131
        50.0004         47.0004
  -3481320.04046  -2696006.56346  24194367.3544   24194368.4754   24194367.768
        39.4004         36.7004
 -17379635.18647 -13532567.15847  21508044.8784   21508045.3084   21508045.114
        46.9004         43.9004
  -9210458.79146  -7163739.53746  23763373.8404   23763375.2134   23763375.210
        41.5004         39.0004
 -24123844.03848 -18787205.60047  20734562.1504   20734560.6764   20734562.354
        48.4004         45.6004
 -13622029.79647 -10594298.65247  22504484.4854   22504486.3524   22504485.191
        45.5004         42.5004
  -7872989.79246  -5704560.75046  23776609.9434   23776606.6944   23776609.287
        40.3004         37.4004
 16 10 26  1 40  0.0000000  0 10G03G31G22G32G01G25G26G14G10G12
  -1460999.75846  -1109420.42945  24474787.8524   24474788.5284   24474788.102
        37.8004         35.9004
 -24295728.09948 -18903390.85247  20365238.4564   20365235.7334   20365238.911
        50.2004         47.2004
 -11107592.99547  -8393893.33546  23081139.1134   23081135.9734   23081141.009
        43.6004         40.6004
 -23567261.13748 -18348293.81847  20805843.8064   20805843.8674   20805843.560
        50.2004         47.0004
  -3447155.46346  -2669384.79246  24200868.8714   24200870.9014   24200869.313
        39.4004         37.1004
 -17350910.07847 -13510183.95347  21513511.2424   21513512.0344   21513511.461
        46.9004         44.0004
  -9321546.83646  -7250301.61946  23742233.2684   23742237.4324   23742233.451
        41.6004         39.2004
 -24145164.55148 -18803818.98147  20730505.1464   20730503.7164   20730505.793
        48.4004         45.6004
 -13521752.13047 -10516160.26147  22523566.9224   22523568.2124   22523566.701
        45.5004         42.5004
  -7785377.31046  -5636291.29846  23793282.1754   23793280.0594   23793283.979
        40.1004         37.4004
 16 10 26  1 40 30.0000000  0 10G03G31G22G32G01G25G26G14G10G12
  -1560684.87546  -1187097.12745  24455819.9164   24455817.2664   24455819.838
        38.2004         35.7004
 -24315868.15648 -18919084.39547  20361406.2044   20361403.3064   20361406.379
        50.2004         47.2004
 -11186276.21247  -8455204.90746  23066167.2094   23066163.6424   23066167.523
        43.6004         40.7004
 -23539767.26848 -18326870.03447  20811075.6984   20811075.7984   20811075.204
        50.2004         47.0004
  -3412541.13446  -2642412.58246  24207456.7154   24207456.4934   24207456.026
        39.6004         37.3004
 -17321566.32647 -13487318.68047  21519094.9144   21519096.1974   21519095.733
        47.0004         44.0004
  -9432518.35146  -7336772.87746  23721116.5234   23721119.2824   23721117.070
        41.8004         38.8004
 -24166257.55048 -18820255.08347  20726491.2504   20726489.7484   20726491.793
        48.4004         45.4004
 -13421201.85047 -10437809.44447  22542701.2264   22542702.0144   22542701.940
        45.3004         42.3004
  -7697381.10246  -5567722.84346  23810028.5954   23810023.8434   23810025.678
        39.9004         37.3004
 16 10 26  1 41  0.0000000  0 10G03G31G22G32G01G25G26G14G10G12
  -1660168.27246  -1264616.62845  24436888.6364   24436887.1374   24436888.993
        37.6004         35.3004
 -24335599.72548 -18934459.63747  20357651.1534   20357648.1204   20357650.903
        50.2004         47.2004
 -11264630.50147  -8516260.20746  23051255.8854   23051251.3634   23051257.706
        43.4004         40.4004
 -23511973.38648 -18305212.45847  20816364.7464   20816364.9554   20816364.431
        50.2004         47.0004
  -3377479.10146  -2615091.52346  24214128.1794   24214130.0404   24214127.261
        39.6004         37.1004
 -17291605.14147 -13463972.28547  21524796.3344   21524797.0324   21524796.317
        47.0004         44.0004
  -9543370.57546  -7423151.19346  23700022.4914   23700025.5484   23700022.440
        41.1004         38.5004
 -24187121.57048 -18836512.75347  20722521.0014   20722519.4774   20722521.213
        48.4004         45.6004
 -13320381.33747 -10359248.03847  22561887.1474   22561887.2804   22561886.329
        45.3004         42.6004
  -7609004.69146  -5498858.08446  23826845.3594   23826843.3584   23826845.691
        39.9004         37.4004
 16 10 26  1 41 30.0000000  0 10G03G31G22G32G01G25G26G14G10G12
  -1759447.17946  -1341976.88445  24417997.3004   24417994.8014   24417997.517
        38.0004         35.9004
 -24354923.77448 -18949517.32847  20353974.2604   20353970.9124   20353974.067
        50.2004         47.2004
 -11342653.57847  -8577057.42146  23036409.5304   23036405.3424   23036411.117
        43.6004         40.9004
 -23483879.05148 -18283320.77647  20821711.3214   20821710.7794   20821711.282
        50.2004         47.0004
  -3341971.43246  -2587423.17446  24220884.7124   24220886.6794   24220885.107
        39.6004         37.1004
 -17261027.76047 -13440145.74247  21530615.0234   21530615.7764   21530615.409
        46.9004         43.9004
  -9654100.83046  -7509434.48246  23678952.2504   23678952.4374   23678951.416
        40.8004         37.9004
 -24207755.72848 -18852591.31047  20718594.5584   20718592.7154   20718595.302
        48.4004         45.4004
 -13219293.15147 -10280478.04447  22581124.0954   22581125.3364   22581124.085
        45.6004         42.8004
  -7520250.89846  -5429699.27246  23843732.6344   23843731.4724   23843731.411
        39.9004         37.3004
 16 10 26  1 42  0.0000000  0 10G03G31G22G32G01G25G26G14G10G12
  -1858519.13046  -1419175.80246  24399143.6084   24399142.7944   24399142.538
        38.2004         36.0004
 -24373840.87048 -18964257.91547  20350374.5764   20350371.1524   20350374.293
        50.2004         47.3004
 -11420343.20647  -8637594.77046  23021623.2124   23021621.4734   23021625.752
        43.4004         40.4004
 -23455483.91348 -18261194.68647  20827114.3134   20827114.1914   20827114.290
        50.2004         47.0004
  -3306020.18746  -2559409.21446  24227723.8474   24227728.1464   24227723.896
        39.0004         36.6004
 -17229835.33847 -13415839.95647  21536550.3644   21536551.4514   21536550.778
        46.9004         43.9004
  -9764706.35846  -7595620.60246  23657903.6994   23657904.8624   23657904.367
        41.1004         38.8004
 -24228159.18348 -18868490.10647  20714711.7194   20714710.1324   20714712.106
        48.4004         45.4004
 -13117939.73447 -10201501.37047  22600410.8334   22600411.7554   22600411.138
        45.5004         42.6004
  -7431121.79946  -5360248.00646  23860694.5124   23860692.4164   23860694.443
        39.9004         37.1004
 16 10 26  1 42 30.0000000  0 10G03G31G22G32G01G25G26G14G10G12
  -1957381.48846  -1496211.39046  24380331.1594   24380330.0914   24380331.718
        38.2004         36.0004
 -24392351.97648 -18978682.14747  20346851.9934   20346848.5524   20346851.778
        50.3004         47.3004
 -11497696.83847  -8697870.34746  23006906.1534   23006900.7884   23006906.280
        43.6004         40.9004
 -23426787.59548 -18238833.92247  20832575.1014   20832574.7464   20832574.887
        50.2004         47.0004
  -3269627.45446  -2531051.26046  24234651.0354   24234652.2784   24234651.880
        39.0004         36.7004
 -17198029.19147 -13391055.93847  21542603.2104   21542603.8224   21542603.754
        46.9004         43.7004
  -9875184.41247  -7681707.34046  23636879.8194   23636882.7544   23636880.540
        42.0004         39.7004
 -24248331.16348 -18884208.51447  20710873.3304   20710871.0844   20710873.337
        48.4004         45.4004
 -13016323.54647 -10122319.95047  22619747.3904   22619748.0034   22619747.574
        45.3004         42.1004
  -7341620.75046  -5290506.95346  23877726.2694   23877723.1964   23877725.570
        39.7004         37.1004
 16 10 26  1 43  0.0000000  0 10G03G31G22G32G01G25G26G14G10G12
  -2056031.65246  -1573081.64545  24361558.9364   24361558.1094   24361558.802
        38.3004         35.9004
 -24410457.54248 -18992790.36947  20343406.2734   20343403.5304   20343406.121
        50.3004         47.3004
 -11574712.42747  -8757882.50746  22992249.1144   22992245.7344   22992250.025
        43.6004         40.4004
 -23397789.74148 -18216238.19347  20838093.5264   20838092.9304   20838092.811
        50.2004         47.0004
  -3232795.35546  -2502350.93146  24241659.5084   24241661.8754   24241657.595
        39.0004         36.6004
 -17165610.62447 -13365794.71347  21548772.7054   21548772.7914   21548772.891
        46.9004         43.9004
  -9985532.31147  -7767692.70346  23615881.8394   23615884.3154   23615882.542
        42.0004         39.2004
 -24268270.62948 -18899745.74547  20707079.1714   20707076.5174   20707079.631
        48.4004         45.4004
 -12914447.04947 -10042935.70447  22639134.0954   22639134.5244   22639134.260
        45.1004         42.1004
  -7251750.84046  -5220478.45546  23894827.5254   23894825.0314   23894827.714
        39.7004         37.1004
 16 10 26  1 43 30.0000000  0 11G03G31G22G32G01G25G29G26G14G10G12
  -2154467.05446  -1649784.54145  24342827.0864   24342826.7034   24342828.092
        38.3004         35.9004
 -24428158.39548 -19006583.23847  20340038.0704   20340035.0734   20340037.822
        50.3004         47.3004
 -11651387.47547  -8817629.27546  22977659.1404   22977655.8044   22977660.147
        43.6004         40.9004
 -23368489.96248 -18193407.19447  20843669.2624   20843668.8224   20843669.179
        50.2004         47.0004
  -3195526.06046  -2473309.87446  24248750.4904   24248753.2084   24248752.902
        39.0004         36.4004
 -17132580.90747 -13340057.25647  21555058.5464   21555058.7074   21555059.024
        46.9004         43.9004
    -31301.84844      -591.310            .000            .000        -140.989
        26.4004           .000
 -10095747.32446  -7853574.48146  23594909.0884   23594910.4694   23594908.204
        41.8004         39.2004
 -24287976.72748 -18915101.13847  20703329.3914   20703326.3604   20703330.137
        48.4004         45.4004
 -12812312.74547  -9963350.57846  22658569.2444   22658569.9704   22658569.181
        44.9004         41.9004
  -7161514.78046  -5150164.64646  23911998.4434   23911996.8734   23911999.686
        39.7004         37.4004
 16 10 26  1 44  0.0000000  0 11G03G31G22G32G01G25G29G26G14G10G12
  -2252685.06546  -1726318.07646  24324137.6214   24324136.6994   24324136.604
        38.3004         36.2004
 -24445455.33948 -19020061.36947  20336746.6164   20336743.3994   20336747.109
        50.3004         47.3004
 -11727719.61247  -8877108.85946  22963133.7434   22963129.4584   22963134.033
        43.9004         40.9004
 -23338887.92748 -18170340.67547  20849302.4164   20849301.8324   20849302.266
        50.2004         47.0004
  -3157821.59546  -2443929.78346  24255926.4044   24255928.1774   24255926.950
        39.2004         36.9004
 -17098941.39247 -13313844.64447  21561459.4604   21561460.0524   21561459.348
        46.9004         43.7004
   -105585.97944    -55083.641 1          .000    25387324.736        -140.989
        26.4004         11.900
 -10205826.72646  -7939350.58146  23573960.3684   23573963.2374   23573959.560
        41.6004         38.8004
 -24307448.36548 -18930273.84347  20699623.9154   20699621.2734   20699625.099
        48.4004         45.4004
 -12709923.13847  -9883566.54947  22678052.6664   22678054.8564   22678053.563
        45.1004         42.1004
  -7070915.68946  -5079567.93746  23929240.7264   23929236.2614   23929239.519
        40.1004         37.4004
 16 10 26  1 44 30.0000000  0 11G03G31G22G32G01G25G29G26G14G10G12
  -2350683.08146  -1802680.12646  24305488.9714   24305487.6744   24305487.690
        38.7004         36.7004
 -24462348.91248 -19033225.18247  20333531.6384   20333528.5064   20333531.462
        50.3004         47.3004
 -11803706.69547  -8936319.59846  22948673.0264   22948668.6054   22948674.876
        43.7004         40.4004
 -23308983.24348 -18147038.33347  20854992.6264   20854992.4814   20854992.471
        50.2004         47.0004
  -3119684.20846  -2414212.34246  24263184.6664   24263185.9314   24263184.709
        39.2004         36.7004
 -17064693.45047 -13287157.93047  21567976.0034   21567977.0474   21567976.063
        46.9004         43.7004
   -179811.27844    -83046.837 1          .000    25380509.381        -140.989
        26.4004         10.900
 -10315767.77746  -8025018.89846  23553039.7404   23553041.7844   23553038.965
        41.6004         38.6004
 -24326684.51648 -18945263.05747  20695962.9294   20695960.9464   20695963.760
        48.4004         45.4004
 -12607280.59847  -9803585.37947  22697586.0034   22697586.9584   22697586.767
        45.1004         42.1004
  -6979955.50146  -5008689.86446  23946548.5924   23946545.0594   23946547.293
        40.1004         37.4004
 16 10 26  1 45  0.0000000  0 10G03G31G22G32G01G25G26G14G10G12
  -2448458.43246  -1878868.71346  24286882.1694   24286881.4584   24286881.588
        39.4004         36.9004
 -24478840.12048 -19046075.47047  20330393.7214   20330390.3934   20330393.487
        50.3004         47.3004
 -11879346.19347  -8995259.47246  22934280.4304   22934274.7174   22934281.494
        43.6004         40.6004
 -23278775.58048 -18123499.90147  20860740.9124   20860740.8164   20860740.466
        50.2004         47.0004
  -3081116.13646  -2384159.25646  24270525.2414   24270525.2674   24270524.116
        39.4004         37.3004
 -17029838.43847 -13259998.18247  21574609.3564   21574609.6244   21574609.679
        46.9004         43.7004
 -10425567.76046  -8110577.28646  23532146.2024   23532146.9714   23532146.260
        41.6004         39.0004
 -24345684.54248 -18960068.26947  20692347.8624   20692345.4504   20692348.611
        48.4004         45.4004
 -12504387.68547  -9723409.15247  22717165.0784   22717167.6824   22717165.543
        44.9004         42.1004
  -6888637.59846  -4937533.06846  23963926.9304   23963923.7964   23963927.665
        39.9004         37.4004
 16 10 26  1 45 30.0000000  0 10G03G31G22G32G01G25G26G14G10G12
  -2546008.63746  -1954881.86145  24268316.4624   24268315.6254   24268318.536
        38.3004         35.5004
 -24494929.46348 -19058612.61347  20327332.2594   20327328.7904   20327331.935
        50.3004         47.3004
 -11954636.16247  -9053926.97246  22919952.4724   22919947.9534   22919952.585
        43.7004         40.7004
 -23248264.57148 -18099725.09547  20866546.9714   20866546.6304   20866546.993
        50.0004         47.0004
  -3042119.39346  -2353772.22246  24277944.6604   24277944.6444   24277944.850
        39.2004         36.6004
 -16994377.79047 -13232366.49447  21581356.6824   21581357.2294   21581357.237
        46.7004         43.7004
 -10535223.90046  -8196023.59246  23511278.2524   23511281.4794   23511278.958
        41.6004         39.0004
 -24364447.33548 -18974688.62447  20688777.1114   20688774.7284   20688777.263
        48.4004         45.4004
 -12401246.83947  -9643039.71146  22736792.7624   22736793.7894   22736790.770
        44.6004         41.6004
  -6796965.00846  -4866099.86246  23981370.2624   23981367.5994   23981370.785
        39.7004         37.1004
 16 10 26  1 46  0.0000000  0 10G03G31G22G32G01G25G26G14G10G12
  -2643330.95546  -2030717.43346  24249801.1044   24249799.4864   24249801.775
        39.4004         37.8004
 -24510617.91748 -19070837.38147  20324346.5304   20324343.1594   20324346.945
        50.3004         47.3004
 -12029574.00247  -9112320.07446  22905692.9274   22905688.1404   22905694.728
        43.9004         41.1004
 -23217449.89848 -18075713.67747  20872410.5594   20872410.4164   20872410.380
        50.0004         46.6004
  -3002696.31146  -2323052.90846  24285448.1844   24285448.5604   24285447.796
        39.2004         36.9004
 -16958312.92247 -13204263.99547  21588220.4024   21588220.0964   21588220.683
        46.7004         43.7004
 -10644733.50846  -8281355.73846  23490439.2644   23490441.2494   23490439.984
        41.6004         38.8004
 -24382972.04348 -18989123.44047  20685251.8434   20685249.8304   20685251.668
        48.4004         45.4004
 -12297860.61547  -9562479.05546  22756465.6234   22756468.0634   22756466.197
        44.6004         41.8004
  -6704940.73446  -4794392.66946  23998882.1304   23998878.8724   23998882.849
        39.6004         36.9004
 16 10 26  1 46 30.0000000  0 10G03G31G22G32G01G25G26G14G10G12
  -2740422.80246  -2106373.38746  24231322.9694   24231324.9054   24231323.292
        39.9004         37.1004
 -24525905.84948 -19082750.04447  20321436.8684   20321433.9684   20321436.742
        50.3004         47.2004
 -12104157.42047  -9170437.04446  22891500.0534   22891495.0294   22891501.297
        44.1004         41.1004
 -23186331.18548 -18051465.34247  20878332.6284   20878331.9784   20878331.956
        50.0004         46.8004
  -2962849.08446  -2292003.12646  24293029.2914   24293030.6204   24293028.978
        38.9004         36.6004
 -16921645.28547 -13175691.80247  21595197.5394   21595198.4704   21595197.461
        46.5004         43.5004
 -10754093.85646  -8366571.56246  23469628.4804   23469631.0154   23469629.429
        41.8004         39.2004
 -24401257.81148 -19003372.08847  20681772.0774   20681770.3624   20681772.349
        48.4004         45.4004
 -12194231.48947  -9481729.13946  22776187.0684   22776188.4634   22776186.632
        44.8004         41.8004
  -6612567.27446  -4722413.34246  24016462.0564   24016457.2024   24016462.167
        39.6004         37.3004
 16 10 26  1 47  0.0000000  0 10G03G31G22G32G01G25G26G14G10G12
  -2837281.66846  -2181847.80445  24212891.0214   24212889.4014   24212889.719
        38.2004         35.2004
 -24540794.39048 -19094351.50147  20318603.9574   20318600.7554   20318604.013
        50.2004         47.3004
 -12178384.57547  -9228276.38646  22877374.5854   22877370.2954   22877375.095
        43.9004         40.9004
 -23154908.09248 -18026979.81847  20884312.5974   20884311.7704   20884312.189
        50.0004         46.8004
  -2922579.99846  -2260624.58446  24300691.9904   24300694.2164   24300692.634
        38.9004         36.6004
 -16884376.38047 -13146651.09047  21602289.2244   21602289.8624   21602290.598
        46.5004         43.5004
 -10863302.21246  -8451668.94046  23448847.5074   23448850.1124   23448847.818
        41.6004         39.0004
 -24419303.44048 -19017433.60747  20678338.6004   20678336.4084   20678338.996
        48.4004         45.6004
 -12090362.00947  -9400791.93646  22795952.7174   22795953.5864   22795951.980
        44.8004         41.8004
  -6519847.82446  -4650164.42246  24034105.1274   24034101.1864   24034106.527
        39.7004         37.3004
 16 10 26  1 47 30.0000000  0 10G03G31G22G32G01G25G26G14G10G12
  -2933904.73746  -2257138.55846  24194504.7164   24194504.9564   24194504.633
        38.7004         36.9004
 -24555284.63048 -19105642.58647  20315846.3984   20315843.4694   20315846.477
        50.3004         47.3004
 -12252252.91547  -9285836.12846  22863318.5264   22863313.8004   22863320.187
        44.1004         41.2004
 -23123180.28548 -18002256.86247  20890349.9794   20890349.3364   20890349.215
        50.0004         46.8004
  -2881891.20346  -2228919.05846  24308436.0654   24308437.6494   24308434.529
        38.9004         36.6004
 -16846507.69347 -13117143.01547  21609495.9354   21609496.9554   21609496.109
        46.7004         43.5004
 -10972355.92446  -8536645.78646  23428094.6114   23428097.6434   23428094.677
        41.8004         39.3004
 -24437108.12348 -19031307.38747  20674950.4204   20674948.2084   20674951.198
        48.4004         45.4004
 -11986254.65947  -9319669.40346  22815762.6134   22815763.5114   22815762.645
        44.4004         41.4004
  -6426785.00746  -4577647.91946  24051813.2584   24051809.8544   24051813.658
        39.6004         37.1004
 16 10 26  1 48  0.0000000  0 10G03G31G22G32G01G25G26G14G10G12
  -3030289.54146  -2332243.53546  24176162.2314   24176162.6924   24176161.707
        38.9004         36.2004
 -24569377.02048 -19116623.66247  20313164.8914   20313161.7004   20313164.366
        50.3004         47.3004
 -12325760.02847  -9343114.39246  22849330.2694   22849326.1014   22849331.138
        44.2004         41.1004
 -23091147.45148 -17977296.21647  20896445.6864   20896445.1904   20896445.110
        50.0004         47.0004
  -2840785.04946  -2196888.28846  24316259.2174   24316257.9324   24316257.199
        38.7004         36.0004
 -16808040.76047 -13087168.78747  21616815.8124   21616815.9674   21616815.962
        46.5004         43.5004
 -11081252.16147  -8621499.95246  23407372.4154   23407375.8514   23407373.311
        42.0004         39.5004
 -24454670.93348 -19044992.68747  20671608.3794   20671606.2194   20671609.031
        48.4004         45.6004
 -11881911.92047  -9238363.44046  22835619.1884   22835621.0764   22835618.562
        44.6004         41.8004
  -6333381.46446  -4504865.95046  24069587.3904   24069584.2214   24069588.602
        39.6004         37.1004
 16 10 26  1 48 30.0000000  0 10G03G31G22G32G01G25G26G14G10G12
  -3126433.32946  -2407160.83146  24157867.8914   24157865.6124   24157868.815
        38.7004         36.6004
 -24583072.47748 -19127295.44647  20310558.5304   20310555.7764   20310558.908
        50.3004         47.3004
 -12398903.78447  -9400109.52946  22835410.6294   22835406.0554   22835412.168
        44.2004         41.1004
 -23058809.22548 -17952097.59247  20902599.3824   20902599.2274   20902598.948
        50.2004         47.0004
  -2799263.81046  -2164534.07446  24324158.8094   24324160.5874   24324157.748
        38.9004         36.7004
 -16768977.13747 -13056729.59447  21624248.9474   21624249.7264   21624249.473
        46.5004         43.3004
 -11189988.19847  -8706229.29146  23386681.4104   23386682.8004   23386682.164
        42.5004         39.9004
 -24471990.82248 -19058488.68447  20668312.3124   20668310.2704   20668312.700
        48.4004         45.6004
 -11777336.36347  -9156876.06746  22855518.7374   22855520.4434   22855518.723
        44.6004         41.4004
  -6239640.79146  -4431821.25246  24087426.8604   24087422.7884   24087426.718
        39.4004         37.1004
 16 10 26  1 49  0.0000000  0 10G03G31G22G32G01G25G26G14G10G12
  -3222333.56246  -2481888.29546  24139618.9924   24139617.2374   24139620.134
        39.2004         36.9004
 -24596371.74348 -19137658.49547  20308027.9454   20308025.0164   20308027.364
        50.3004         47.3004
 -12471681.84647  -9456819.71446  22821561.7254   22821558.4724   22821562.481
        43.9004         41.2004
 -23026165.29048 -17926660.76147  20908811.3164   20908811.1214   20908811.623
        50.2004         47.0004
  -2757329.69846  -2131858.16346  24332139.0844   24332140.0824   24332139.027
        39.2004         36.9004
 -16729318.36847 -13025826.66347  21631795.2924   21631796.8484   21631795.786
        46.5004         43.5004
 -11298561.40647  -8790831.77946  23366019.9164   23366022.6774   23366019.771
        42.5004         39.7004
 -24489066.99148 -19071794.81947  20665062.8734   20665060.7024   20665063.799
        48.4004         45.6004
 -11672530.47847  -9075209.18346  22875463.5694   22875464.4344   22875463.428
        44.4004         41.4004
  -6145565.52046  -4358515.82846  24105327.3954   24105323.8604   24105328.499
        39.4004         36.7004
 16 10 26  1 49 30.0000000  0 10G03G31G22G32G01G25G26G14G10G12
  -3317987.57946  -2556423.88646  24121417.5774   24121415.2054   24121416.516
        39.4004         37.1004
 -24609275.86448 -19147713.64947  20305572.3124   20305569.2364   20305572.453
        50.3004         47.3004
 -12544091.89747  -9513243.11146  22807782.8564   22807778.6884   22807784.520
        44.2004         41.2004
 -22993215.40248 -17900985.53047  20915081.2784   20915081.3284   20915081.223
        50.0004         46.8004
  -2714985.14546  -2098862.39546  24340197.0814   24340197.3734   24340196.374
        39.0004         36.6004
 -16689066.07847 -12994461.23447  21639455.3784   21639456.2664   21639456.268
        46.5004         43.5004
 -11406968.98747  -8875305.18546  23345390.3794   23345393.7434   23345391.249
        42.5004         39.9004
 -24505898.25948 -19084910.10447  20661859.9614   20661857.8324   20661860.216
        48.4004         45.6004
 -11567496.78747  -8993364.78646  22895450.5454   22895451.5744   22895450.537
        44.2004         41.1004
  -6051158.24546  -4284951.73046  24123294.1184   24123290.4534   24123292.839
        39.2004         36.7004
 16 10 26  1 50  0.0000000  0 10G03G31G22G32G01G25G26G14G10G12
  -3413392.77446  -2630765.59446  24103259.7144   24103260.2704   24103258.606
        39.0004         36.2004
 -24621785.38448 -19157461.32347  20303192.0044   20303188.7614   20303191.612
        50.3004         47.3004
 -12616131.96347  -9569378.24546  22794073.9974   22794069.6464   22794075.221
        44.2004         41.2004
 -22959959.16948 -17875071.59247  20921409.8644   20921409.5694   20921409.731
        50.0004         46.8004
  -2672232.36646  -2065548.54046  24348332.8174   24348332.9624   24348331.998
        38.9004         36.4004
 -16648221.86647 -12962634.57847  21647228.7994   21647229.3274   21647228.205
        46.5004         43.7004
 -11515208.22847  -8959647.43246  23324793.8584   23324795.8384   23324792.403
        42.5004         39.9004
 -24522483.78948 -19097833.89747  20658704.1344   20658701.7874   20658704.355
        48.6004         45.6004
 -11462237.78147  -8911344.82946  22915480.7324   22915481.7454   22915480.196
        44.1004         41.4004
  -5956422.46746  -4211131.67546  24141321.5434   24141316.7814   24141320.859
        39.2004         36.7004
 16 10 26  1 50 30.0000000  0 10G03G31G22G32G01G25G26G14G10G12
  -3508546.49246  -2704911.34646  24085156.1424   24085154.4624   24085154.773
        39.7004         37.8004
 -24633901.15648 -19166902.17447  20300886.2224   20300883.0074   20300886.399
        50.3004         47.3004
 -12687799.77647  -9625223.29146  22780436.2154   22780432.4394   22780437.800
        44.4004         41.4004
 -22926396.31748 -17848918.74447  20927796.9444   20927796.2834   20927796.682
        49.8004         46.6004
  -2629073.76146  -2031918.49446  24356544.8384   24356546.4834   24356544.916
        39.4004         37.1004
 -16606787.41147 -12930347.99147  21655113.1774   21655113.5774   21655113.861
        46.5004         43.5004
 -11623276.43147  -9043856.40346  23304228.2594   23304232.1164   23304229.953
        42.7004         40.0004
 -24538822.64448 -19110565.48147  20655595.0074   20655592.7824   20655595.318
        48.6004         45.8004
 -11356756.07747  -8829151.36546  22935552.9844   22935554.8914   22935552.059
        44.2004         41.2004
  -5861360.50446  -4137057.41746  24159409.5544   24159408.2814   24159409.987
        39.0004         36.6004
 16 10 26  1 51  0.0000000  0 10G03G31G22G32G01G25G26G14G10G12
  -3603446.09046  -2778859.07446  24067095.5274   24067093.9564   24067095.498
        39.7004         36.7004
 -24645624.11048 -19176036.94047  20298655.6974   20298652.4664   20298655.361
        50.3004         47.3004
 -12759092.85847  -9680776.35246  22766869.6344   22766865.4484   22766869.911
        44.2004         41.2004
 -22892526.52548 -17822526.71047  20934241.3884   20934241.7164   20934240.919
        49.8004         46.6004
  -2585511.65146  -1997973.97546  24364834.9774   24364835.1014   24364834.672
        39.2004         36.7004
 -16564764.35347 -12897602.74247  21663109.4734   21663110.1104   21663109.659
        46.5004         43.3004
 -11731170.84547  -9127929.99546  23283697.6004   23283699.1344   23283698.680
        42.7004         39.9004
 -24554913.80248 -19123104.04447  20652533.1734   20652530.7354   20652533.686
        48.6004         45.6004
 -11251054.17847  -8746786.28546  22955667.4524   22955667.6524   22955668.172
        44.2004         41.2004
  -5765975.45346  -4062731.43846  24177561.7604   24177559.9574   24177562.184
        39.0004         36.7004
 16 10 26  1 51 30.0000000  0 10G03G31G22G32G01G25G26G14G10G12
  -3698088.96946  -2852606.79146  24049085.0954   24049084.1244   24049082.997
        39.2004         36.7004
 -24656955.49748 -19184866.58047  20296499.1024   20296496.2084   20296499.147
        50.3004         47.3004
 -12830009.03147  -9736035.69346  22753374.0034   22753370.7324   22753375.449
        44.4004         41.6004
 -22858349.46548 -17795895.23947  20940745.0084   20940745.3954   20940744.800
        49.8004         46.6004
  -2541548.45146  -1963716.95746  24373200.7324   24373201.0424   24373201.318
        39.0004         36.7004
 -16522154.35147 -12864400.14347  21671217.5734   21671218.0954   21671217.316
        46.2004         43.2004
 -11838888.76147  -9211866.04946  23263200.2234   23263201.3524   23263200.978
        42.7004         40.0004
 -24570756.07848 -19135448.66547  20649518.4484   20649515.5694   20649519.607
        48.6004         45.8004
 -11145134.63147  -8664251.62546  22975824.6914   22975824.6584   22975823.449
        44.2004         41.2004
  -5670270.53646  -3988156.16746  24195774.2014   24195770.9264   24195773.693
        39.2004         36.7004
 16 10 26  1 52  0.0000000  0 10G03G31G22G32G01G25G26G14G10G12
  -3792472.48646  -2926152.37546  24031124.7014   24031124.1904   24031124.710
        39.6004         37.1004
 -24667895.86548 -19193391.53247  20294417.1934   20294414.3564   20294416.705
        50.3004         47.3004
 -12900546.12947  -9790999.67646  22739952.2074   22739947.8054   22739953.059
        44.4004         41.6004
 -22823864.87948 -17769024.16047  20947307.7844   20947307.6554   20947307.787
        49.8004         46.6004
  -2497186.49446  -1929149.19246  24381643.5474   24381643.6594   24381642.609
        39.4004         37.1004
 -16478959.15247 -12830741.53247  21679437.3074   21679437.7674   21679437.597
        46.2004         43.2004
 -11946427.47947  -9295662.46246  23242734.9424   23242737.6094   23242734.052
        42.9004         40.0004
 -24586348.86548 -19147598.88847  20646551.3024   20646548.4884   20646552.526
        48.6004         45.8004
 -11038999.94947  -8581549.32646  22996019.9854   22996020.6054   22996019.103
        43.7004         40.4004
  -5574248.60546  -3913333.90446  24214045.7574   24214043.4734   24214046.618
        39.4004         37.1004
 16 10 26  1 52 30.0000000  0 10G03G31G22G32G01G25G26G14G10G12
  -3886593.98646  -2999493.79646  24013213.2744   24013211.4064   24013212.940
        39.2004         36.4004
 -24678446.05448 -19201612.44647  20292409.8884   20292406.5534   20292409.538
        50.3004         47.3004
 -12970702.06047  -9845666.64646  22726601.5724   22726598.7004   22726603.475
        44.4004         41.6004
 -22789072.43248 -17741913.16847  20953928.7564   20953928.3314   20953929.084
        49.8004         46.8004
  -2452428.23046  -1894272.61446  24390160.0374   24390160.4104   24390160.349
        39.4004         37.1004
 -16435180.45547 -12796628.26247  21687768.3594   21687768.7554   21687768.760
        46.2004         43.3004
 -12053784.21747  -9379317.08146  23222305.5264   23222307.9404   23222307.083
        43.0004         40.0004
 -24601690.94048 -19159553.75447  20643631.8994   20643629.2944   20643632.216
        48.6004         45.8004
 -10932652.74147  -8498681.38546  23016257.1254   23016257.0284   23016258.427
        43.2004         40.2004
  -5477912.48246  -3838266.80246  24232378.7844   24232375.3714   24232378.371
        39.7004         37.3004
 16 10 26  1 53  0.0000000  0 11G03G31G22G32G01G25G29G26G14G10G12
  -3980450.81846  -3072629.05846  23995352.3524   23995352.2984   23995352.672
        39.2004         36.9004
 -24688606.92948 -19209530.00447  20290476.3864   20290472.7854   20290476.347
        50.3004         47.3004
 -13040474.45247  -9900034.72946  22713324.1424   22713321.5144   22713325.784
        44.6004         41.8004
 -22753971.84948 -17714562.06547  20960608.1324   20960607.6574   20960607.957
        49.8004         46.8004
  -2407275.95546  -1859089.05546  24398751.5194   24398753.1774   24398749.685
        39.6004         37.3004
 -16390820.00547 -12762061.67347  21696209.8664   21696210.4084   21696210.082
        46.2004         43.3004
   -171689.41844    -72011.167 3          .000    25144773.251        -140.989
        26.4004         19.900
 -12160956.24347  -9462827.76846  23201911.5774   23201914.1914   23201912.290
        43.0004         40.0004
 -24616781.39248 -19171312.53947  20640759.8354   20640757.3804   20640760.402
        48.6004         45.8004
 -10826095.48347  -8415649.78346  23036535.3604   23036536.3724   23036534.553
        43.6004         40.9004
  -5381264.47346  -3762956.65346  24250769.6604   24250767.0414   24250769.064
        39.7004         37.3004
 16 10 26  1 53 30.0000000  0 10G03G31G22G32G01G25G26G14G10G12
  -4074040.40846  -3145555.93746  23977544.0984   23977545.0634   23977544.371
        40.1004         37.9004
 -24698379.60148 -19217145.06347  20288616.3924   20288613.2714   20288615.710
        50.3004         47.3004
 -13109861.23547  -9954102.37246  22700120.2624   22700116.5934   22700120.309
        44.6004         41.8004
 -22718562.87548 -17686970.66747  20967346.2104   20967345.9244   20967346.160
        49.8004         46.8004
  -2361732.17746  -1823600.39946  24407418.4314   24407421.0544   24407416.993
        39.6004         37.1004
 -16345879.62647 -12727043.19947  21704762.1204   21704762.5384   21704762.400
        46.3004         43.3004
 -12267940.90947  -9546192.47246  23181553.4814   23181556.3904   23181553.812
        42.9004         40.0004
 -24631619.00148 -19182874.29647  20637936.4914   20637934.1594   20637936.926
        48.6004         45.8004
 -10719330.74247  -8332456.52846  23056851.4004   23056853.1524   23056850.919
        43.9004         41.4004
  -5284307.95946  -3687406.12746  24269218.7744   24269216.8564   24269219.088
        39.9004         37.3004
 16 10 26  1 54  0.0000000  0 11G03G31G22G32G01G25G29G26G14G10G12
  -4167360.05246  -3218272.57546  23959786.3854   23959783.2994   23959786.119
        39.7004         36.6004
 -24707764.94448 -19224458.32447  20286830.4914   20286827.4744   20286830.449
        50.3004         47.3004
 -13178860.06947 -10007867.70346  22686990.3634   22686987.5064   22686991.241
        44.8004         41.9004
 -22682845.19948 -17659138.71947  20974142.8224   20974142.7254   20974142.927
        49.8004         46.6004
  -2315799.37946  -1787808.59846  24416159.4164   24416159.9554   24416159.807
        39.7004         37.3004
 -16300361.05447 -12691574.18047  21713424.2844   21713424.6344   21713424.813
        46.3004         43.5004
    -60354.78844    -38703.40143          .000            .000    25105842.425
        26.4004         23.4004
 -12374735.47647  -9629409.03646  23161231.1054   23161233.9444   23161230.793
        43.0004         40.7004
 -24646203.05248 -19194238.46947  20635161.0514   20635158.5164   20635161.824
        48.6004         45.8004
 -10612361.14647  -8249103.63746  23077206.9984   23077209.2164   23077206.909
        44.1004         41.2004
  -5187046.32146  -3611617.83746  24287728.1524   24287725.5354   24287726.859
        39.7004         37.1004
 16 10 26  1 54 30.0000000  0 11G03G31G22G32G01G25G29G26G14G10G12
  -4260407.16146  -3290776.82346  23942078.6764   23942078.2234   23942078.462
        39.4004         36.9004
 -24716763.70048 -19231470.32647  20285118.0984   20285115.2834   20285117.910
        50.3004         47.5004
 -13247468.78347 -10061329.03346  22673933.2004   22673931.1634   22673934.370
        44.6004         41.6004
 -22646818.57348 -17631066.04247  20980998.7854   20980998.3884   20980998.086
        49.8004         46.8004
  -2269479.89946  -1751715.46546  24424974.5224   24424975.0744   24424974.068
        39.6004         36.7004
 -16254266.11147 -12655656.04047  21722195.6364   21722195.7834   21722196.656
        46.3004         43.3004
   -132768.04444    -95129.40845          .000            .000    25092063.738
        26.4004         35.3004
 -12481337.17647  -9712475.33646  23140946.1714   23140948.1084   23140946.128
        43.6004         40.9004
 -24660532.90748 -19205404.59247  20632434.4344   20632431.7354   20632434.948
        48.6004         45.8004
 -10505189.19347  -8165593.05646  23097601.5874   23097601.6374   23097599.785
        43.9004         40.7004
  -5089481.88446  -3535593.63646  24306294.7494   24306291.4994   24306295.326
        39.6004         36.9004
 16 10 26  1 55  0.0000000  0 11G03G31G22G32G01G25G29G26G14G10G12
  -4353179.01946  -3363066.59946  23924424.4184   23924425.4294   23924425.041
        39.7004         37.4004
 -24725377.25348 -19238182.18247  20283479.0064   20283476.2134   20283478.916
        50.5004         47.5004
 -13315685.24947 -10114484.71946  22660953.5794   22660950.7364   22660955.115
        44.8004         41.9004
 -22610482.75948 -17602752.44347  20987913.3154   20987912.8154   20987912.606
        49.8004         46.6004
  -2222776.27446  -1715323.02246  24433860.1024   24433862.6344   24433861.138
        39.4004         36.7004
 -16207596.65347 -12619290.22247  21731075.9834   21731076.6464   21731076.757
        46.2004         43.0004
   -205058.96646   -151459.89445          .000    25078304.4874   25078305.710
        36.3004         35.3004
 -12587743.37247  -9795389.30346  23120696.7784   23120698.8554   23120696.691
        43.6004         40.6004
 -24674607.26848 -19216371.61747  20629755.9164   20629753.5784   20629756.224
        48.6004         45.6004
 -10397817.44547  -8081926.79146  23118033.5464   23118034.7484   23118033.246
        43.6004         40.6004
  -4991617.69546  -3459335.81546  24324916.9104   24324914.2694   24324916.685
        39.2004         36.6004
 16 10 26  1 55 30.0000000  0 11G03G31G22G32G01G25G29G26G14G10G12
  -4445673.09546  -3435139.88246  23906824.0694   23906824.2724   23906825.358
        39.7004         37.3004
 -24733606.10648 -19244594.26247  20281913.1674   20281909.9764   20281912.934
        50.5004         47.5004
 -13383507.12547 -10167332.93446  22648046.9344   22648044.2514   22648048.092
        44.9004         41.9004
 -22573837.39848 -17574197.62347  20994886.4814   20994886.0654   20994886.388
        49.8004         46.6004
  -2175690.90046  -1678633.10646  24442820.0054   24442822.7624   24442820.714
        39.2004         36.7004
 -16160354.52547 -12582478.18647  21740066.0444   21740066.5794   21740065.908
        46.2004         43.0004
   -277223.87346   -207692.22445  25064572.3594   25064569.2824   25064568.955
        36.3004         34.1004
 -12693951.33547  -9878148.78246  23100486.0574   23100488.4714   23100485.305
        43.2004         40.4004
 -24688425.03148 -19227138.70047  20627126.6794   20627124.0414   20627127.041
        48.6004         45.6004
 -10290248.44547  -7998106.81646  23138502.6414   23138504.9044   23138502.402
        43.4004         40.7004
  -4893456.65946  -3382846.71746  24343595.6884   24343594.7004   24343596.330
        38.9004         36.4004
 16 10 26  1 56  0.0000000  0 11G03G31G22G32G01G25G29G26G14G10G12
  -4537886.62446  -3506994.59746  23889278.1644   23889277.4114   23889276.331
        40.3004         37.9004
 -24741451.15048 -19250707.27847  20280420.3814   20280417.0504   20280420.546
        50.5004         47.5004
 -13450932.58547 -10219872.25546  22635216.2654   22635213.7024   22635216.526
        44.6004         41.8004
 -22536882.26148 -17545401.42747  21001918.7174   21001918.4814   21001918.236
        49.8004         46.6004
  -2128226.28446  -1641647.70146  24451852.0954   24451855.5704   24451851.899
        39.2004         36.7004
 -16112541.61547 -12545221.36347  21749164.0164   21749165.4924   21749165.356
        46.0004         43.0004
   -349260.28845   -263824.48645  25050863.4084   25050862.1294   25050865.819
        35.6004         33.8004
 -12799958.28447  -9960751.65646  23080314.2934   23080316.2694   23080314.666
        43.4004         40.9004
 -24701985.45948 -19237705.28147  20624546.0864   20624543.5414   20624546.266
        48.6004         45.6004
 -10182484.79447  -7914135.16046  23159009.8014   23159011.4924   23159010.431
        43.4004         40.6004
  -4795002.01546  -3306128.81646  24362330.8444   24362328.1654   24362333.584
        38.7004         36.2004
 16 10 26  1 56 30.0000000  0 11G03G31G22G32G01G25G29G26G14G10G12
  -4629817.07946  -3578628.72046  23871782.5004   23871782.6814   23871782.493
        40.1004         37.3004
 -24748913.54548 -19256522.12847  20279000.0754   20278997.1484   20278999.685
        50.3004         47.3004
 -13517959.15647 -10272100.72946  22622461.6724   22622459.2234   22622463.869
        44.8004         41.8004
 -22499617.13348 -17516363.67747  21009010.3014   21009009.9184   21009010.060
        49.8004         46.6004
  -2080384.99546  -1604368.79746  24460955.6914   24460957.6784   24460955.964
        39.0004         36.6004
 -16064159.80247 -12507521.24547  21758371.3094   21758371.1964   21758371.754
        46.0004         43.0004
   -421164.90545   -319854.12445  25037184.3024   25037177.0874   25037183.627
        35.2004         33.6004
 -12905761.50347 -10043195.72646  23060179.7554   23060182.6604   23060179.342
        43.7004         40.9004
 -24715287.28048 -19248070.32147  20622014.6204   20622012.4454   20622015.368
        48.6004         45.6004
 -10074529.02347  -7830013.79346  23179553.1384   23179554.9304   23179553.416
        43.6004         40.6004
  -4696256.44546  -3229184.24446  24381122.5344   24381118.7664   24381121.183
        38.9004         36.7004
 16 10 26  1 57  0.0000000  0 11G03G31G22G32G01G25G29G26G14G10G12
  -4721461.77246  -3650040.17246  23854345.4294   23854344.1794   23854345.422
        40.3004         37.9004
 -24755994.14248 -19262039.45647  20277652.4954   20277649.9614   20277652.316
        50.3004         47.3004
 -13584585.13247 -10324017.06646  22609783.3314   22609779.9924   22609784.191
        44.8004         41.9004
 -22462041.74648 -17487084.16047  21016160.5584   21016160.2954   21016160.111
        49.8004         46.6004
  -2032169.51846  -1566798.31546  24470131.0434   24470133.5274   24470129.879
        38.9004         36.4004
 -16015211.03647 -12469379.33847  21767685.6904   21767686.3154   21767685.868
        45.8004         42.8004
   -492934.35546   -375778.53545  25023524.8554   25023523.6194   25023525.447
        36.8004         35.2004
 -13011358.37447 -10125479.02446  23040086.2574   23040087.9304   23040085.342
        43.6004         40.7004
 -24728329.47948 -19258233.08147  20619532.9624   20619530.4284   20619533.974
        48.6004         45.6004
  -9966383.78847  -7745744.77746  23200132.5994   23200133.7644   23200131.757
        43.6004         40.7004
  -4597222.79546  -3152015.16646  24399967.4324   24399965.1924   24399967.409
        38.9004         36.6004
 16 10 26  1 57 30.0000000  0 11G03G31G22G32G01G25G29G26G14G10G12
  -4812818.09346  -3721226.91546  23836958.8094   23836957.4004   23836959.336
        39.9004         37.1004
 -24762693.33148 -19267259.59347  20276377.8824   20276374.6724   20276377.962
        50.3004         47.3004
 -13650808.12147 -10375619.38247  22597182.2784   22597178.1034   22597183.359
        44.9004         42.1004
 -22424155.79848 -17457562.65247  21023370.1094   21023369.8714   21023370.022
        49.8004         46.6004
  -1983582.31846  -1528938.16346  24479378.8644   24479378.6534   24479379.059
        39.0004         36.7004
 -15965697.18447 -12430797.11847  21777107.8994   21777107.4714   21777109.062
        45.8004         42.8004
   -564565.62346   -431595.08545  25009892.8334   25009891.5264   25009891.608
        37.0004         34.6004
 -13116746.11947 -10207599.35146  23020031.1034   23020033.6514   23020031.173
        43.6004         40.4004
 -24741111.21048 -19268192.87747  20617100.4494   20617098.1484   20617101.040
        48.6004         45.6004
  -9858051.60747  -7661330.09746  23220747.5984   23220748.9964   23220747.538
        43.6004         40.4004
  -4497903.71046  -3074623.67346  24418868.8754   24418863.5984   24418867.202
        39.0004         36.7004
 16 10 26  1 58  0.0000000  0 11G03G31G22G32G01G25G29G26G14G10G12
  -4903883.35546  -3792186.88646  23819630.9924   23819628.6824   23819630.597
        39.9004         37.8004
 -24769013.35048 -19272184.27547  20275175.3274   20275172.2654   20275175.558
        50.3004         47.3004
 -13716626.01047 -10426906.06146  22584656.8674   22584654.0074   22584657.948
        44.9004         41.9004
 -22385959.14848 -17427799.04347  21030638.8304   21030638.4474   21030638.498
        49.8004         46.8004
  -1934625.96646  -1490790.35846  24488693.0414   24488696.0944   24488694.318
        38.9004         36.4004
 -15915620.25547 -12391776.12647  21786638.3334   21786637.8684   21786638.740
        46.0004         43.0004
   -636055.87146   -487301.63045  24996289.5884   24996288.1444   24996288.899
        36.8004         34.6004
 -13221922.03347 -10289554.60946  23000016.5524   23000019.7264   23000016.845
        43.4004         40.7004
 -24753631.63048 -19277949.05947  20614718.0764   20614715.4334   20614718.130
        48.4004         45.6004
  -9749535.07547  -7576771.77346  23241396.6054   23241399.3244   23241398.091
        43.0004         39.9004
  -4398302.63846  -2997012.43746  24437821.2604   24437818.6784   24437821.185
        38.9004         36.2004
 16 10 26  1 58 30.0000000  0 11G03G31G22G32G01G25G29G26G14G10G12
  -4994654.94846  -3862917.98146  23802357.2964   23802356.6654   23802357.146
        40.6004         38.1004
 -24774954.68748 -19276813.88547  20274044.7454   20274041.5374   20274045.001
        50.3004         47.5004
 -13782036.45047 -10477875.24147  22572209.8934   22572206.3534   22572211.593
        45.1004         42.3004
 -22347451.48948 -17397793.08547  21037966.5664   21037966.1044   21037966.250
        49.8004         46.6004
  -1885303.00646  -1452356.88846  24498079.3894   24498079.6414   24498081.150
        38.7004         36.2004
 -15864982.18447 -12352317.89547  21796273.9754   21796274.1664   21796274.489
        46.0004         43.0004
   -707401.87846   -542895.89045  24982713.8524   24982711.5414   24982713.086
        37.3004         35.3004
 -13326883.43347 -10371342.68046  22980043.4174   22980045.9034   22980043.152
        43.6004         40.7004
 -24765888.96148 -19287500.22047  20612385.3814   20612383.0444   20612386.000
        48.4004         45.6004
  -9640836.72347  -7492071.79346  23262081.6434   23262083.1684   23262082.076
        42.9004         40.2004
  -4298422.36446  -2919183.67146  24456829.5294   24456825.5154   24456827.036
        38.7004         36.6004
 16 10 26  1 59  0.0000000  0 11G03G31G22G32G01G25G29G26G14G10G12
  -5085130.29246  -3933418.22346  23785139.4744   23785139.2544   23785140.422
        40.4004         37.4004
 -24780517.97748 -19281148.90047  20272985.8094   20272983.0784   20272985.614
        50.3004         47.3004
 -13847037.38447 -10528525.30346  22559839.4694   22559836.1834   22559840.980
        44.9004         41.9004
 -22308632.63248 -17367544.64047  21045353.4234   21045353.2514   21045353.628
        49.8004         46.6004
  -1835615.97146  -1413639.73246  24507533.6364   24507535.5014   24507532.417
        38.7004         36.2004
 -15813785.00647 -12312423.99347  21806015.5534   21806016.2524   21806015.302
        45.8004         42.8004
   -778600.84946   -598375.68045  24969165.3124   24969164.6264   24969163.855
        37.6004         35.3004
 -13431627.63947 -10452961.50846  22960111.8884   22960113.4544   22960110.612
        43.7004         41.1004
 -24777883.10348 -19296846.31747  20610103.0884   20610100.8174   20610103.649
        48.4004         45.6004
  -9531959.20547  -7407232.15946  23282800.7504   23282802.7564   23282800.946
        43.2004         40.6004
  -4198265.55046  -2841139.40346  24475888.0374   24475884.5704   24475888.222
        38.7004         36.2004
 16 10 26  1 59 30.0000000  0 11G03G31G22G32G01G25G29G26G14G10G12
  -5175306.66146  -4003685.58246  23767979.6604   23767978.5534   23767979.297
        39.6004         36.9004
 -24785704.36048 -19285190.23247  20271999.1354   20271995.9514   20271999.129
        50.3004         47.5004
 -13911626.54147 -10578854.53447  22547550.3264   22547546.5314   22547549.963
        45.1004         42.5004
 -22269502.34448 -17337053.53647  21052799.6574   21052799.7764   21052799.409
        49.8004         46.6004
  -1785567.43146  -1374640.91246  24517058.2754   24517059.8834   24517057.417
        38.7004         36.4004
 -15762030.71947 -12272095.97847  21815865.3084   21815864.8554   21815865.692
        45.8004         42.8004
   -849649.42446   -653738.35445  24955645.8434   24955640.6094   24955644.943
        36.3004         34.0004
 -13536151.88147 -10534408.95446  22940221.2874   22940223.1914   22940221.301
        43.9004         41.1004
 -24789612.89548 -19305986.39147  20607870.7294   20607868.7584   20607871.565
        48.4004         45.6004
  -9422905.05747  -7322254.91546  23303553.2824   23303554.5774   23303553.228
        43.4004         40.4004
  -4097835.52846  -2762882.26445  24494997.5084   24494993.0424   24494997.552
        38.3004         35.9004
 16 10 26  2  0  0.0000000  0 11G03G31G22G32G01G25G29G26G14G10G12
  -5265181.48246  -4073717.88446  23750877.8164   23750878.6814   23750877.977
        40.6004         38.3004
 -24790514.85248 -19288938.67447  20271083.8764   20271080.5164   20271084.070
        50.5004         47.5004
 -13975802.40747 -10628861.67147  22535337.6184   22535333.7564   22535339.038
        45.3004         42.3004
 -22230060.39148 -17306319.56747  21060305.0124   21060304.9894   21060304.754
        49.6004         46.5004
  -1735160.03446  -1335362.41346  24526649.7324   24526652.2944   24526650.616
        38.5004         36.2004
 -15709721.34347 -12231335.42547  21825819.3534   21825818.6374   21825819.566
        45.8004         42.8004
   -920544.63145   -708981.39845  24942150.5174   24942153.2024   24942153.050
        35.7004         34.0004
 -13640453.56447 -10615682.95546  22920373.3374   22920374.4404   22920373.441
        43.9004         40.9004
 -24801077.25348 -19314919.64047  20605689.3854   20605687.1854   20605689.814
        48.4004         45.6004
  -9313676.85947  -7237142.07846  23324338.4844   23324340.1784   23324338.806
        43.2004         40.2004
  -3997134.82846  -2684414.19046  24514162.1574   24514156.8534   24514158.328
        38.2004         36.0004
 16 10 26  2  0 30.0000000  0 11G03G31G22G32G01G25G29G26G14G10G12
  -5354752.06446  -4143513.15646  23733834.0694   23733832.0164   23733832.452
        40.9004         38.1004
 -24794950.54948 -19292395.05147  20270239.9594   20270236.4564   20270240.149
        50.5004         47.5004
 -14039562.67747 -10678544.97847  22523204.2254   22523199.9414   22523206.080
        45.3004         42.3004
 -22190306.55148 -17275342.56247  21067870.2094   21067869.9084   21067869.792
        49.6004         46.6004
  -1684396.27746  -1295806.27846  24536309.9784   24536312.7854   24536311.224
        39.0004         36.6004
 -15656858.96147 -12190143.94247  21835877.7134   21835878.2694   21835878.913
        45.8004         42.8004
   -991283.40346   -764102.37445  24928691.1144   24928691.7544   24928688.947
        36.6004         35.2004
 -13744530.03547 -10696781.46246  22900567.7444   22900570.2054   22900568.332
        43.7004         40.7004
 -24812275.34048 -19323645.41347  20603558.6064   20603556.3414   20603559.462
        48.4004         45.6004
  -9204277.20947  -7151895.59746  23345157.2514   23345157.1834   23345156.732
        42.9004         40.0004
  -3896166.75346  -2605737.77145  24533376.0524   24533370.5114   24533376.077
        38.0004         35.7004
 16 10 26  2  1  0.0000000  0 11G03G31G22G32G01G25G29G26G14G10G12
  -5444015.85546  -4213069.36246  23716846.9874   23716846.6514   23716846.100
        40.8004         38.1004
 -24799012.53948 -19295560.24247  20269466.7204   20269463.5824   20269467.102
        50.5004         47.5004
 -14102905.26047 -10727902.82147  22511150.9584   22511146.5944   22511150.985
        45.1004         42.3004
 -22150240.67048 -17244122.40747  21075494.5364   21075494.3324   21075494.139
        49.6004         46.5004
  -1633278.77746  -1255974.49546  24546038.5694   24546040.2524   24546037.787
        39.2004         36.7004
 -15603445.60347 -12148523.12947  21846042.3864   21846043.4704   21846042.973
        46.0004         43.0004
  -1061862.61746   -819099.16346  24915261.4244   24915260.3424   24915261.631
        38.2004         36.2004
 -13848378.57447 -10777702.39246  22880806.7134   22880808.1784   22880807.325
        43.7004         41.1004
 -24823205.75248 -19332162.62747  20601478.3404   20601476.4524   20601478.602
        48.4004         45.6004
  -9094708.73047  -7066517.54446  23366007.8834   23366007.6464   23366007.486
        43.0004         40.2004
  -3794933.99346  -2526855.12545  24552638.3704   24552636.3794   24552638.568
        37.8004         35.5004
 16 10 26  2  1 30.0000000  0 11G03G31G22G32G01G25G29G26G14G10G12
  -5532970.20546  -4282384.42746  23699918.0444   23699918.6084   23699918.928
        40.6004         37.9004
 -24802701.68848 -19298434.90747  20268764.8414   20268761.4164   20268764.639
        50.5004         47.5004
 -14165827.94047 -10776933.48247  22499177.0914   22499172.8594   22499179.341
        45.3004         42.3004
 -22109862.48148 -17212658.90147  21083178.1054   21083178.0334   21083177.529
        49.6004         46.5004
  -1581810.22446  -1215869.13346  24555833.8314   24555833.3724   24555832.825
        38.7004         36.4004
 -15549483.35047 -12106474.62747  21856311.8874   21856311.4584   21856312.174
        46.0004         42.8004
  -1132279.60646   -873969.55645  24901861.6844   24901860.1264   24901862.291
        38.2004         35.9004
 -13951996.46047 -10858443.58946  22861088.1484   22861089.8594   22861088.977
        44.1004         41.2004
 -24833867.70448 -19340470.65247  20599449.3734   20599447.8014   20599449.704
        48.4004         45.6004
  -8984973.92447  -6981009.91846  23386888.1964   23386889.2774   23386889.759
        42.7004         39.5004
  -3693439.38646  -2447768.44945  24571952.9314   24571949.4134   24571952.179
        37.6004         35.5004
 16 10 26  2  2  0.0000000  0 11G03G31G22G32G01G25G29G26G14G10G12
  -5621612.47646  -4351456.34446  23683051.6784   23683050.7004   23683050.709
        40.4004         38.1004
 -24806019.02448 -19301019.84147  20268133.4534   20268130.3464   20268133.265
        50.5004         47.5004
 -14228328.92247 -10825635.49747  22487282.7264   22487279.8854   22487283.551
        45.3004         42.3004
 -22069171.80648 -17180951.89247  21090921.2894   21090921.2654   21090921.206
        49.6004         46.5004
  -1529993.11046  -1175492.17246  24565693.1534   24565695.0204   24565691.752
        38.7004         36.4004
 -15494974.34147 -12064000.06947  21866683.1614   21866685.0304   21866683.772
        45.8004         42.8004
  -1202530.71146   -928710.69045  24888492.3764   24888491.8114   24888489.920
        36.8004         34.1004
 -14055380.97147 -10939002.92246  22841414.1924   22841416.9224   22841414.627
        44.1004         41.2004
 -24844260.07748 -19348568.56647  20597471.6914   20597469.7064   20597472.054
        48.4004         45.6004
  -8875075.39347  -6895374.73946  23407802.8274   23407802.9064   23407801.086
        42.3004         39.7004
  -3591686.23546  -2368480.27945  24591313.1994   24591312.0634   24591313.072
        37.3004         35.0004
 16 10 26  2  2 30.0000000  0 11G03G31G22G32G01G25G29G26G14G10G12
  -5709940.02346  -4420282.98846  23666242.6024   23666242.8514   23666243.603
        40.9004         38.3004
 -24808965.39848 -19303315.70047  20267572.7224   20267569.7554   20267572.481
        50.5004         47.5004
 -14290405.55647 -10874006.90247  22475469.8094   22475466.3344   22475470.627
        45.3004         42.3004
 -22028168.49248 -17149001.27647  21098723.9004   21098723.7074   21098723.882
        49.5004         46.3004
  -1477830.17846  -1134845.74546  24575618.5274   24575620.1664   24575619.673
        38.5004         36.0004
 -15439920.69547 -12021101.12547  21877160.0374   21877160.6174   21877160.872
        45.8004         42.6004
  -1272613.30045   -983320.55545  24875154.2214   24875153.8654   24875152.370
        35.2004         33.3004
 -14158529.49647 -11019378.33046  22821786.1694   22821788.6414   22821787.903
        44.1004         41.1004
 -24854382.06848 -19356455.85447  20595545.4364   20595543.5904   20595546.347
        48.4004         45.6004
  -8765015.78747  -6809614.03146  23428745.1724   23428747.7584   23428744.348
        42.7004         39.9004
  -3489676.92846  -2288992.53245  24610728.4044   24610724.7904   24610727.637
        37.5004         35.2004
 16 10 26  2  3  0.0000000  0 11G03G31G22G32G01G25G29G26G14G10G12
  -5797950.27446  -4488862.38946  23649494.6994   23649495.0204   23649492.903
        40.9004         37.9004
 -24811542.40548 -19305323.73847  20267082.0944   20267079.0804   20267081.910
        50.5004         47.5004
 -14352056.37547 -10922046.48647  22463739.1324   22463734.7534   22463740.618
        45.3004         42.5004
 -21986852.31748 -17116806.86547  21106586.2284   21106585.5934   21106585.842
        49.5004         46.3004
  -1425323.98946  -1093931.86846  24585612.0474   24585611.5734   24585611.267
        38.2004         36.0004
 -15384324.53647 -11977779.42847  21887740.1544   21887740.7804   21887740.596
        45.8004         43.2004
  -1342523.69146  -1037796.13645  24861852.5004   24861850.2714   24861853.865
        36.4004         34.8004
 -14261439.35947 -11099567.79546  22802204.0724   22802204.7974   22802203.411
        44.1004         41.2004
 -24864232.66048 -19364131.64447  20593671.2484   20593669.2324   20593671.569
        48.4004         45.6004
  -8654797.70047  -6723729.81146  23449719.9144   23449721.1344   23449719.169
        42.9004         40.2004
  -3387414.50146  -2209307.52945  24630186.8954   24630182.8224   24630187.111
        37.1004         35.2004
 16 10 26  2  3 30.0000000  0 11G03G31G22G32G01G25G29G26G14G10G12
  -5885640.56046  -4557192.50946  23632808.0294   23632806.6504   23632808.583
        40.8004         37.8004
 -24813750.89448 -19307044.64147  20266662.0874   20266658.8724   20266661.968
        50.5004         47.5004
 -14413279.39647 -10969752.72447  22452087.8204   22452084.4344   22452087.429
        45.3004         42.3004
 -21945223.11648 -17084368.54347  21114508.0394   21114507.6584   21114507.924
        49.5004         46.3004
  -1372477.23646  -1052752.55746  24595668.8364   24595668.8974   24595668.538
        38.5004         36.4004
 -15328188.01747 -11934036.69947  21898421.7334   21898422.8604   21898421.591
        45.8004         42.8004
  -1412259.01346  -1092135.38846  24848584.2554   24848583.1564   24848582.438
        38.2004         36.4004
 -14364107.82147 -11179569.13846  22782665.6604   22782668.3274   22782666.221
        44.2004         41.4004
 -24873810.47848 -19371594.82647  20591848.5954   20591846.1644   20591849.034
        48.4004         45.6004
  -8544423.65547  -6637724.06746  23470722.6024   23470723.3374   23470722.051
        42.5004         39.3004
  -3284901.94546  -2129427.64045  24649693.1874   24649691.1464   24649693.948
        37.1004         35.0004
 16 10 26  2  4  0.0000000  0 11G03G31G22G32G01G25G29G26G14G10G12
  -5973008.33946  -4625271.27146  23616183.3644   23616182.2214   23616183.381
        40.8004         38.5004
 -24815591.62448 -19308478.97347  20266311.8644   20266308.4464   20266312.392
        50.5004         47.5004
 -14474072.21747 -11017123.74847  22440519.6874   22440516.1254   22440520.199
        45.5004         42.5004
 -21903280.68748 -17051686.14547  21122489.4034   21122489.3194   21122489.393
        49.5004         46.3004
  -1319292.57046  -1011309.97746  24605788.0764   24605790.5754   24605786.960
        38.5004         36.2004
 -15271513.34147 -11889874.60547  21909205.9744   21909207.3974   21909207.394
        45.6004         42.8004
  -1481816.35146  -1146335.92746  24835345.9424   24835346.2924   24835346.019
        38.5004         36.2004
 -14466532.34047 -11259380.44046  22763175.6204   22763176.1494   22763176.244
        44.4004         41.6004
 -24883114.99548 -19378845.09747  20590077.8054   20590075.8114   20590078.552
        48.4004         45.6004
  -8433896.29846  -6551598.86746  23491754.6474   23491756.1424   23491755.606
        41.8004         38.6004
  -3182142.41846  -2049355.31745  24669247.8494   24669246.9904   24669249.087
        36.8004         34.5004
 16 10 26  2  4 30.0000000  0 11G03G31G22G32G01G25G29G26G14G10G12
  -6060050.83246  -4693096.61646  23599618.4004   23599617.6584   23599618.643
        40.9004         38.1004
 -24817065.80148 -19309627.66247  20266030.8484   20266027.9304   20266030.631
        50.3004         47.5004
 -14534433.19247 -11064158.24247  22429033.5164   22429030.1864   22429034.567
        45.6004         42.8004
 -21861024.87248 -17018759.55647  21130530.6214   21130530.3854   21130530.254
        49.5004         46.3004
  -1265772.62646   -969606.14546  24615972.5684   24615974.0834   24615972.664
        38.5004         36.2004
 -15214302.63147 -11845294.83247  21920094.2854   21920094.1064   21920094.145
        45.6004         42.6004
  -1551192.81946  -1200395.53545  24822144.0324   24822145.3794   24822145.401
        37.8004         35.2004
 -14568710.22547 -11338999.53046  22743731.2634   22743733.6294   22743731.385
        44.6004         41.8004
 -24892144.94448 -19385881.43447  20588359.1744   20588357.6304   20588359.762
        48.4004         45.6004
  -8323218.14846  -6465356.16846  23512817.4484   23512817.4424   23512817.260
        41.5004         38.8004
  -3079139.11546  -1969093.00945  24688848.6004   24688846.2514   24688849.719
        36.1004         34.1004
 16 10 26  2  5  0.0000000  0 11G03G31G22G32G01G25G29G26G14G10G12
  -6146765.63846  -4760666.59446  23583118.5224   23583117.5804   23583117.611
        40.8004         38.5004
 -24818174.55248 -19310491.60947  20265819.4184   20265816.9034   20265819.355
        50.3004         47.3004
 -14594360.33847 -11110854.71447  22417629.6504   22417625.9244   22417630.600
        45.6004         42.5004
 -21818455.54848 -16985588.67347  21138631.0244   21138631.2334   21138631.001
        49.5004         46.5004
  -1211920.15746   -927643.20446  24626220.6584   24626222.9824   24626220.670
        38.9004         36.4004
 -15156558.13947 -11800299.12247  21931081.8784   21931083.5014   21931082.695
        45.5004         42.6004
  -1620385.48746  -1254311.85145  24808977.4644   24808975.4574   24808978.556
        36.6004         34.1004
 -14670638.76147 -11418424.33746  22724335.7424   22724337.3374   22724333.896
        44.8004         41.9004
 -24900899.31648 -19392703.04147  20586693.8034   20586691.6864   20586694.468
        48.4004         45.6004
  -8212391.95147  -6378998.08946  23533906.9364   23533906.9444   23533906.772
        42.0004         39.3004
  -2975894.16845  -1888642.43645  24708494.9274   24708492.1124   24708495.993
        35.7004         33.8004
 16 10 26  2  5 30.0000000  0 12G03G31G22G32G01G25G29G26G14G10G16G12
  -6233149.97046  -4827979.04346  23566678.9674   23566679.6024   23566679.860
        41.5004         39.0004
 -24818918.72648 -19311071.46147  20265678.1914   20265675.2784   20265677.984
        50.3004         47.3004
 -14653851.74847 -11157211.65347  22406308.5344   22406305.6884   22406308.652
        45.6004         42.8004
 -21775572.47848 -16952173.31047  21146791.4624   21146791.5454   21146790.987
        49.5004         46.3004
  -1157737.80546   -885423.18046  24636530.7824   24636531.6394   24636529.957
        38.7004         36.0004
 -15098282.09547 -11754889.21647  21942171.4604   21942172.7984   21942171.368
        45.6004         42.6004
  -1689390.59546  -1308082.10745  24795846.2054   24795846.3624   24795846.575
        36.6004         34.8004
 -14772315.26147 -11497652.72846  22704986.5994   22704987.8034   22704986.730
        44.8004         41.8004
 -24909377.12148 -19399309.09847  20585080.2244   20585078.5224   20585080.799
        48.4004         45.6004
  -8101420.13546  -6292526.56346  23555023.0014   23555025.2114   23555023.045
        41.6004         39.0004
   -363086.57044   -255115.76744          .000            .000    25088447.000
        26.4004         29.4004
  -2872410.35645  -1808005.73145  24728188.2344   24728187.3154   24728187.477
        35.9004         34.1004
 16 10 26  2  6  0.0000000  0 12G03G31G22G32G01G25G29G26G14G10G16G12
  -6319201.33246  -4895032.04546  23550303.9254   23550304.4134   23550304.606
        41.3004         38.3004
 -24819299.55048 -19311368.20047  20265606.0134   20265602.8414   20265606.391
        50.3004         47.5004
 -14712905.02047 -11203227.17247  22395071.0584   22395068.6224   22395071.946
        45.6004         42.6004
 -21732375.62148 -16918513.44547  21155011.5694   21155011.2844   21155011.663
        49.5004         46.3004
  -1103228.28146   -842948.25546  24646903.2934   24646906.6904   24646901.762
        38.3004         36.0004
 -15039476.75347 -11709066.87047  21953361.4584   21953363.0394   21953361.453
        45.5004         42.6004
  -1758205.16046  -1361703.87145  24782751.7994   24782750.4774   24782751.821
        37.8004         35.9004
 -14873737.18347 -11576682.74646  22685686.4294   22685688.4024   22685686.173
        44.4004         41.6004
 -24917577.62948 -19405699.10447  20583519.5954   20583517.8834   20583520.274
        48.6004         45.6004
  -7990305.43346  -6205943.70446  23576168.0154   23576168.9764   23576167.168
        41.8004         39.0004
   -485284.71944    -58424.21943          .000            .000    25065194.887
        26.4004         23.4004
  -2768690.90745  -1727185.41645  24747925.3234   24747921.7194   24747925.253
        35.9004         34.0004
