     2.11           OBSERVATION DATA    G (GPS)             RINEX VERSION / TYPE
clockShift          gpsops              20161116 000635 UTC PGM / RUN BY / DATE
teqc  2016Apr1      gpsops              20161116 00:06:33UTCCOMMENT
Linux 2.4.21-27.ELsmp|Opteron|gcc -static|Linux x86_64|=+   COMMENT
BIT 2 OF LLI FLAGS DATA COLLECTED UNDER A/S CONDITION       COMMENT
AMC2                                                        MARKER NAME
40472S004                                                   MARKER NUMBER
GGN                 USNO                                    OBSERVER / AGENCY
RT920013101         ASHTECH Z-XII3T     IL01-1D04-MCF-12MX  REC # / TYPE / VERS
KW-0201             AOAD/M_T        NONE                    ANT # / TYPE
 -1248596.2520 -4819428.2840  3976506.0340                  APPROX POSITION XYZ
        0.0000        0.0000        0.0000                  ANTENNA: DELTA H/E/N
     1     1                                                WAVELENGTH FACT L1/2
     7    L1    L2    P1    P2    C1    S1    S2            # / TYPES OF OBSERV
    30.0000                                                 INTERVAL
                                                            COMMENT
This data is provided as a public service by NASA/JPL.      COMMENT
No warranty is expressed or implied regarding suitability   COMMENT
for use.  For further information, contact:                 COMMENT
Dave Stowers, NASA/JPL m/s 238-600                          COMMENT
4800 Oak Grove Drive, Pasadena CA 91109 USA                 COMMENT
                                                            COMMENT
Forced Modulo Decimation to 30 seconds                      COMMENT
 SNR is mapped to RINEX snr flag value [0-9]                COMMENT
  L1 & L2: min(max(int(snr_dBHz/6), 0), 9)                  COMMENT
pseudorange smoothing corrections not applied               COMMENT
clockShift applied 466.79 L1, 478.44 L2 (ns)                COMMENT
  2016    11    15     0     0    0.0000000     GPS         TIME OF FIRST OBS
                                                            END OF HEADER
 16 11 15  0  0  0.0000000  0 10G14G22G01G11G03G31G25G32G12G10
 -20776034.97447 -15910681.98047  20844042.2874   20844040.8544   20844042.778
        47.2004         44.4004
 -15085684.53847 -11310472.16846  22135751.3134   22135749.5274   22135753.032
        44.1004         41.4004
 -12172021.13547  -9463341.42346  22032951.5594   22032953.7164   22032951.172
        43.7004         40.9004
  -5299361.48546  -3891850.90346  23411560.6694   23411559.2534   23411560.672
        38.7004         36.4004
  -9509478.59046  -7162133.95546  23505608.9204   23505610.9494   23505608.176
        39.6004         37.1004
 -24724870.78648 -19253659.01147  20102867.7904   20102865.8424   20102867.483
        50.2004         47.2004
  -5398663.76446  -4196868.47946  23247244.0274   23247246.1444   23247245.442
        39.2004         36.7004
 -13623960.47847 -10600861.83647  21839497.2754   21839498.8494   21839497.031
        45.8004         43.0004
  -2036521.75746  -1574499.92845  24759787.2364   24759782.9714   24759787.186
        36.4004         34.8004
 -10343359.83746  -8036490.65146  22978559.2094   22978561.2144   22978559.317
        41.8004         39.0004
 16 11 15  0  0 30.0000000  0 11G14G22G01G11G03G23G31G25G32G12G10
 -20755207.51147 -15894452.77747  20848005.6164   20848004.8484   20848005.982
        47.2004         44.4004
 -15163368.50847 -11371005.10546  22120969.3374   22120966.6124   22120970.313
        44.2004         41.2004
 -12169907.21247  -9461694.21146  22033354.7104   22033354.8224   22033353.568
        43.9004         40.9004
  -5240311.42746  -3845837.88846  23422796.9404   23422795.7794   23422797.629
        38.5004         36.0004
  -9605058.45546  -7236611.73646  23487420.2874   23487421.9344   23487419.813
        39.6004         36.9004
   -310908.99344    -14252.757            .000    25813752.539        -139.940
        26.4004          1.500
 -24738577.04848 -19264339.19747  20100259.2954   20100257.6754   20100259.230
        50.2004         47.2004
  -5403978.83546  -4201010.04446  23246234.1934   23246235.9604   23246234.011
        39.2004         36.9004
 -13565730.64547 -10555487.92947  21850578.2984   21850579.9944   21850577.843
        45.8004         42.8004
  -1986996.75746  -1535908.98445  24769209.0584   24769209.5084   24769209.296
        36.3004         34.8004
 -10253675.81946  -7966607.03146  22995626.5614   22995627.5784   22995625.585
        41.6004         39.0004
 16 11 15  0  1  0.0000000  0 11G14G22G01G11G03G23G31G25G32G12G10
 -20734176.45947 -15878064.92947  20852007.6304   20852006.6104   20852008.008
        47.4004         44.4004
 -15240840.92247 -11431373.20146  22106227.0124   22106223.9284   22106227.779
        44.2004         41.4004
 -12167202.41347  -9459586.56046  22033868.4874   22033870.7364   22033868.296
        44.1004         41.2004
  -5180887.91446  -3799533.86545  23434106.2354   23434102.8834   23434105.166
        38.3004         35.9004
  -9700541.46446  -7311014.04946  23469250.6214   23469252.5554   23469250.041
        39.4004         37.1004
   -388996.87444    -83220.110 2          .000    25796958.190        -139.940
        26.4004         14.000
 -24751700.50548 -19274565.25147  20097762.0564   20097760.2814   20097761.726
        50.2004         47.0004
  -5408706.57046  -4204693.95646  23245334.7344   23245336.1774   23245334.748
        39.4004         37.1004
 -13507353.43447 -10509999.17847  21861687.2824   21861688.2554   21861686.501
        45.6004         42.8004
  -1936953.50945  -1496914.23045  24778730.7354   24778723.7764   24778729.038
        35.2004         32.9004
 -10163735.71446  -7896523.84746  23012741.0204   23012743.3944   23012740.600
        41.6004         38.8004
 16 11 15  0  1 30.0000000  0 11G14G22G01G11G03G23G31G25G32G12G10
 -20712941.97647 -15861518.56447  20856048.3704   20856047.5654   20856048.857
        47.4004         44.4004
 -15318099.75547 -11491574.86346  22091525.2184   22091522.3414   22091526.064
        44.4004         41.6004
 -12163907.12747  -9457018.79446  22034495.4604   22034497.6694   22034495.607
        44.1004         41.2004
  -5121094.13846  -3752941.32046  23445483.6554   23445482.4224   23445483.795
        38.5004         36.2004
  -9795925.70846  -7385339.40246  23451099.3174   23451100.7044   23451099.061
        39.4004         36.7004
   -467071.10044   -153191.006 2          .000    25779861.287        -139.940
        26.4004         15.400
 -24764241.34448 -19284337.32147  20095375.5944   20095373.6994   20095375.336
        50.2004         47.2004
  -5412846.13946  -4207919.56046  23244546.7384   23244549.1824   23244546.738
        39.6004         37.3004
 -13448829.39947 -10464396.02747  21872823.4224   21872825.2464   21872823.147
        45.6004         42.6004
  -1886393.98445  -1457517.15045  24788343.2144   24788348.6504   24788346.002
        34.9004         32.2004
 -10073540.75646  -7826242.09846  23029904.1454   23029907.9514   23029904.072
        41.3004         38.6004
 16 11 15  0  2  0.0000000  0 10G14G22G01G11G03G31G25G32G12G10
 -20691504.87147 -15844814.30947  20860127.6854   20860126.8074   20860128.224
        47.4004         44.4004
 -15395142.97647 -11551608.51946  22076864.5534   22076862.0084   22076864.971
        44.4004         41.6004
 -12160021.80747  -9453991.26646  22035233.7124   22035236.6504   22035234.779
        44.1004         41.2004
  -5060933.07546  -3706062.58246  23456931.0524   23456930.1604   23456932.102
        38.5004         36.0004
  -9891209.25246  -7459586.29346  23432967.4064   23432969.1184   23432966.763
        39.2004         36.7004
 -24776199.97348 -19293655.71447  20093099.8484   20093098.0004   20093099.703
        50.2004         47.2004
  -5416396.78646  -4210686.27346  23243871.3094   23243873.7414   23243870.863
        39.7004         37.4004
 -13390159.08947 -10418678.88147  21883988.4114   21883989.7414   21883987.714
        45.5004         42.5004
  -1835319.76645  -1417718.98545  24798069.3994   24798069.3594   24798070.249
        34.7004         33.1004
  -9983092.12546  -7755762.67646  23047115.9244   23047118.5914   23047115.602
        41.1004         38.3004
 16 11 15  0  2 30.0000000  0 10G14G22G01G11G03G31G25G32G12G10
 -20669865.65547 -15827952.56847  20864245.4374   20864244.7884   20864245.956
        47.4004         44.4004
 -15471968.39147 -11611472.45946  22062245.0634   22062242.8354   22062245.341
        44.6004         41.6004
 -12155546.89147  -9450504.31246  22036086.2484   22036088.5104   22036086.157
        44.2004         41.2004
  -5000407.33146  -3658899.67846  23468448.8064   23468448.7594   23468449.629
        38.5004         36.0004
  -9986390.13346  -7533753.18746  23414854.8204   23414856.6004   23414854.480
        39.0004         36.6004
 -24787576.27848 -19302520.34747  20090935.0844   20090933.3294   20090934.899
        50.2004         47.2004
  -5419357.82046  -4212993.54946  23243307.4394   23243308.2614   23243307.587
        39.7004         37.3004
 -13331343.07147 -10372848.20347  21895180.5624   21895181.8984   21895179.959
        45.3004         42.5004
  -1783731.95345  -1377520.80545  24807892.5254   24807872.7244   24807890.460
        34.3004         32.4004
  -9892391.03546  -7685086.52746  23064375.3334   23064378.5754   23064375.193
        40.8004         38.1004
 16 11 15  0  3  0.0000000  0 11G14G22G01G11G03G23G31G25G32G12G10
 -20648024.90847 -15810933.78947  20868401.4224   20868400.8204   20868402.168
        47.2004         44.4004
 -15548574.28447 -11671165.34946  22047667.2954   22047665.1074   22047667.554
        44.6004         41.8004
 -12150482.91147  -9446558.35446  22037049.9094   22037052.0924   22037049.412
        44.1004         41.4004
  -4939519.84546  -3611454.89246  23480036.3054   23480035.9964   23480035.980
        38.3004         36.2004
 -10081466.40446  -7607838.56346  23396761.9074   23396763.8144   23396761.886
        38.9004         36.6004
    -17618.73044      -587.333            .000            .000        -139.940
        26.4004           .000
 -24798371.36948 -19310932.09147  20088880.7004   20088878.9964   20088880.579
        50.2004         47.2004
  -5421728.52846  -4214840.81946  23242854.7994   23242857.1594   23242856.063
        39.6004         36.9004
 -13272381.83547 -10326904.37347  21906400.9184   21906401.5514   21906399.930
        45.3004         42.3004
  -1731632.32045  -1336923.63945  24817805.3214   24817803.1484   24817804.100
        35.7004         34.6004
  -9801438.68046  -7614214.59446  23081683.3454   23081686.2154   23081682.638
        40.6004         37.9004
 16 11 15  0  3 30.0000000  0 11G14G22G01G11G03G23G31G25G32G12G10
 -20625983.01147 -15793758.27547  20872595.9094   20872594.8724   20872596.350
        47.2004         44.4004
 -15624958.36047 -11730685.39546  22033132.0664   22033129.7904   22033132.270
        44.6004         41.8004
 -12144830.34847  -9442153.75246  22038125.1904   22038127.5514   22038124.838
        44.1004         41.2004
  -4878273.42746  -3563730.41246  23491691.7514   23491689.6054   23491691.093
        38.5004         36.0004
 -10176436.09946  -7681840.89346  23378690.4574   23378692.4044   23378689.721
        38.9004         36.4004
    -95639.13144      -587.333            .000            .000        -139.940
        26.4004           .000
 -24808585.68448 -19318891.28047  20086936.7954   20086935.2764   20086936.812
        50.2004         47.0004
  -5423508.13946  -4216227.49846  23242517.0014   23242518.2084   23242517.537
        39.4004         36.9004
 -13213275.94347 -10280847.81947  21917647.3154   21917649.5384   21917647.511
        45.3004         42.3004
  -1679022.60046  -1295929.02445  24827814.0234   24827813.8104   24827813.680
        36.1004         34.8004
  -9710236.30246  -7543147.82646  23099037.8244   23099041.4204   23099037.859
        40.4004         37.9004
 16 11 15  0  4  0.0000000  0 12G14G22G01G11G03G23G31G25G32G12G26G10
 -20603740.60447 -15776426.51347  20876828.5874   20876827.8284   20876828.908
        47.2004         44.4004
 -15701118.47347 -11790030.92446  22018638.5984   22018636.6664   22018639.677
        44.8004         41.9004
 -12138589.79647  -9437290.98946  22039313.0944   22039315.4414   22039312.413
        44.1004         41.4004
  -4816670.57946  -3515728.20146  23503413.7714   23503412.1544   23503414.047
        38.3004         36.0004
 -10271297.26746  -7755758.65546  23360637.6174   23360640.5234   23360637.737
        38.9004         36.6004
   -173645.77544      -587.333            .000            .000        -139.940
        26.4004           .000
 -24818219.22748 -19326397.92247  20085103.7814   20085101.8894   20085103.496
        50.2004         47.2004
  -5424696.10746  -4217153.16546  23242291.2544   23242293.2864   23242291.015
        39.4004         36.9004
 -13154025.88147 -10234678.93447  21928922.5804   21928924.4974   21928922.274
        45.1004         42.1004
  -1625904.42546  -1254538.26745  24837922.3314   24837918.9904   24837921.657
        36.1004         34.1004
    -24216.08544     -6393.82743          .000            .000    24573784.298
        26.4004         23.4004
  -9618785.09546  -7471887.18446  23116440.6814   23116443.4054   23116441.227
        40.4004         37.9004
 16 11 15  0  4 30.0000000  0 11G14G22G01G11G03G31G25G32G12G26G10
 -20581298.26547 -15758938.96747  20881099.4114   20881098.2024   20881099.666
        47.2004         44.4004
 -15777052.82047 -11849200.52946  22004188.9114   22004186.9274   22004189.830
        44.8004         41.9004
 -12131761.77647  -9431970.44846  22040612.4364   22040614.5894   22040611.948
        44.1004         41.1004
  -4754715.02646  -3467451.16846  23515204.0914   23515200.8054   23515203.622
        38.2004         36.0004
 -10366047.87446  -7829590.28346  23342608.3764   23342610.0254   23342607.643
        39.0004         36.7004
 -24827272.69648 -19333452.56347  20083380.9614   20083379.2384   20083380.630
        50.2004         47.2004
  -5425291.75846  -4217617.28046  23242177.8764   23242179.8484   23242178.206
        39.2004         36.7004
 -13094632.21647 -10188398.15146  21940225.0534   21940226.6214   21940224.537
        44.9004         41.9004
  -1572279.73046  -1212752.75245  24848125.7784   24848125.0894   24848126.666
        36.3004         34.5004
   -124418.24944    -83171.644 3          .000    24555040.306        -139.940
        26.4004         18.900
  -9527086.35746  -7400433.64546  23133890.9874   23133892.9574   23133890.791
        40.6004         38.1004
 16 11 15  0  5  0.0000000  0 12G14G22G01G11G03G23G31G25G32G12G26G10
 -20558656.56447 -15741296.06947  20885407.4914   20885407.3354   20885408.184
        47.2004         44.4004
 -15852759.04447 -11908192.37247  21989782.0334   21989780.9894   21989783.510
        44.9004         42.1004
 -12124346.91347  -9426192.63146  22042023.5374   22042025.9234   22042022.987
        44.1004         41.1004
  -4692409.22246  -3418901.21745  23527059.4214   23527060.3234   23527059.766
        38.0004         35.9004
 -10460686.00246  -7903334.24846  23324599.2804   23324601.1074   23324598.887
        39.2004         36.9004
    -84306.65544    -53685.95044          .000            .000    25674458.251
        26.4004         24.9004
 -24835746.45748 -19340055.47747  20081768.2924   20081766.5994   20081768.172
        50.2004         47.2004
  -5425294.56746  -4217619.42846  23242177.2394   23242179.3834   23242177.309
        39.2004         36.7004
 -13035095.43147 -10142005.84346  21951554.6844   21951556.1794   21951553.899
        44.9004         41.9004
  -1518150.03446  -1170573.80345  24858428.2234   24858425.8194   24858427.580
        36.3004         34.3004
   -224643.56144   -158665.354 3          .000    24536602.837        -139.940
        27.2004         21.700
  -9435141.29346  -7328788.17446  23151387.2774   23151389.5214   23151387.669
        40.6004         37.9004
 16 11 15  0  5 30.0000000  0 12G14G22G01G11G03G23G31G25G32G12G26G10
 -20535816.04747 -15723498.24947  20889754.1554   20889753.3124   20889754.582
        47.2004         44.2004
 -15928235.10247 -11967004.85847  21975420.0504   21975418.0064   21975421.096
        44.9004         42.1004
 -12116345.80347  -9419957.98546  22043546.4324   22043547.7834   22043545.845
        43.9004         40.9004
  -4629756.09546  -3370080.60545  23538982.7174   23538981.0364   23538982.069
        38.2004         35.9004
 -10555209.59746  -7976988.97746  23306612.1754   23306613.6624   23306611.354
        39.6004         37.3004
   -162272.97344   -110388.529 2          .000    25660606.366        -139.940
        26.4004         16.800
 -24843641.08148 -19346207.11447  20080266.1744   20080264.4984   20080266.018
        50.2004         47.2004
  -5424703.81846  -4217159.09046  23242288.3274   23242292.2614   23242289.655
        39.2004         36.9004
 -12975416.02847 -10095502.39547  21962911.3954   21962913.0004   21962910.823
        44.9004         42.1004
  -1463516.76445  -1128002.39845  24868821.7454   24868821.0034   24868822.272
        35.6004         33.8004
   -324889.10045   -240684.04245  24516566.7254   24516570.3834   24516566.688
        35.7004         34.6004
  -9342951.15446  -7256951.70046  23168931.6184   23168932.6744   23168930.761
        40.4004         37.8004
 16 11 15  0  6  0.0000000  0 12G14G22G01G11G03G23G31G25G32G12G26G10
 -20512777.17147 -15705545.86547  20894138.3974   20894137.4354   20894138.769
        47.2004         44.2004
 -16003479.17147 -12025636.58246  21961101.9474   21961098.6484   21961102.802
        44.9004         41.9004
 -12107759.12347  -9413267.05746  22045179.9404   22045181.9494   22045180.159
        43.9004         41.2004
  -4566758.79246  -3320991.80845  23550969.9944   23550967.4934   23550970.526
        38.2004         35.7004
 -10649616.68646  -8050552.92446  23288646.8394   23288648.4404   23288646.612
        39.7004         37.4004
   -240225.75844   -175180.85145          .000    25644782.5324   25644787.112
        28.8004         31.9004
 -24850957.07848 -19351907.87747  20078873.9564   20078872.3094   20078873.669
        50.2004         47.2004
  -5423519.05946  -4216235.87546  23242514.7644   23242516.5694   23242514.706
        39.4004         36.9004
 -12915594.51847 -10048888.21547  21974295.1294   21974296.4464   21974294.412
        44.9004         42.1004
  -1408382.44845  -1085040.57745  24879313.7234   24879314.3774   24879314.116
        34.9004         33.4004
   -425151.94846   -318810.85845  24497487.6334   24497493.7224   24497487.725
        36.8004         34.8004
  -9250517.21746  -7184925.29846  23186520.1324   23186522.8884   23186520.555
        40.4004         37.8004
 16 11 15  0  6 30.0000000  0 12G14G22G01G11G03G23G31G25G32G12G26G10
 -20489540.46947 -15687439.32647  20898560.0244   20898559.0324   20898560.595
        47.2004         44.2004
 -16078489.17047 -12084085.89746  21946827.9734   21946825.2784   21946828.771
        44.9004         41.8004
 -12098587.53347  -9406120.35446  22046925.9364   22046926.7824   22046925.183
        43.9004         41.1004
  -4503420.05446  -3271636.96945  23563023.2074   23563022.7384   23563023.184
        38.2004         35.9004
 -10743905.24446  -8124024.49246  23270704.4144   23270706.3954   23270704.230
        39.9004         37.6004
   -318165.16245   -235912.74945          .000    25629953.5134   25629954.532
        33.7004         32.7004
 -24857694.89948 -19357158.11147  20077591.7814   20077590.0034   20077591.444
        50.2004         47.2004
  -5421739.75846  -4214849.37646  23242853.4594   23242855.8804   23242853.554
        39.4004         37.1004
 -12855631.42147 -10002163.70947  21985706.0234   21985707.3224   21985705.216
        45.1004         42.1004
  -1352748.11945  -1041689.15245  24889901.2384   24889902.8204   24889900.514
        34.9004         32.7004
   -525429.26546   -396948.91245  24478402.2194   24478409.8434   24478404.528
        36.4004         34.5004
  -9157840.73646  -7112709.87646  23204155.7154   23204159.0444   23204156.073
        40.4004         37.8004
 16 11 15  0  7  0.0000000  0 12G14G22G01G11G03G23G31G25G32G12G26G10
 -20466106.17747 -15669178.82847  20903019.2334   20903018.8244   20903019.974
        47.2004         44.2004
 -16153262.79347 -12142351.03146  21932597.9714   21932596.2654   21932599.286
        44.8004         41.6004
 -12088831.72747  -9398518.40846  22048781.9414   22048783.7524   22048781.304
        43.9004         41.1004
  -4439742.72846  -3222018.28546  23575140.2724   23575140.4444   23575140.446
        38.2004         36.0004
 -10838073.24446  -8197402.13446  23252784.9074   23252787.0494   23252784.796
        40.1004         37.6004
   -396091.29045   -296634.19545  25615125.7984   25615123.5154   25615125.178
        35.2004         33.8004
 -24863855.11648 -19361958.26547  20076419.5384   20076417.8994   20076419.240
        50.2004         47.2004
  -5419365.39646  -4212999.19346  23243305.2474   23243306.4254   23243305.781
        39.6004         37.3004
 -12795527.21847  -9955329.25847  21997142.7504   21997144.9954   21997142.395
        45.1004         42.1004
  -1296615.50845   -997949.34645  24900582.5774   24900581.5324   24900583.630
        35.0004         33.6004
   -625718.23646   -475096.04845  24459321.7054   24459324.7864   24459320.490
        36.3004         34.1004
  -9064923.01646  -7040306.49146  23221837.9794   23221840.4234   23221837.729
        40.4004         37.8004
 16 11 15  0  7 30.0000000  0 12G14G22G01G11G03G23G31G25G32G12G26G10
 -20442475.23347 -15650765.08947  20907516.4964   20907515.5454   20907516.652
        47.0004         44.2004
 -16227798.26447 -12200430.57846  21918415.0554   21918412.0574   21918415.364
        44.6004         41.6004
 -12078492.42047  -9390461.78046  22050749.1814   22050752.0174   22050748.598
        43.9004         41.1004
  -4375729.94246  -3172138.21145  23587321.8574   23587321.2374   23587321.303
        38.0004         35.9004
 -10932118.70246  -8270684.28546  23234888.7294   23234890.6084   23234888.490
        40.3004         37.6004
   -474004.08346   -357345.30045  25600298.5624   25600298.1414   25600299.120
        36.3004         34.6004
 -24869438.33848 -19366308.81047  20075357.0004   20075355.3244   20075356.710
        50.2004         47.2004
  -5416395.53846  -4210684.99046  23243870.4984   23243872.2044   23243870.975
        39.7004         37.4004
 -12735282.35547  -9908385.19147  22008607.0864   22008608.6834   22008606.705
        45.1004         42.1004
  -1239986.38245   -953822.74045  24911359.6814   24911355.1804   24911358.782
        35.2004         33.8004
   -726015.84345   -553249.97545  24440234.7484   24440238.8474   24440234.184
        35.9004         34.1004
  -8971765.29346  -6967716.08946  23239565.7114   23239568.2084   23239565.438
        40.4004         37.6004
 16 11 15  0  8  0.0000000  0 12G14G22G01G11G03G23G31G25G32G12G26G10
 -20418647.88047 -15632198.31347  20912050.3394   20912049.4474   20912050.779
        47.0004         44.0004
 -16302093.20047 -12258322.71246  21904276.6484   21904273.8074   21904277.346
        44.4004         41.4004
 -12067570.38047  -9381951.08746  22052827.5554   22052829.0944   22052827.337
        43.9004         41.1004
  -4311384.71446  -3121999.06545  23599565.5614   23599565.7254   23599565.925
        38.2004         35.9004
 -11026039.56046  -8343869.34246  23217016.7234   23217017.9844   23217016.163
        40.3004         37.6004
   -551903.84946   -418046.24845  25585474.6384   25585473.1704   25585475.151
        36.8004         35.0004
 -24874445.58348 -19370210.54747  20074404.2004   20074402.3474   20074403.884
        50.2004         47.2004
  -5412829.75146  -4207906.42446  23244547.9884   23244551.0064   23244549.173
        39.7004         37.3004
 -12674897.37547  -9861331.95247  22020098.2724   22020099.0274   22020097.713
        45.1004         42.1004
  -1182862.91246   -909310.95645  24922228.3814   24922229.7214   24922228.957
        36.3004         34.6004
   -826319.39945   -631408.48245  24421146.6754   24421154.3034   24421145.494
        35.6004         33.6004
  -8878368.88146  -6894939.70346  23257338.0694   23257339.6644   23257338.075
        40.3004         37.4004
 16 11 15  0  8 30.0000000  0 12G14G22G01G11G03G23G31G25G32G12G26G10
 -20394624.74247 -15613478.97147  20916621.4984   20916621.1704   20916622.209
        47.0004         44.0004
 -16376145.57847 -12316025.84046  21890184.6784   21890182.6214   21890185.500
        44.4004         41.6004
 -12056066.36747  -9372986.91846  22055016.5254   22055018.7764   22055016.283
        43.9004         41.1004
  -4246709.70246  -3071602.97345  23611872.6374   23611871.4444   23611873.451
        38.0004         35.7004
 -11119833.74846  -8416955.70446  23199168.6744   23199169.4814   23199167.924
        40.4004         37.8004
   -629790.54746   -478737.00445  25570653.7434   25570653.0894   25570653.745
        37.3004         35.5004
 -24878877.02848 -19373663.60447  20073560.8284   20073559.1314   20073560.675
        50.2004         47.2004
  -5408667.61946  -4204663.17846  23245340.7804   23245343.4024   23245341.236
        39.7004         37.3004
 -12614372.74947  -9814169.89647  22031616.1564   22031616.1474   22031615.135
        45.1004         42.3004
  -1125247.06546   -864415.42645  24933193.5764   24933193.0734   24933193.039
        36.1004         34.5004
   -926625.85045   -709569.25445  24402060.0244   24402065.2404   24402058.763
        35.7004         34.1004
  -8784735.05746  -6821978.31046  23275155.9984   23275158.6464   23275156.173
        40.1004         37.6004
 16 11 15  0  9  0.0000000  0 12G14G22G01G11G03G23G31G25G32G12G26G10
 -20370406.28847 -15594607.43547  20921230.6624   20921229.8674   20921230.644
        46.9004         44.0004
 -16449953.38347 -12373538.39246  21876140.0004   21876137.6834   21876140.615
        44.6004         41.6004
 -12043981.19047  -9363569.88546  22057315.7014   22057318.5114   22057316.034
        43.9004         41.1004
  -4181708.04846  -3020952.35446  23624243.8814   23624242.4714   23624243.096
        38.2004         36.0004
 -11213499.25746  -8489941.79146  23181343.9144   23181345.6994   23181343.570
        40.4004         37.8004
   -707663.90746   -539417.38145  25555835.3334   25555833.3654   25555835.079
        37.6004         35.3004
 -24882733.43248 -19376668.57647  20072827.3224   20072825.2844   20072827.047
        50.2004         47.3004
  -5403908.74646  -4200954.93446  23246247.0814   23246248.6464   23246246.563
        39.9004         37.6004
 -12553708.91647  -9766899.35947  22043159.5014   22043160.8004   22043159.039
        45.1004         42.1004
  -1067139.93645   -819137.15045  24944250.8544   24944249.7514   24944249.088
        35.0004         32.9004
  -1026932.32446   -787730.08145  24382971.0244   24382977.5394   24382971.746
        36.1004         34.5004
  -8690865.16346  -6748832.96146  23293019.9424   23293021.1194   23293018.749
        40.1004         37.4004
 16 11 15  0  9 30.0000000  0 12G14G22G01G11G03G23G31G25G32G12G26G10
 -20345993.15247 -15575584.20047  20925875.9104   20925875.4684   20925876.490
        46.9004         43.9004
 -16523514.48447 -12430858.70847  21862142.3124   21862139.6354   21862142.712
        44.8004         42.1004
 -12031315.65447  -9353700.63046  22059726.4404   22059729.2714   22059726.211
        43.7004         40.9004
  -4116382.92146  -2970049.66145  23636674.5184   23636672.0574   23636673.878
        38.2004         35.7004
 -11307033.98646  -8562825.97246  23163545.5884   23163546.7984   23163544.751
        40.4004         37.9004
   -785524.18846   -600087.59445  25541018.9664   25541016.1454   25541018.963
        37.6004         35.5004
 -24886015.32948 -19379225.87847  20072202.7584   20072200.6274   20072202.649
        50.3004         47.3004
  -5398552.79846  -4196781.43546  23247266.1014   23247267.3594   23247266.222
        39.9004         37.4004
 -12492906.37447  -9719520.73647  22054729.8974   22054730.6794   22054729.194
        45.1004         42.3004
  -1008544.08345   -773478.07245  24955397.7144   24955402.1224   24955400.531
        35.4004         33.6004
  -1127235.92646   -865888.65545  24363885.3074   24363891.1234   24363884.652
        36.1004         34.1004
  -8596760.46846  -6675504.65646  23310925.7714   23310928.8944   23310926.053
        39.7004         37.3004
 16 11 15  0 10  0.0000000  0 12G14G22G01G11G03G23G31G25G32G12G26G10
 -20321385.52947 -15556409.42047  20930558.8154   20930557.7244   20930559.137
        46.9004         43.9004
 -16596826.72347 -12487985.11247  21848190.9924   21848188.4044   21848192.017
        45.1004         42.1004
 -12018070.61147  -9343379.81346  22062246.8324   22062249.4914   22062246.542
        43.9004         40.9004
  -4050736.86846  -2918896.90145  23649166.3124   23649165.4764   23649165.676
        38.0004         35.7004
 -11400435.89846  -8635606.65846  23145771.6864   23145772.7594   23145770.603
        40.4004         37.9004
   -863371.50546   -660747.70945  25526203.4334   25526203.7574   25526204.526
        37.6004         35.3004
 -24888723.65748 -19381336.24347  20071687.2564   20071685.4544   20071687.052
        50.3004         47.3004
  -5392599.46246  -4192142.44946  23248399.0424   23248400.5704   23248399.172
        40.1004         37.4004
 -12431965.57747  -9672034.38747  22066326.9234   22066327.3524   22066326.265
        45.1004         42.3004
   -949461.48945   -727439.64445  24966641.7144   24966640.3724   24966643.281
        34.7004         33.3004
  -1227533.73746   -944042.74545  24344798.8854   24344802.8364   24344798.469
        36.6004         34.8004
  -8502422.33946  -6601994.44646  23328878.0864   23328881.1174   23328877.342
        39.7004         37.3004
 16 11 15  0 10 30.0000000  0 12G14G22G01G11G03G23G31G25G32G12G26G10
 -20296583.99747 -15537083.54147  20935278.4984   20935277.3014   20935278.834
        46.9004         43.9004
 -16669887.96747 -12544915.92247  21834287.9234   21834285.8634   21834289.039
        45.3004         42.3004
 -12004246.97647  -9332608.13446  22064876.8194   22064881.0744   22064877.260
        43.9004         41.2004
  -3984773.42046  -2867496.81845  23661718.1894   23661718.1434   23661718.224
        37.8004         35.5004
 -11493702.89846  -8708282.21646  23128023.6374   23128024.8584   23128022.515
        40.6004         37.9004
   -941205.91546   -721397.78445  25511392.9004   25511391.5244   25511393.073
        37.5004         35.2004
 -24890858.96748 -19383000.10047  20071280.6524   20071279.0774   20071280.432
        50.2004         47.2004
  -5386048.39746  -4187037.68046  23249646.0314   23249647.4174   23249645.426
        39.9004         37.4004
 -12370886.98947  -9624440.66847  22077949.4544   22077950.1774   22077949.029
        45.1004         42.3004
   -889893.72445   -681023.22345  24977975.9314   24977978.4924   24977978.261
        34.3004         32.7004
  -1327822.82146  -1022189.99945  24325713.4914   24325719.0164   24325713.828
        36.8004         34.6004
  -8407852.08846  -6528303.36046  23346873.5534   23346876.9144   23346873.270
        39.6004         36.9004
 16 11 15  0 11  0.0000000  0 12G14G22G01G11G03G23G31G25G32G12G26G10
 -20271589.02747 -15517606.92847  20940035.0584   20940033.4814   20940035.233
        46.9004         43.9004
 -16742696.02447 -12601649.45147  21820433.1914   21820431.0754   21820433.919
        45.3004         42.5004
 -11989845.62247  -9321386.29846  22067618.1944   22067620.3994   22067617.656
        44.1004         41.2004
  -3918495.08246  -2815851.38745  23674330.3234   23674330.1334   23674330.672
        38.0004         35.9004
 -11586832.90646  -8780851.02646  23110301.3144   23110302.5194   23110300.878
        40.6004         38.1004
  -1019027.26046   -782037.68845  25496583.0914   25496581.9914   25496583.487
        37.0004         34.6004
 -24892422.04748 -19384218.06247  20070983.2644   20070981.5824   20070982.877
        50.2004         47.2004
  -5378899.32046  -4181466.93946  23251005.4474   23251007.3424   23251005.490
        39.9004         37.4004
 -12309671.06647  -9576739.93747  22089598.7964   22089599.4834   22089598.372
        45.1004         42.3004
   -829842.37345   -634229.88145  24989406.6714   24989403.6394   24989406.536
        34.7004         33.6004
  -1428100.25446  -1100328.15645  24306632.6134   24306636.2214   24306631.746
        36.6004         34.8004
  -8313051.05046  -6454432.45346  23364914.0154   23364917.8534   23364913.553
        39.6004         36.9004
 16 11 15  0 11 30.0000000  0 12G14G22G01G11G03G23G31G25G32G12G26G10
 -20246401.17847 -15497980.01747  20944827.7224   20944826.6104   20944828.340
        46.9004         43.9004
 -16815249.06347 -12658184.26547  21806627.0254   21806623.6804   21806627.541
        45.3004         42.3004
 -11974867.46147  -9309714.99246  22070467.8524   22070470.8234   22070467.945
        43.9004         40.9004
  -3851904.83846  -2763962.87345  23687002.1524   23687002.3824   23687002.331
        37.8004         35.7004
 -11679823.86846  -8853311.48746  23092605.2154   23092607.1514   23092604.830
        40.8004         38.3004
  -1096835.53146   -842667.35845  25481778.6934   25481775.9064   25481776.901
        36.3004         34.1004
 -24893413.88248 -19384990.89547  20070794.4394   20070792.7414   20070794.192
        50.2004         47.2004
  -5371152.05646  -4175430.08046  23252479.8444   23252481.8764   23252480.032
        39.9004         37.3004
 -12248318.25347  -9528932.53847  22101273.3694   22101274.1564   22101273.138
        45.3004         42.3004
   -769309.28345   -587061.20845  25000926.3944   25000922.6344   25000924.766
        33.8004         32.4004
  -1528363.08846  -1178454.99645  24287553.7084   24287558.2824   24287552.250
        37.1004         35.3004
  -8218020.55246  -6380382.75646  23382998.5104   23383000.8734   23382997.887
        39.6004         37.3004
 16 11 15  0 12  0.0000000  0 12G14G22G01G11G03G23G31G25G32G12G26G10
 -20221020.89847 -15478203.16447  20949657.9084   20949656.7374   20949657.915
        46.9004         43.7004
 -16887544.82247 -12714518.59847  21792869.4034   21792867.0734   21792870.046
        45.5004         42.5004
 -11959313.45247  -9297594.97246  22073427.5524   22073429.6444   22073427.937
        43.9004         41.1004
  -3785006.20846  -2711834.08645  23699732.5064   23699731.5784   23699733.019
        38.0004         35.5004
 -11772673.62546  -8925661.90846  23074936.8244   23074938.8704   23074936.906
        40.9004         38.5004
  -1174630.96445   -903287.07045  25466973.3304   25466970.4104   25466972.560
        35.7004         33.6004
 -24893835.01148 -19385319.02647  20070714.3434   20070712.5264   20070714.126
        50.2004         47.2004
  -5362806.29746  -4168926.86346  23254067.4884   23254070.1204   23254068.301
        39.7004         37.3004
 -12186829.01147  -9481018.83847  22112974.4534   22112975.5284   22112974.110
        45.1004         42.3004
   -708296.98745   -539519.10745  25012537.6554   25012530.6804   25012536.672
        33.8004         32.6004
  -1628608.39646  -1256568.16545  24268475.6014   24268481.3664   24268476.036
        37.6004         35.7004
  -8122761.96146  -6306155.32446  23401125.3304   23401127.5754   23401125.487
        39.7004         37.3004
 16 11 15  0 12 30.0000000  0 12G14G22G01G11G03G23G31G25G32G12G26G10
 -20195448.54647 -15458276.64547  20954523.9244   20954523.0074   20954524.222
        46.7004         43.9004
 -16959581.18647 -12770650.81247  21779161.2664   21779158.8474   21779161.993
        45.5004         42.5004
 -11943184.57647  -9285027.00846  22076496.8554   22076498.8924   22076497.045
        43.9004         40.9004
  -3717801.92446  -2659467.12045  23712520.9694   23712519.3254   23712521.494
        38.0004         35.9004
 -11865380.11146  -8997900.70146  23057295.3704   23057297.3154   23057294.646
        41.1004         38.5004
  -1252413.40445   -963896.62045  25452169.0674   25452169.0364   25452170.951
        34.7004         32.9004
 -24893686.59048 -19385203.35047  20070742.8034   20070740.6884   20070742.424
        50.2004         47.2004
  -5353861.94246  -4161957.21246  23255770.8564   23255772.6004   23255770.479
        39.7004         37.1004
 -12125203.75947  -9432999.15247  22124701.2744   22124702.5254   22124701.101
        45.1004         42.1004
   -646807.92845   -491605.50745  25024236.9514   25024235.8704   25024237.565
        34.3004         33.1004
  -1728833.20246  -1334665.36345  24249404.6404   24249409.6534   24249404.800
        38.0004         35.9004
  -8027276.62246  -6231751.19246  23419296.0844   23419297.5704   23419295.681
        39.9004         37.4004
 16 11 15  0 13  0.0000000  0 12G14G22G01G11G03G23G31G25G32G12G26G10
 -20169684.87647 -15438201.04647  20959426.1404   20959425.5254   20959426.931
        46.7004         43.9004
 -17031355.94847 -12826579.17947  21765502.8984   21765499.8584   21765503.703
        45.5004         42.5004
 -11926481.85347  -9272011.89246  22079675.8294   22079677.5144   22079675.453
        43.9004         40.9004
  -3650294.92646  -2606864.28145  23725367.9804   23725367.0834   23725367.161
        37.8004         35.3004
 -11957941.23046  -9070026.20746  23039681.2834   23039683.6534   23039681.296
        41.1004         38.5004
  -1330182.74845  -1024495.98645  25437370.7524   25437365.4254   25437370.745
        34.3004         32.7004
 -24892969.16748 -19384644.29847  20070879.3214   20070877.3384   20070878.994
        50.2004         47.2004
  -5344318.73546  -4154520.92346  23257586.9294   23257587.4004   23257586.602
        39.7004         37.1004
 -12063442.92847  -9384873.82347  22136454.2904   22136454.3694   22136453.649
        45.1004         42.1004
   -584842.87945   -443321.06845  25036027.3704   25036026.6524   25036027.957
        34.0004         32.6004
  -1829034.56846  -1412744.33546  24230337.4754   24230342.4734   24230337.151
        38.5004         36.2004
  -7931565.92446  -6157171.46746  23437509.4544   23437511.4424   23437509.104
        39.9004         37.4004
 16 11 15  0 13 30.0000000  0 12G14G22G01G11G03G23G31G25G32G12G26G10
 -20143730.07547 -15417976.51347  20964365.5784   20964364.6394   20964365.989
        46.7004         43.7004
 -17102867.27747 -12882302.27547  21751894.7794   21751891.8024   21751895.679
        45.5004         42.5004
 -11909206.24447  -9258550.36446  22082962.8244   22082964.5394   22082962.750
        43.7004         40.9004
  -3582488.08046  -2554027.78845  23738270.5144   23738267.9734   23738270.160
        37.5004         35.2004
 -12050354.81846  -9142036.76246  23022096.1834   23022097.8884   23022095.469
        41.1004         38.5004
  -1407939.25145  -1085085.36945  25422576.4664   25422571.7044   25422575.612
        34.0004         32.6004
 -24891683.71948 -19383642.62847  20071123.7224   20071121.8844   20071123.660
        50.2004         47.3004
  -5334176.60246  -4146617.95246  23259516.5394   23259516.3724   23259516.290
        39.6004         36.9004
 -12001546.94947  -9336643.17447  22148232.4314   22148233.6544   22148231.787
        44.9004         42.1004
   -522404.61145   -394667.85545  25047910.7454   25047909.5744   25047910.044
        33.8004         32.6004
  -1929209.58346  -1490802.77346  24211274.1094   24211278.8084   24211274.525
        38.7004         36.6004
  -7835631.22846  -6082417.19446  23455764.6734   23455766.5054   23455765.344
        40.3004         37.8004
 16 11 15  0 14  0.0000000  0 12G14G22G01G11G03G23G31G25G32G12G26G10
 -20117584.43247 -15397603.26747  20969341.0004   20969339.9614   20969341.262
        46.7004         43.7004
 -17174112.96247 -12937818.36647  21738337.1174   21738333.9704   21738337.983
        45.5004         42.6004
 -11891358.85947  -9244643.29346  22086359.5704   22086361.2424   22086359.158
        43.7004         40.7004
  -3514384.55146  -2500960.11045  23751230.6264   23751229.1964   23751230.039
        37.5004         35.3004
 -12142618.78846  -9213930.72746  23004538.7014   23004540.2224   23004537.675
        41.1004         38.5004
  -1485682.95345  -1145664.78245  25407779.7854   25407782.0724   25407781.043
        33.8004         32.7004
 -24889830.94048 -19382198.87747  20071476.3834   20071474.3404   20071476.009
        50.2004         47.2004
  -5323435.38746  -4138248.15246  23261560.0884   23261561.6604   23261560.538
        39.6004         36.9004
 -11939516.26447  -9288307.56847  22160036.7414   22160037.7344   22160036.176
        44.9004         42.1004
   -459494.73645   -345647.12645  25059878.5574   25059880.3954   25059880.749
        34.2004         33.1004
  -2029355.24946  -1568838.36146  24192218.2774   24192221.7054   24192217.622
        39.0004         36.7004
  -7739473.87946  -6007489.42146  23474062.8904   23474065.2914   23474063.167
        40.3004         37.6004
 16 11 15  0 14 30.0000000  0 12G14G22G01G11G03G23G31G25G32G12G26G10
 -20091248.75047 -15377081.95047  20974352.2964   20974351.5794   20974352.791
        46.7004         43.9004
 -17245090.80747 -12993125.75547  21724830.3444   21724828.4014   21724831.520
        45.6004         42.8004
 -11872940.74647  -9230291.50146  22089864.5164   22089865.7884   22089863.743
        43.6004         40.6004
  -3445987.68946  -2447663.84745  23764244.9154   23764247.0284   23764245.348
        37.5004         35.3004
 -12234731.02646  -9285706.46446  22987010.0284   22987011.7834   22987009.549
        41.1004         38.6004
  -1563413.82645  -1206234.22845  25392988.5664   25392987.5684   25392990.042
        34.2004         33.3004
 -24887411.94648 -19380313.92347  20071936.7304   20071934.7564   20071936.517
        50.2004         47.2004
  -5312095.03846  -4129411.48846  23263717.1714   23263718.9584   23263718.206
        39.6004         37.1004
 -11877351.28447  -9239867.31047  22171865.7274   22171867.9034   22171865.546
        44.9004         42.1004
   -396115.25145   -296260.53445  25071943.0414   25071938.3744   25071942.573
        34.2004         32.9004
  -2129468.57346  -1646848.76646  24173166.9514   24173169.8744   24173166.698
        39.0004         36.6004
  -7643095.30646  -5932389.25646  23492404.7374   23492405.4804   23492403.614
        40.3004         37.8004
 16 11 15  0 15  0.0000000  0 12G14G22G01G11G03G23G31G25G32G12G26G10
 -20064723.49047 -15356412.90247  20979399.7844   20979398.9594   20979400.314
        46.7004         43.7004
 -17315798.55447 -13048222.67647  21711375.4274   21711372.4324   21711376.295
        45.8004         42.8004
 -11853953.00747  -9215495.85146  22093477.9804   22093479.2054   22093476.898
        43.4004         40.7004
  -3377300.19546  -2394141.14045  23777316.3344   23777314.6684   23777316.889
        37.5004         35.3004
 -12326689.33346  -9357362.24646  22969511.3514   22969512.5374   22969510.377
        41.3004         38.6004
  -1641131.80745  -1266793.62245  25378200.4454   25378198.9674   25378201.741
        34.5004         33.4004
 -24884427.53448 -19377988.38147  20072504.5234   20072502.7484   20072504.287
        50.2004         47.2004
  -5300155.52446  -4120107.94446  23265989.7564   23265991.7234   23265990.380
        39.4004         37.1004
 -11815052.43847  -9191322.74146  22183720.7364   22183722.1384   22183720.589
        44.9004         41.9004
   -332268.89645   -246510.11345  25084095.2604   25084089.7424   25084092.287
        34.2004         32.7004
  -2229546.62646  -1724831.69846  24154122.8724   24154126.5744   24154122.664
        39.0004         36.6004
  -7546496.88146  -5857117.77846  23510785.6194   23510787.6224   23510785.430
        40.1004         37.6004
 16 11 15  0 15 30.0000000  0 12G14G22G01G11G03G23G31G25G32G12G26G10
 -20038008.91547 -15335596.33347  20984483.4594   20984482.6594   20984483.831
        46.7004         43.7004
 -17386234.32947 -13103107.66947  21697971.6984   21697969.2324   21697972.812
        46.0004         43.0004
 -11834396.77347  -9200257.22146  22097198.8264   22097200.4224   22097198.171
        43.4004         40.6004
  -3308325.42646  -2340394.57945  23790442.5844   23790441.2084   23790442.450
        37.8004         35.7004
 -12418491.64446  -9428896.48146  22952041.3874   22952043.3184   22952041.004
        41.3004         38.6004
  -1718836.80245  -1327342.94345  25363413.3454   25363410.5264   25363414.890
        34.9004         33.8004
 -24880878.33548 -19375222.74647  20073179.7714   20073178.0294   20073179.767
        50.2004         47.2004
  -5287616.80946  -4110337.49446  23268376.0364   23268377.8314   23268376.331
        39.4004         36.9004
 -11752620.10047  -9142674.15946  22195601.3504   22195602.4034   22195601.077
        44.8004         41.8004
   -267956.78245   -196396.68245  25096328.3534   25096330.5854   25096329.559
        34.0004         32.6004
  -2329586.27546  -1802784.68846  24135085.8554   24135089.9004   24135086.123
        39.2004         36.7004
  -7449679.97746  -5781676.05546  23529208.9454   23529211.3894   23529208.987
        39.9004         37.4004
 16 11 15  0 16  0.0000000  0 11G14G22G01G11G03G23G31G25G32G26G10
 -20011105.53247 -15314632.64947  20989602.9444   20989602.3504   20989603.321
        46.7004         43.7004
 -17456396.00447 -13157779.08547  21684620.2084   21684617.9754   21684621.199
        46.0004         43.0004
 -11814273.15747  -9184576.47746  22101028.4004   22101029.9204   22101027.827
        43.4004         40.7004
  -3239066.15046  -2286426.31245  23803621.9054   23803621.6864   23803621.879
        38.0004         35.9004
 -12510135.70346  -9500307.40546  22934602.8174   22934604.2144   22934601.650
        41.3004         38.6004
  -1796529.20945  -1387882.44645  25348629.7834   25348627.9524   25348630.853
        35.6004         34.0004
 -24876765.90248 -19372018.23147  20073962.3994   20073960.6044   20073962.221
        50.2004         47.2004
  -5274478.84946  -4100100.09246  23270875.8434   23270878.1724   23270875.945
        39.4004         36.9004
 -11690054.74047  -9093921.91546  22207507.2344   22207508.4844   22207506.988
        44.8004         41.8004
  -2429584.63446  -1880705.47946  24116056.5744   24116060.6384   24116057.129
        38.9004         36.6004
  -7352646.00646  -5706065.16746  23547673.2374   23547675.9004   23547673.512
        39.7004         36.9004
 16 11 15  0 16 30.0000000  0 11G14G22G01G11G03G23G31G25G32G26G10
 -19984013.60847 -15293522.04847  20994758.2304   20994757.4934   20994758.660
        46.7004         43.7004
 -17526281.23647 -13212235.08647  21671321.6414   21671319.6564   21671322.370
        46.0004         43.0004
 -11793583.37047  -9168454.56346  22104964.9974   22104966.8394   22104964.988
        43.6004         40.7004
  -3169525.34146  -2232238.67845  23816855.1854   23816853.5724   23816855.391
        38.2004         35.9004
 -12601619.43346  -9571593.38946  22917193.6064   22917194.8294   22917192.903
        41.3004         38.8004
  -1874208.64546  -1448411.80945  25333846.7354   25333844.5454   25333847.844
        36.1004         34.1004
 -24872091.21748 -19368375.60047  20074852.0524   20074850.1234   20074851.872
        50.2004         47.2004
  -5260741.73846  -4089395.82646  23273489.1414   23273491.3594   23273490.108
        39.4004         36.9004
 -11627356.68947  -9045066.27646  22219438.1014   22219439.6524   22219438.256
        44.6004         41.8004
  -2529538.69146  -1958591.72946  24097036.2814   24097040.6634   24097036.657
        38.9004         36.6004
  -7255396.40846  -5630286.27346  23566179.6484   23566182.5534   23566179.499
        39.6004         37.3004
 16 11 15  0 17  0.0000000  0 11G14G22G01G11G03G23G31G25G32G26G10
 -19956733.52747 -15272264.83347  20999949.0864   20999948.7844   20999949.979
        46.5004         43.7004
 -17595887.79747 -13266473.95047  21658075.5374   21658074.0844   21658076.689
        45.8004         43.0004
 -11772328.58747  -9151892.38646  22109009.6424   22109012.1634   22109010.032
        43.7004         40.9004
  -3099706.08346  -2177834.06445  23830140.4414   23830139.9874   23830141.776
        38.2004         35.9004
 -12692940.59346  -9642752.69046  22899815.2554   22899816.3234   22899814.691
        41.3004         38.6004
  -1951875.32946  -1508931.23345  25319066.9494   25319066.0634   25319067.814
        36.4004         34.6004
 -24866855.10548 -19364295.49047  20075848.1794   20075846.4634   20075847.937
        50.2004         47.2004
  -5246405.44046  -4078224.66446  23276218.2464   23276219.2364   23276217.887
        39.4004         36.9004
 -11564526.41747  -8996107.61146  22231394.5024   22231395.2244   22231394.153
        44.6004         41.8004
  -2629445.35746  -2036441.01746  24078025.0154   24078028.8284   24078024.516
        38.5004         36.0004
  -7157932.60746  -5554340.47246  23584726.6604   23584728.8294   23584725.936
        39.4004         36.7004
 16 11 15  0 17 30.0000000  0 11G14G22G01G11G03G23G31G25G32G26G10
 -19929266.04247 -15250861.58647  21005176.9294   21005175.5194   21005176.904
        46.5004         43.7004
 -17665213.90147 -13320494.27447  21644883.6134   21644881.1244   21644884.205
        45.8004         42.8004
 -11750510.02847  -9134890.90946  22113162.9344   22113164.0364   22113162.244
        43.9004         41.2004
  -3029611.66646  -2123215.05745  23843479.1944   23843478.6354   23843479.543
        38.0004         35.7004
 -12784097.05646  -9713783.66746  22882469.6814   22882470.5584   22882468.819
        41.3004         38.6004
  -2029529.37046  -1569440.82045  25304290.9374   25304288.6434   25304290.344
        36.8004         34.8004
 -24861058.51948 -19359778.64847  20076951.3674   20076949.3744   20076950.935
        50.2004         47.2004
  -5231470.10846  -4066586.72546  23279060.2514   23279062.5784   23279060.900
        39.4004         37.1004
 -11501564.24547  -8947046.16546  22243375.5734   22243376.7594   22243375.526
        44.6004         41.8004
  -2729301.71846  -2114251.07345  24059021.8884   24059026.5564   24059022.329
        38.2004         35.9004
  -7060256.02446  -5478228.87346  23603313.9544   23603317.5364   23603313.360
        39.2004         36.7004
 16 11 15  0 18  0.0000000  0 11G14G22G01G11G03G23G31G25G32G26G10
 -19901611.44447 -15229312.53447  21010438.9824   21010438.3084   21010439.472
        46.5004         43.5004
 -17734257.32047 -13374294.32147  21631744.4524   21631742.3574   21631745.547
        45.6004         42.6004
 -11728128.95247  -9117451.09946  22117421.7404   22117423.2264   22117420.923
        43.9004         41.2004
  -2959244.88046  -2068383.78045  23856869.5014   23856867.8744   23856869.794
        38.0004         35.7004
 -12875086.63646  -9784684.60346  22865154.1194   22865155.5314   22865153.569
        41.1004         38.5004
  -2107170.52246  -1629940.32845  25289515.6764   25289513.8024   25289515.497
        37.0004         35.0004
 -24854702.52948 -19354825.90647  20078160.8884   20078159.0594   20078160.676
        50.2004         47.2004
  -5215935.83046  -4054482.06946  23282016.4984   23282019.3894   23282016.404
        39.6004         37.1004
 -11438470.64347  -8897882.29546  22255381.9634   22255383.3534   22255381.770
        44.4004         41.4004
  -2829104.74746  -2192019.58245  24040030.1784   24040033.7584   24040030.452
        38.2004         35.7004
  -6962368.11546  -5401952.61446  23621940.6254   23621943.0044   23621941.125
        39.0004         36.4004
 16 11 15  0 18 30.0000000  0 11G14G22G01G11G03G23G31G25G32G26G10
 -19873769.68347 -15207617.64447  21015737.2904   21015736.2734   21015737.470
        46.5004         43.5004
 -17803015.68547 -13427872.24947  21618660.3354   21618658.0144   21618661.386
        45.6004         42.8004
 -11705186.58947  -9099573.93646  22121786.9224   22121789.2634   22121786.598
        44.1004         41.2004
  -2888609.06346  -2013342.90945  23870311.0224   23870311.5834   23870311.870
        37.8004         35.5004
 -12965907.10446  -9855453.75846  22847872.2074   22847872.8574   22847871.483
        41.1004         38.5004
  -2184798.91746  -1690429.89845  25274742.9684   25274742.2434   25274744.239
        37.3004         35.2004
 -24847788.26548 -19349438.15347  20079476.7734   20079474.5504   20079476.521
        50.2004         47.2004
  -5199802.75046  -4041910.82346  23285087.1624   23285087.6834   23285087.128
        39.6004         37.1004
 -11375245.93947  -8848616.28946  22267413.4274   22267414.3894   22267412.972
        44.4004         41.4004
  -2928851.49246  -2269744.19945  24021049.2024   24021053.0634   24021048.957
        37.8004         35.5004
  -6864270.26346  -5325512.74346  23640608.3404   23640611.9834   23640608.784
        38.7004         36.6004
 16 11 15  0 19  0.0000000  0 11G14G22G01G11G03G23G31G25G32G26G10
 -19845741.55347 -15185777.53647  21021071.0824   21021069.5254   21021071.184
        46.5004         43.7004
 -17871487.28247 -13481226.71847  21605631.1494   21605628.8234   21605631.760
        45.8004         42.8004
 -11681684.27047  -9081260.44246  22126259.5354   22126261.2044   22126258.844
        43.9004         41.1004
  -2817707.18846  -1958094.68645  23883804.8034   23883803.2494   23883803.498
        37.6004         35.3004
 -13056556.32346  -9926089.48146  22830621.4204   22830622.8874   22830620.746
        41.1004         38.3004
  -2262414.68446  -1750909.63745  25259974.0664   25259970.6694   25259974.469
        37.0004         34.8004
 -24840316.67348 -19343616.11647  20080898.5634   20080896.3124   20080898.445
        50.2004         47.2004
  -5183070.99246  -4028873.06846  23288269.9754   23288271.5604   23288270.657
        39.6004         37.1004
 -11311890.52747  -8799248.43146  22279469.7054   22279470.1004   22279469.056
        44.2004         41.2004
  -3028538.89946  -2347422.57445  24002079.1694   24002083.1224   24002078.847
        37.6004         35.5004
  -6765963.94946  -5248910.45946  23659316.9534   23659318.1534   23659315.530
        38.5004         36.2004
 16 11 15  0 19 30.0000000  0 11G14G22G01G11G03G23G31G25G32G26G10
 -19817527.57147 -15163792.59747  21026439.5604   21026438.5834   21026440.135
        46.5004         43.7004
 -17939669.58447 -13534355.76447  21592656.1974   21592653.7514   21592656.940
        45.8004         42.8004
 -11657623.29447  -9062511.62346  22130837.8464   22130839.6624   22130837.445
        43.9004         41.1004
  -2746542.17546  -1902641.44745  23897346.0014   23897345.5644   23897345.554
        37.5004         35.2004
 -13147032.04946  -9996590.00546  22813404.1994   22813405.7754   22813403.984
        40.9004         38.3004
  -2340017.89146  -1811379.55745  25245208.3334   25245203.5404   25245207.122
        36.6004         34.5004
 -24832288.98048 -19337360.75447  20082426.3254   20082424.1314   20082426.036
        50.2004         47.2004
  -5165740.76746  -4015368.97946  23291568.5644   23291570.2134   23291568.379
        39.6004         37.1004
 -11248404.79447  -8749779.01646  22291550.5134   22291551.1954   22291549.882
        44.1004         41.2004
  -3128163.95446  -2425052.39945  23983120.8684   23983124.5134   23983121.196
        37.6004         35.7004
  -6667450.63446  -5172146.85446  23678060.9944   23678064.8734   23678061.252
        38.5004         36.2004
 16 11 15  0 20  0.0000000  0 11G14G22G01G11G03G23G31G25G32G26G10
 -19789127.90347 -15141662.97547  21031844.0354   21031842.8914   21031844.377
        46.5004         43.5004
 -18007560.75647 -13587257.95847  21579737.1554   21579734.1404   21579737.911
        45.8004         43.0004
 -11633004.97547  -9043328.52246  22135522.3324   22135524.9264   22135522.203
        43.7004         40.9004
  -2675117.17946  -1846985.61345  23910938.7404   23910937.8614   23910937.856
        37.3004         35.0004
 -13237332.08946 -10066953.64546  22796220.6124   22796222.6484   22796219.555
        40.9004         38.3004
  -2417608.17645  -1871839.44445  25230440.7684   25230439.0144   25230441.498
        35.9004         33.8004
 -24823706.26348 -19330672.90747  20084059.2304   20084057.3294   20084059.083
        50.2004         47.2004
  -5147812.30846  -4001398.73246  23294979.6394   23294982.3204   23294980.335
        39.6004         36.9004
 -11184789.07647  -8700208.31446  22303656.1224   22303657.3344   22303655.633
        44.1004         41.2004
  -3227723.68946  -2502631.30645  23964175.2434   23964178.4364   23964175.683
        37.8004         35.9004
  -6568731.73846  -5095223.07346  23696847.6544   23696850.4124   23696847.344
        38.7004         36.4004
 16 11 15  0 20 30.0000000  0 11G14G22G01G11G03G23G31G25G32G26G10
 -19760542.95247 -15119388.97347  21037283.3244   21037282.4114   21037283.976
        46.5004         43.5004
 -18075158.40847 -13639931.42347  21566873.8194   21566871.3984   21566874.603
        46.0004         43.2004
 -11607830.68447  -9023712.18746  22140313.5274   22140315.4044   22140312.722
        43.7004         40.7004
  -2603435.19746  -1791129.54045  23924577.5164   23924577.8164   23924578.349
        37.1004         34.8004
 -13327454.21846 -10137178.65846  22779070.7394   22779072.9184   22779070.325
        41.1004         38.5004
  -2495185.77645  -1932289.44245  25215677.9564   25215676.2584   25215678.263
        35.2004         33.4004
 -24814569.75648 -19323553.53047  20085797.7494   20085795.8164   20085797.696
        50.2004         47.2004
  -5129285.85646  -3986962.52446  23298505.1674   23298506.6164   23298505.733
        39.4004         36.7004
 -11121043.78847  -8650536.65446  22315786.3364   22315787.7244   22315786.017
        44.1004         41.2004
  -3327215.04046  -2580156.96346  23945242.7694   23945245.8474   23945242.748
        38.3004         36.2004
  -6469808.75746  -5018140.24446  23715671.8894   23715674.5054   23715671.865
        38.7004         36.4004
 16 11 15  0 21  0.0000000  0 11G14G22G01G11G03G23G31G25G32G26G10
 -19731773.26447 -15096971.03147  21042758.3684   21042757.1994   21042758.539
        46.5004         43.5004
 -18142460.55047 -13692374.63747  21554066.5024   21554064.6214   21554067.341
        46.0004         43.2004
 -11582101.81247  -9003663.72346  22145209.0124   22145210.9754   22145208.839
        43.6004         40.7004
  -2531499.33146  -1735075.63045  23938267.3424   23938266.7344   23938266.691
        37.1004         35.2004
 -13417396.22246 -10207263.30546  22761955.4964   22761957.4114   22761954.818
        41.1004         38.6004
  -2572750.93345  -1992729.73245  25200919.3054   25200916.9444   25200918.581
        34.3004         32.7004
 -24804880.50148 -19316003.44547  20087641.6864   20087639.5264   20087641.447
        50.2004         47.2004
  -5110161.65546  -3972060.53446  23302145.7904   23302146.1244   23302144.359
        39.0004         36.7004
 -11057169.27247  -8600764.29346  22327941.5634   22327942.2574   22327940.743
        44.1004         41.1004
  -3426635.00346  -2657627.01246  23926324.4434   23926327.4274   23926323.824
        38.9004         36.6004
  -6370683.17646  -4940899.56946  23734534.7724   23734537.2274   23734535.491
        38.9004         36.6004
 16 11 15  0 21 30.0000000  0 11G14G22G01G11G03G23G31G25G32G26G10
 -19702819.19547 -15074409.40447  21048267.6484   21048266.9114   21048268.153
        46.5004         43.3004
 -18209465.05547 -13744585.92247  21541315.6914   21541313.7224   21541316.820
        46.2004         43.2004
 -11555819.77147  -8983184.20646  22150210.0484   22150212.7264   22150210.164
        43.4004         40.6004
  -2459312.85946  -1678826.44045  23952002.9344   23952002.2904   23952003.990
        36.8004         34.8004
 -13507155.88546 -10277205.86446  22744874.5344   22744877.0554   22744874.049
        41.3004         38.8004
  -2650303.27845  -2053160.09645  25186163.3494   25186157.7734   25186161.519
        34.0004         32.7004
 -24794639.91048 -19308023.74447  20089590.5164   20089588.2344   20089590.085
        50.2004         47.2004
  -5090440.02546  -3956693.00246  23305897.6944   23305898.5854   23305897.556
        39.0004         36.6004
 -10993165.88047  -8550891.50146  22340121.1874   22340121.5504   22340120.457
        44.1004         41.2004
  -3525980.51846  -2735039.06446  23907418.9154   23907422.2884   23907418.591
        39.0004         36.7004
  -6271356.43246  -4863502.13846  23753436.5414   23753438.7764   23753437.012
        39.2004         36.9004
 16 11 15  0 22  0.0000000  0 11G14G22G01G11G03G23G31G25G32G26G10
 -19673681.05847 -15051704.35547  21053812.5494   21053811.3634   21053812.988
        46.3004         43.5004
 -18276169.67047 -13796563.53147  21528622.8244   21528619.8434   21528623.351
        46.2004         43.2004
 -11528985.96647  -8962274.75146  22155316.5424   22155318.7874   22155316.012
        43.4004         40.7004
  -2386878.80046  -1622384.31245  23965785.4924   23965786.6544   23965786.915
        36.6004         34.5004
 -13596730.93746 -10347004.56346  22727828.6284   22727831.0724   22727828.331
        41.5004         38.8004
  -2727843.01845  -2113580.60245  25171406.2744   25171401.7204   25171406.243
        33.8004         32.9004
 -24783849.05648 -19299615.27047  20091643.8464   20091641.7594   20091643.630
        50.2004         47.2004
  -5070121.30346  -3940860.20746  23309763.4854   23309764.4674   23309763.306
        38.7004         36.4004
 -10929033.97347  -8500918.56846  22352324.3754   22352325.4144   22352324.350
        44.1004         41.2004
  -3625248.50146  -2812390.70146  23888528.5914   23888532.8394   23888528.850
        39.2004         36.7004
  -6171830.03346  -4785949.11746  23772376.6924   23772377.3484   23772376.964
        39.4004         37.1004
 16 11 15  0 22 30.0000000  0 11G14G22G01G11G03G23G31G25G32G26G10
 -19644358.96647 -15028855.96347  21059392.7034   21059391.6374   21059392.876
        46.3004         43.5004
 -18342572.43847 -13848305.93847  21515985.9094   21515983.7514   21515987.391
        46.2004         43.3004
 -11501601.89147  -8940936.51046  22160527.3104   22160529.5294   22160527.266
        43.4004         40.7004
  -2314200.21746  -1565751.67145  23979617.8034   23979617.1194   23979617.255
        36.4004         34.3004
 -13686119.19246 -10416657.71646  22710818.6724   22710820.8194   22710818.247
        41.6004         39.0004
  -2805369.99845  -2173991.09145  25156654.6654   25156649.6324   25156652.741
        34.3004         32.9004
 -24772509.17548 -19290778.98547  20093801.8564   20093799.5634   20093801.588
        50.2004         47.2004
  -5049205.79946  -3924562.40346  23313743.6824   23313745.4174   23313744.205
        38.9004         36.4004
 -10864773.91647  -8450845.78546  22364553.1454   22364552.5624   22364552.626
        44.1004         41.1004
  -3724435.95846  -2889679.59746  23869653.6734   23869657.4854   23869654.230
        39.6004         37.1004
  -6072105.49846  -4708241.72146  23791353.3904   23791354.8444   23791353.857
        39.7004         37.3004
 16 11 15  0 23  0.0000000  0 11G14G22G01G11G03G23G31G25G32G26G10
 -19614853.63147 -15005864.77947  21065007.3744   21065005.7674   21065007.500
        46.3004         43.5004
 -18408671.11047 -13899811.38647  21503407.9244   21503405.7704   21503409.119
        46.2004         43.2004
 -11473668.99947  -8919170.61546  22165843.3074   22165844.6854   22165842.897
        43.6004         40.6004
  -2241280.08846  -1508930.79945  23993492.5264   23993493.5204   23993493.680
        36.3004         34.3004
 -13775318.38146 -10486163.54146  22693844.4394   22693846.5414   22693844.629
        41.8004         39.2004
  -2882884.58745  -2234391.99245  25141899.6794   25141901.3204   25141902.403
        34.7004         33.4004
 -24760621.51848 -19281515.85947  20096063.8624   20096061.9384   20096063.711
        50.2004         47.2004
  -5027693.93546  -3907799.89446  23317837.3524   23317838.8974   23317837.592
        38.9004         36.6004
 -10800386.04547  -8400673.41446  22376805.8704   22376806.8994   22376805.438
        44.1004         41.1004
  -3823539.77346  -2966903.30246  23850795.1114   23850798.6004   23850795.320
        39.6004         37.1004
  -5972184.30646  -4630381.07946  23810367.4554   23810369.5284   23810367.743
        39.7004         37.1004
 16 11 15  0 23 30.0000000  0 11G14G22G01G11G03G23G31G25G32G26G10
 -19585165.13247 -14982730.86847  21070656.7104   21070655.6094   21070657.112
        46.3004         43.3004
 -18474463.60347 -13951078.25247  21490888.5264   21490885.9194   21490889.077
        46.2004         43.2004
 -11445188.78047  -8896978.24146  22171263.0644   22171265.0834   22171262.691
        43.6004         40.7004
  -2168121.56746  -1451924.17545  24007416.6134   24007415.0904   24007415.551
        36.4004         34.6004
 -13864326.25546 -10555520.29146  22676907.3744   22676909.1944   22676906.974
        41.8004         39.3004
  -2960386.41045  -2294782.95445  25127154.5604   25127151.9184   25127154.300
        35.2004         33.8004
 -24748187.36948 -19271826.89547  20098430.0044   20098428.0304   20098429.708
        50.2004         47.2004
  -5005586.10046  -3890572.99746  23322044.7504   23322045.9734   23322044.594
        39.0004         36.7004
 -10735870.69447  -8350401.69246  22389082.3864   22389082.4394   22389082.202
        43.9004         40.9004
  -3922556.89846  -3044059.48246  23831952.8164   23831955.9824   23831952.808
        39.7004         37.4004
  -5872067.95046  -4552368.34546  23829419.8514   23829420.7764   23829418.977
        39.6004         36.9004
 16 11 15  0 24  0.0000000  0 11G14G22G01G11G03G23G31G25G32G26G10
 -19555294.01347 -14959454.65847  21076340.6884   21076340.4554   21076341.339
        46.3004         43.3004
 -18539947.81047 -14002104.88447  21478427.0914   21478424.3154   21478428.094
        46.2004         43.2004
 -11416162.76047  -8874360.57046  22176786.1584   22176787.9684   22176786.040
        43.7004         40.9004
  -2094727.59246  -1394734.07845  24021381.3364   24021381.6354   24021382.561
        36.6004         34.8004
 -13953140.50647 -10624726.17146  22660006.5304   22660008.5574   22660005.961
        42.0004         39.3004
  -3037875.83545  -2355164.24245  25112409.5574   25112404.0614   25112407.732
        35.4004         33.6004
 -24735207.76948 -19261712.90747  20100900.0954   20100897.9954   20100899.775
        50.2004         47.2004
  -4982882.68146  -3872882.00346  23326364.3164   23326367.5424   23326364.756
        39.0004         36.7004
 -10671228.20247  -8300030.91946  22401383.8774   22401384.4244   22401383.127
        43.9004         41.1004
  -4021484.30046  -3121145.71146  23813127.3704   23813131.2974   23813127.344
        39.7004         37.1004
  -5771757.91346  -4474204.69046  23848507.1324   23848509.8264   23848507.295
        39.4004         36.9004
 16 11 15  0 24 30.0000000  0 11G14G22G01G11G03G23G31G25G32G26G10
 -19525240.68847 -14936036.47147  21082059.7284   21082058.7134   21082060.252
        46.3004         43.3004
 -18605121.47847 -14052889.54347  21466024.8814   21466022.4964   21466025.792
        46.2004         43.2004
 -11386592.50247  -8851318.81146  22182413.7204   22182415.2464   22182413.172
        43.9004         41.1004
  -2021101.54746  -1337363.15345  24035392.7634   24035391.4634   24035393.196
        37.1004         35.0004
 -14041758.94747 -10693779.47146  22643143.1854   22643144.4144   22643142.484
        42.0004         39.2004
  -3115352.69045  -2415535.76745  25097666.7024   25097661.1894   25097665.002
        35.7004         34.1004
 -24721684.30448 -19251175.12747  20103473.5154   20103471.1524   20103473.203
        50.2004         47.2004
  -4959584.18046  -3854727.31146  23330798.8794   23330800.2924   23330798.914
        39.2004         37.1004
 -10606458.91247  -8249561.33346  22413709.2094   22413710.2554   22413708.427
        43.9004         41.1004
  -4120318.86646  -3198159.60546  23794320.4594   23794323.1874   23794320.346
        39.7004         37.1004
  -5671255.76646  -4395891.35246  23867632.9704   23867634.8384   23867632.413
        39.2004         36.6004
 16 11 15  0 25  0.0000000  0 11G14G22G01G11G03G23G31G25G32G26G10
 -19495005.40347 -14912476.50147  21087813.5494   21087812.4094   21087814.078
        46.3004         43.3004
 -18669982.46347 -14103430.55247  21453682.3044   21453679.7534   21453683.024
        46.0004         43.0004
 -11356479.55547  -8827854.17346  22188144.4144   22188145.6264   22188143.142
        43.9004         41.1004
  -1947246.61346  -1279813.87045  24049445.6144   24049446.1874   24049446.933
        37.0004         34.8004
 -14130179.26247 -10762678.38846  22626317.5474   22626319.2664   22626316.793
        42.2004         39.3004
  -3192816.76745  -2475897.35245  25082925.2674   25082919.6294   25082923.793
        35.6004         33.6004
 -24707618.28748 -19240214.58047  20106150.0714   20106148.0454   20106149.971
        50.2004         47.2004
  -4935691.09546  -3836109.30446  23335343.7304   23335346.9144   23335344.830
        39.4004         36.7004
 -10541563.18047  -8198993.21346  22426057.5044   22426058.7514   22426057.336
        43.9004         41.1004
  -4219057.57146  -3275098.78546  23775529.9444   23775533.4404   23775530.627
        39.6004         37.1004
  -5570562.98246  -4317429.47046  23886793.5224   23886795.2264   23886793.233
        38.9004         36.4004
 16 11 15  0 25 30.0000000  0 11G14G22G01G11G03G23G31G25G32G26G10
 -19464588.43447 -14888774.95647  21093601.6674   21093600.6324   21093602.113
        46.3004         43.3004
 -18734528.66347 -14153726.26947  21441399.5254   21441396.9654   21441400.286
        46.0004         43.0004
 -11325825.50247  -8803967.91446  22193976.4104   22193979.0254   22193976.428
        43.9004         41.1004
  -1873165.69446  -1222088.46745  24063541.9074   24063542.5034   24063543.505
        37.0004         34.8004
 -14218399.19047 -10831421.15646  22609530.0694   22609530.5544   22609529.054
        42.0004         39.2004
  -3270268.27245  -2536249.12945  25068186.3794   25068183.0494   25068184.577
        35.4004         33.4004
 -24693011.22648 -19228832.44347  20108929.8084   20108927.5544   20108929.565
        50.2004         47.2004
  -4911203.91346  -3817028.36146  23340004.8594   23340007.1234   23340004.945
        39.2004         36.6004
 -10476541.26647  -8148326.78246  22438430.4584   22438431.9764   22438430.300
        43.9004         41.1004
  -4317697.31646  -3351960.85446  23756759.4974   23756762.8844   23756759.168
        39.4004         36.7004
  -5469681.12946  -4238820.25546  23905990.3884   23905993.9094   23905990.911
        38.5004         36.0004
 16 11 15  0 26  0.0000000  0 11G14G22G01G11G03G23G31G25G32G26G10
 -19433990.21247 -14864932.18047  21099424.3374   21099422.8374   21099424.725
        46.3004         43.3004
 -18798757.89947 -14203775.00847  21429176.8404   21429174.5424   21429177.801
        45.8004         43.0004
 -11294631.96547  -8779661.25146  22199913.0084   22199914.9484   22199912.586
        43.9004         40.9004
  -1798861.73446  -1164189.29145  24077682.4384   24077682.2974   24077683.399
        37.0004         34.8004
 -14306416.46547 -10900006.01646  22592780.4014   22592781.6374   22592779.609
        42.0004         39.2004
  -3347707.15645  -2596591.09345  25053448.3754   25053446.3494   25053448.519
        35.0004         33.4004
 -24677864.40048 -19217029.70747  20111812.1244   20111809.8114   20111811.836
        50.2004         47.2004
  -4886123.17246  -3797484.92146  23344776.7254   23344778.6134   23344777.568
        39.0004         36.7004
 -10411393.54447  -8097562.31546  22450827.8594   22450829.4904   22450827.566
        43.7004         40.7004
  -4416235.07346  -3428743.44446  23738009.0384   23738013.0634   23738008.266
        39.0004         36.6004
  -5368611.70646  -4160064.87845  23925221.9944   23925225.2364   23925223.011
        38.0004         35.7004
 16 11 15  0 26 30.0000000  0 11G14G22G01G11G03G23G31G25G32G26G10
 -19403210.86647 -14840948.26047  21105281.7474   21105280.2864   21105281.664
        46.3004         43.3004
 -18862667.91247 -14253574.99347  21417015.5414   21417012.5464   21417016.092
        45.8004         43.0004
 -11262900.56747  -8754935.49046  22205951.1514   22205953.6844   22205950.811
        43.9004         41.1004
  -1724338.09546  -1106118.92945  24091864.5504   24091863.4924   24091864.847
        37.1004         35.0004
 -14394228.74447 -10968431.12646  22576069.7664   22576071.2864   22576069.651
        42.0004         39.2004
  -3425133.47345  -2656923.30445  25038715.7324   25038712.5214   25038714.871
        34.7004         33.3004
 -24662178.85948 -19204807.19047  20114796.9174   20114794.5724   20114796.670
        50.2004         47.2004
  -4860449.44046  -3777479.38646  23349663.5364   23349665.0284   23349662.822
        39.0004         36.6004
 -10346120.32247  -8046700.06246  22463249.6324   22463250.1754   22463248.878
        43.7004         40.7004
  -4514667.73846  -3505444.15346  23719277.3024   23719279.8054   23719276.656
        38.9004         36.6004
  -5267356.28346  -4081164.56045  23944490.1064   23944493.8874   23944491.283
        37.6004         35.5004
 16 11 15  0 27  0.0000000  0 11G14G22G01G11G03G23G31G25G32G26G10
 -19372251.03047 -14816823.69847  21111172.8104   21111172.0004   21111173.255
        46.3004         43.5004
 -18926257.04547 -14303124.95047  21404914.8984   21404912.6804   21404915.609
        45.8004         43.0004
 -11230632.96547  -8729791.91446  22212091.8024   22212093.6684   22212091.056
        43.7004         40.9004
  -1649597.74146  -1047879.68645  24106087.6054   24106087.5284   24106087.741
        37.3004         35.2004
 -14481833.81947 -11036694.77646  22559398.7324   22559400.7154   22559398.573
        42.0004         39.3004
  -3502547.08745  -2717245.57245  25023983.5794   25023983.6304   25023984.477
        35.0004         33.4004
 -24645956.07448 -19192166.04447  20117883.9274   20117881.8024   20117883.736
        50.2004         47.2004
  -4834183.31246  -3757012.27246  23354661.2324   23354662.9774   23354661.015
        38.9004         36.2004
 -10280721.90947  -7995740.25446  22475694.7964   22475694.3094   22475693.880
        43.6004         40.9004
  -4612992.22546  -3582060.55646  23700566.9724   23700570.0484   23700566.179
        38.7004         36.4004
  -5165916.40046  -4002120.51545  23963794.5594   23963797.3014   23963794.388
        37.5004         35.2004
 16 11 15  0 27 30.0000000  0 11G14G22G01G11G03G23G31G25G32G26G10
 -19341110.84647 -14792558.61047  21117098.4844   21117097.8294   21117098.943
        46.3004         43.3004
 -18989522.95247 -14352423.03647  21392875.6054   21392873.0834   21392876.601
        46.0004         43.0004
 -11197830.81647  -8704231.80646  22218332.8594   22218335.6924   22218333.161
        43.7004         40.9004
  -1574643.72446   -989473.96745  24120351.8704   24120350.1974   24120351.842
        37.3004         35.3004
 -14569229.32347 -11104795.12546  22542768.2894   22542770.1254   22542767.857
        42.2004         39.7004
  -3579948.10245  -2777558.07945  25009253.2334   25009250.0214   25009255.367
        35.0004         33.4004
 -24629197.78248 -19179107.62147  20121072.9464   20121070.5994   20121072.823
        50.2004         47.2004
  -4807325.36946  -3736083.99246  23359771.6704   23359773.2004   23359772.646
        38.7004         36.2004
 -10215198.62447  -7944683.14146  22488162.8544   22488163.4604   22488162.649
        43.6004         40.7004
  -4711205.48146  -3658590.28746  23681876.0084   23681880.8594   23681877.097
        38.7004         36.4004
  -5064293.57046  -3922933.91645  23983131.6034   23983135.5664   23983132.635
        37.0004         35.2004
 16 11 15  0 28  0.0000000  0 11G14G22G01G11G03G23G31G25G32G26G10
 -19309790.60847 -14768153.21447  21123058.9684   21123057.7784   21123059.166
        46.3004         43.5004
 -19052463.25447 -14401467.40547  21380898.5514   21380896.0764   21380899.349
        46.0004         43.0004
 -11164495.84447  -8678256.50646  22224676.5094   22224679.7704   22224676.475
        43.7004         40.9004
  -1499479.55546   -930904.48245  24134654.6954   24134653.9234   24134654.901
        37.3004         35.3004
 -14656412.97947 -11172730.41446  22526177.9414   22526179.6934   22526177.592
        42.5004         39.9004
  -3657336.59845  -2837860.80245  24994528.0814   24994526.1854   24994528.694
        35.2004         33.8004
 -24611905.15048 -19165632.82647  20124363.6304   20124361.5224   20124363.330
        50.2004         47.2004
  -4779876.29146  -3714695.08246  23364995.6634   23364997.3634   23364995.817
        38.5004         36.0004
 -10149550.76847  -7893528.96346  22500655.2104   22500656.7794   22500654.741
        43.6004         40.6004
  -4809304.38146  -3735030.90746  23663209.6484   23663213.0904   23663209.476
        38.7004         36.6004
  -4962489.36146  -3843605.98845  24002506.1854   24002508.7614   24002505.191
        36.8004         34.6004
 16 11 15  0 28 30.0000000  0 11G14G22G01G11G03G23G31G25G32G26G10
 -19278290.88747 -14743607.96547  21129053.3854   21129051.8254   21129053.128
        46.3004         43.3004
 -19115076.09947 -14450256.61247  21368983.6064   21368980.8534   21368984.416
        46.0004         43.2004
 -11130629.77047  -8651867.36846  22231120.6784   22231123.2074   22231121.029
        43.6004         40.7004
  -1424107.79046   -872173.26045  24148997.6404   24148996.5734   24148997.166
        37.3004         35.2004
 -14743382.46047 -11240498.80846  22509628.0184   22509630.4704   22509627.703
        42.7004         39.9004
  -3734712.12845  -2898153.45545  24979804.0014   24979801.1984   24979804.313
        35.0004         33.4004
 -24594079.62748 -19151742.79447  20127755.6694   20127753.3664   20127755.299
        50.2004         47.2004
  -4751836.72846  -3692846.04946  23370331.4454   23370333.2134   23370331.425
        38.5004         36.0004
 -10083778.63947  -7842277.95346  22513171.6184   22513172.2514   22513170.567
        43.4004         40.6004
  -4907285.84346  -3811380.01046  23644563.3224   23644567.8804   23644563.670
        38.9004         36.6004
  -4860505.35546  -3764137.95445  24021911.2934   24021914.2374   24021912.787
        37.1004         35.2004
 16 11 15  0 29  0.0000000  0 11G14G22G01G11G03G23G31G25G32G26G10
 -19246611.51547 -14718922.72847  21135081.3034   21135080.3404   21135081.856
        46.3004         43.3004
 -19177359.35647 -14498788.99547  21357131.2824   21357129.2974   21357132.316
        46.0004         43.2004
 -11096234.31647  -8625065.71746  22237665.9014   22237668.4594   22237665.975
        43.4004         40.6004
  -1348531.65946   -813282.77545  24163378.0424   24163378.5374   24163378.746
        37.1004         34.8004
 -14830135.50947 -11308098.56146  22493119.5284   22493121.7784   22493119.238
        42.9004         40.2004
  -3812075.19945  -2958436.35045  24965080.8764   24965080.5034   24965081.328
        35.0004         33.4004
 -24575722.71648 -19137438.69347  20131248.8144   20131246.6434   20131248.548
        50.0004         47.2004
  -4723207.37446  -3670537.45846  23375780.1864   23375781.3164   23375779.179
        38.5004         36.2004
 -10017882.55547  -7790930.34946  22525710.4944   22525712.2434   22525710.393
        43.4004         40.7004
  -5005146.77746  -3887635.21146  23625942.1914   23625944.1174   23625941.578
        38.9004         36.4004
  -4758343.08646  -3684531.01145  24041353.5504   24041355.7564   24041353.587
        37.3004         35.3004
 16 11 15  0 29 30.0000000  0 11G14G22G01G11G03G23G31G25G32G26G10
 -19214753.17847 -14694098.03947  21141143.3734   21141142.5804   21141144.252
        46.3004         43.5004
 -19239310.79147 -14547062.81947  21345342.4024   21345339.7914   21345343.365
        46.0004         43.0004
 -11061311.25447  -8597852.93946  22244311.7814   22244315.7284   22244311.820
        43.2004         40.6004
  -1272754.54346   -754235.67345  24177798.4574   24177798.3564   24177798.283
        37.0004         34.8004
 -14916669.75147 -11375527.80946  22476653.1074   22476654.7644   22476652.267
        42.9004         40.0004
  -3889425.65045  -3018709.37645  24950363.4424   24950361.8864   24950361.355
        34.9004         33.3004
 -24556836.06848 -19122721.81147  20134842.7974   20134840.4124   20134842.514
        50.0004         47.0004
  -4693988.94146  -3647769.83146  23381340.1514   23381341.2724   23381339.593
        38.7004         36.6004
  -9951862.78647  -7739486.37046  22538273.7684   22538275.7014   22538273.454
        43.6004         40.6004
  -5102884.09346  -3963794.07646  23607343.2034   23607346.2664   23607342.671
        39.0004         36.7004
  -4656004.19346  -3604786.43945  24060827.3434   24060830.9274   24060827.789
        37.8004         35.7004
 16 11 15  0 30  0.0000000  0 11G14G22G01G11G03G23G31G25G32G26G10
 -19182715.88147 -14669133.90347  21147240.1254   21147239.0684   21147240.828
        46.3004         43.3004
 -19300928.27547 -14595076.42647  21333617.1784   21333614.3504   21333617.756
        46.0004         43.0004
 -11025862.37447  -8570230.43746  22251057.6084   22251060.3944   22251057.699
        43.4004         40.7004
  -1196779.31546   -695034.18745  24192255.8174   24192255.4434   24192255.749
        36.8004         34.8004
 -15002982.88247 -11442784.76546  22460227.8804   22460229.4444   22460227.393
        42.9004         40.2004
  -3966763.32945  -3078972.49645  24935644.9204   24935647.2534   24935644.863
        35.6004         34.0004
 -24537421.03648 -19107593.20347  20138537.4524   20138535.2504   20138537.177
        50.0004         47.0004
  -4664182.19846  -3624543.77746  23387011.0124   23387013.0074   23387011.519
        38.9004         36.6004
  -9885719.63347  -7687946.24346  22550860.8504   22550862.3694   22550860.129
        43.4004         40.6004
  -5200494.70046  -4039854.20346  23588768.5924   23588771.7474   23588768.686
        39.4004         36.9004
  -4553490.23446  -3524905.46046  24080335.7564   24080339.2684   24080335.791
        38.3004         36.4004
 16 11 15  0 30 30.0000000  0 11G14G22G01G11G03G23G31G25G32G26G10
 -19150499.99847 -14644030.59947  21153370.6454   21153369.5844   21153370.983
        46.3004         43.2004
 -19362209.67347 -14642828.14347  21321955.4984   21321953.1694   21321956.466
        46.0004         43.2004
 -10989889.44947  -8542199.59046  22257903.8824   22257905.3864   22257903.343
        43.4004         40.6004
  -1120609.13246   -635680.81845  24206750.6674   24206750.9874   24206751.333
        36.8004         34.8004
 -15089072.60847 -11509867.63446  22443845.2594   22443847.0204   22443845.267
        42.9004         40.4004
  -4044088.28246  -3139225.67045  24920931.0164   24920928.1854   24920931.726
        36.3004         34.6004
 -24517479.02748 -19092053.96347  20142332.3014   20142330.1314   20142332.139
        50.0004         47.0004
  -4633787.86346  -3600859.85946  23392794.8984   23392795.5704   23392795.790
        39.0004         36.6004
  -9819453.38647  -7636310.20046  22563470.7344   22563471.8134   22563470.129
        43.6004         40.7004
  -5297975.48046  -4115813.18346  23570219.1704   23570221.3104   23570219.022
        39.4004         37.1004
  -4450802.79246  -3444889.30046  24099876.7484   24099879.5564   24099876.439
        38.9004         36.7004
 16 11 15  0 31  0.0000000  0 11G14G22G01G11G03G23G31G25G32G26G10
 -19118105.93747 -14618788.45947  21159534.9084   21159534.5314   21159535.561
        46.2004         43.2004
 -19423153.07747 -14690316.48847  21310358.3904   21310355.5834   21310359.217
        46.2004         43.3004
 -10953394.33547  -8513761.84246  22264848.1604   22264850.2414   22264848.176
        43.4004         40.7004
  -1044247.03146   -576177.88545  24221281.8704   24221281.1024   24221282.498
        36.6004         34.3004
 -15174936.56247 -11576774.58446  22427506.2024   22427507.6534   22427505.985
        43.0004         40.2004
  -4121400.47046  -3199468.90945  24906220.5314   24906218.2544   24906219.772
        37.1004         35.2004
 -24497011.92748 -19076105.55847  20146226.8574   20146224.8194   20146226.763
        50.0004         46.8004
  -4602806.81646  -3576718.76346  23398692.0914   23398692.2824   23398691.057
        39.0004         36.7004
  -9753064.34947  -7584578.47846  22576104.5744   22576104.9934   22576103.643
        43.6004         40.7004
  -5395323.38246  -4191668.60646  23551693.4224   23551696.7334   23551693.953
        39.4004         37.1004
  -4347943.45946  -3364739.18446  24119449.5634   24119452.7564   24119449.760
        39.2004         36.9004
 16 11 15  0 31 30.0000000  0 11G14G22G01G11G03G23G31G25G32G26G10
 -19085533.90747 -14593407.64347  21165733.3034   21165732.7144   21165733.660
        46.2004         43.2004
 -19483756.27047 -14737539.73947  21298825.8564   21298823.0454   21298826.895
        46.2004         43.3004
 -10916378.86947  -8484918.61946  22271891.0574   22271893.4444   22271891.759
        43.4004         40.6004
   -967696.13846   -516527.85145  24235849.8134   24235847.3194   24235849.240
        36.3004         34.5004
 -15260572.43747 -11643503.80846  22411210.5804   22411211.9064   22411210.115
        43.2004         40.4004
  -4198699.87646  -3259702.16545  24891510.4134   24891507.5934   24891510.187
        37.6004         35.7004
 -24476020.94448 -19059748.94047  20150221.2834   20150219.2734   20150221.083
        49.8004         46.8004
  -4571239.81846  -3552121.08846  23404697.1474   23404699.2044   23404698.309
        39.0004         36.7004
  -9686552.77747  -7532751.28246  22588761.1904   22588762.1254   22588760.269
        43.6004         40.6004
  -5492535.25846  -4267418.06446  23533194.5784   23533197.7434   23533194.965
        39.7004         37.3004
  -4244913.80446  -3284456.33946  24139055.8644   24139057.9314   24139055.568
        39.6004         37.1004
 16 11 15  0 32  0.0000000  0 11G14G22G01G11G03G23G31G25G32G26G10
 -19052784.25247 -14567888.41647  21171965.5604   21171964.0614   21171965.746
        46.0004         43.2004
 -19544016.93247 -14784496.07947  21287359.2444   21287356.0324   21287359.739
        46.3004         43.5004
 -10878844.90147  -8455671.37346  22279035.3994   22279036.5044   22279034.368
        43.2004         40.7004
   -890959.42746   -456733.01945  24250453.1584   24250452.7894   24250452.032
        36.1004         34.1004
 -15345977.84447 -11710053.45446  22394958.2904   22394959.8584   22394958.201
        43.2004         40.6004
  -4275986.24646  -3319925.23045  24876803.3284   24876801.3464   24876803.258
        38.0004         35.9004
 -24454507.72048 -19042985.37547  20154315.0914   20154312.9654   20154314.881
        49.8004         46.8004
  -4539087.70246  -3527067.47146  23410816.8274   23410817.3054   23410816.346
        39.0004         36.7004
  -9619918.95747  -7480828.81446  22601440.5474   22601442.2754   22601440.565
        43.4004         40.4004
  -5589608.05146  -4343059.13546  23514721.8884   23514726.3524   23514722.268
        39.7004         37.3004
  -4141715.44546  -3204042.03746  24158693.9594   24158696.5614   24158693.370
        39.4004         37.1004
 16 11 15  0 32 30.0000000  0 11G14G22G01G11G03G23G31G25G32G26G10
 -19019857.16147 -14542230.93447  21178231.1224   21178230.1614   21178231.442
        46.0004         43.0004
 -19603933.00247 -14831183.90947  21275957.3974   21275954.2424   21275958.298
        46.5004         43.5004
 -10840794.31347  -8426021.57446  22286275.4964   22286276.3434   22286274.716
        43.2004         40.4004
   -814040.60045   -396796.27645  24265087.3544   24265088.6194   24265088.603
        35.9004         34.3004
 -15431150.47747 -11776421.71946  22378751.3194   22378752.0114   22378750.190
        43.2004         40.4004
  -4353259.76846  -3380138.27246  24862097.7834   24862096.3894   24862099.122
        38.2004         36.0004
 -24432473.95648 -19025816.19747  20158507.9074   20158506.1504   20158507.698
        49.8004         46.8004
  -4506351.39246  -3501558.63946  23417045.3124   23417047.2054   23417045.189
        39.0004         36.6004
  -9553163.17347  -7428811.31946  22614144.2024   22614145.4044   22614143.661
        43.4004         40.6004
  -5686538.59246  -4418589.37046  23496277.2484   23496280.5184   23496277.174
        39.7004         37.3004
  -4038349.96846  -3123497.53046  24178364.1834   24178365.9244   24178363.823
        39.2004         36.6004
 16 11 15  0 33  0.0000000  0 11G14G22G01G11G03G23G31G25G32G26G10
 -18986752.80747 -14516435.32047  21184530.3554   21184529.2504   21184530.633
        45.8004         43.0004
 -19663502.40547 -14877601.60847  21264621.6354   21264618.7534   21264622.653
        46.5004         43.7004
 -10802229.05947  -8395970.71746  22293613.3964   22293615.4834   22293613.509
        43.0004         40.4004
   -736942.53845   -336719.86445  24279761.0314   24279760.8114   24279759.711
        35.9004         34.1004
 -15516087.98247 -11842606.77046  22362588.1384   22362588.2634   22362587.199
        43.2004         40.4004
  -4430520.44646  -3440341.28545  24847395.9754   24847394.4444   24847397.029
        38.2004         35.7004
 -24409921.23248 -19008242.63247  20162799.6514   20162797.7004   20162799.444
        49.8004         46.8004
  -4473031.75246  -3475595.27246  23423385.8574   23423387.0414   23423385.759
        38.9004         36.4004
  -9486285.68547  -7376698.98546  22626870.1284   22626871.9734   22626869.944
        43.4004         40.6004
  -5783323.83846  -4494006.38246  23477859.9664   23477863.0604   23477859.899
        39.7004         37.3004
  -3934819.02346  -3042824.06546  24198064.7844   24198067.5584   24198064.305
        38.9004         36.4004
 16 11 15  0 33 30.0000000  0 11G14G22G01G11G03G23G31G25G32G26G10
 -18953471.54947 -14490501.85847  21190863.4274   21190862.7914   21190863.945
        45.8004         43.0004
 -19722722.92447 -14923747.45547  21253352.2354   21253349.7854   21253353.223
        46.7004         43.5004
 -10763151.00447  -8365520.30346  22301048.9904   22301052.0144   22301049.879
        43.0004         40.4004
   -659667.82646   -276505.82345  24294465.1334   24294463.9074   24294465.154
        36.1004         34.3004
 -15600787.99747 -11908606.75346  22346470.0044   22346470.3354   22346468.942
        43.2004         40.2004
  -4507768.19546  -3500534.22445  24832696.3654   24832693.4104   24832696.424
        38.0004         35.5004
 -24386851.11448 -18990265.90147  20167189.7744   20167187.6354   20167189.498
        49.8004         46.8004
  -4439129.71146  -3449178.07246  23429836.9474   23429839.4274   23429837.540
        38.9004         36.4004
  -9419286.75247  -7324492.01846  22639620.1754   22639620.7384   22639619.260
        43.2004         40.4004
  -5879960.59646  -4569307.70946  23459469.7224   23459473.5354   23459470.696
        39.7004         37.3004
  -3831124.19846  -2962022.91245  24217796.5724   24217800.3424   24217796.834
        38.2004         35.7004
 16 11 15  0 34  0.0000000  0 11G14G22G01G11G03G23G31G25G32G26G10
 -18920013.58647 -14464430.71147  21197230.6274   21197228.6864   21197230.708
        45.8004         42.8004
 -19781592.95747 -14969620.19847  21242149.3724   21242147.0044   21242150.468
        46.7004         43.7004
 -10723562.14347  -8334671.85446  22308584.4824   22308586.0294   22308583.856
        43.0004         40.4004
   -582220.06046   -216156.92645  24309204.4734   24309203.4994   24309203.348
        36.1004         34.3004
 -15685248.17547 -11974419.86246  22330397.2134   22330397.2424   22330396.188
        43.0004         40.2004
  -4585002.94546  -3560717.02645  24817999.1324   24817997.1444   24817999.160
        37.8004         35.5004
 -24363265.01248 -18971887.10447  20171678.0294   20171675.8764   20171677.840
        49.8004         46.6004
  -4404646.22246  -3422307.80946  23436399.5794   23436400.9014   23436399.606
        38.9004         36.6004
  -9352166.64547  -7272190.63646  22652392.1604   22652393.7204   22652391.673
        43.2004         40.4004
  -5976445.82546  -4644490.95446  23441109.4594   23441112.7494   23441109.361
        39.7004         37.3004
  -3727267.10246  -2881095.31645  24237559.6744   24237563.0884   24237560.014
        37.3004         34.6004
 16 11 15  0 34 30.0000000  0 11G14G22G01G11G03G23G31G25G32G26G10
 -18886379.31547 -14438222.17247  21203631.2284   21203629.8024   21203631.405
        45.8004         42.8004
 -19840110.16247 -15015218.00747  21231013.8114   21231011.3734   21231014.901
        46.5004         43.5004
 -10683464.38947  -8303426.86746  22316214.1514   22316216.2284   22316214.116
        43.0004         40.4004
   -504602.24046   -155675.50545  24323971.8354   24323973.0114   24323973.486
        36.1004         34.3004
 -15769466.13447 -12040044.22046  22314370.0744   22314371.7284   22314370.227
        42.9004         40.2004
  -4662224.83046  -3620889.81345  24803304.4854   24803302.0524   24803304.480
        37.5004         35.2004
 -24339164.93048 -18953107.80347  20176264.0904   20176262.1314   20176263.832
        49.6004         46.8004
  -4369582.23846  -3394985.21246  23443071.9454   23443073.1494   23443071.631
        38.9004         36.4004
  -9284925.63647  -7219795.05246  22665187.0224   22665189.5574   22665187.543
        43.2004         40.4004
  -6072776.33846  -4719553.66246  23422778.9574   23422781.5624   23422778.525
        39.9004         37.4004
  -3623249.34846  -2800042.51545  24257354.9774   24257356.2794   24257354.093
        36.4004         34.3004
 16 11 15  0 35  0.0000000  0 11G14G22G01G11G03G23G31G25G32G26G10
 -18852569.08947 -14411876.53647  21210064.7734   21210063.3244   21210065.347
        45.8004         42.8004
 -19898272.34047 -15060539.17147  21219946.1204   21219943.1594   21219946.911
        46.5004         43.5004
 -10642859.75247  -8271786.89646  22323940.9744   22323942.7284   22323940.686
        43.2004         40.4004
   -426817.25646    -95063.83345  24338775.4414   24338775.7874   24338775.441
        36.1004         34.3004
 -15853439.51247 -12105478.00346  22298390.7054   22298392.3814   22298390.661
        42.9004         40.2004
  -4739433.67646  -3681052.45545  24788611.7984   24788609.0714   24788612.161
        37.1004         34.8004
 -24314552.29848 -18933929.11547  20180947.7294   20180945.6074   20180947.558
        49.8004         46.8004
  -4333938.76846  -3367211.07046  23449854.0134   23449854.7074   23449854.421
        38.7004         36.6004
  -9217563.96547  -7167305.44346  22678005.9054   22678007.7174   22678005.732
        43.2004         40.4004
  -6168949.02246  -4794493.35646  23404477.4154   23404480.8164   23404477.347
        40.1004         37.4004
  -3519072.62845  -2718865.88245  24277179.9454   24277182.9844   24277178.056
        35.7004         33.6004
 16 11 15  0 35 30.0000000  0 11G14G22G01G11G03G23G31G25G32G26G10
 -18818582.88047 -14385393.77047  21216532.0464   21216530.5874   21216532.601
        45.8004         42.8004
 -19956077.22247 -15105581.92947  21208946.2534   21208943.7404   21208946.997
        46.5004         43.5004
 -10601750.23647  -8239753.52746  22331763.2334   22331766.7374   22331763.427
        43.0004         40.2004
   -348868.31745    -34324.41445  24353606.6084   24353605.5794   24353608.595
        35.9004         34.0004
 -15937165.98047 -12170719.39046  22282458.3324   22282459.8914   22282457.949
        42.9004         40.2004
  -4816629.43446  -3741204.91345  24773920.2824   24773917.6704   24773922.382
        37.0004         34.6004
 -24289428.94448 -18914352.45647  20185728.5914   20185726.3814   20185728.333
        49.8004         46.8004
  -4297716.82646  -3338986.17146  23456747.4914   23456748.7294   23456747.280
        38.7004         36.4004
  -9150081.91547  -7114722.02446  22690847.7764   22690848.2174   22690847.281
        43.0004         40.2004
  -6264960.76746  -4869307.64846  23386206.5144   23386210.1904   23386206.997
        40.1004         37.8004
  -3414738.55145  -2637566.64845  24297030.3524   24297035.4404   24297032.296
        35.2004         33.4004
 16 11 15  0 36  0.0000000  0 11G14G22G01G11G03G23G31G25G32G26G10
 -18784421.03647 -14358774.13747  21223032.6744   21223031.8984   21223033.700
        45.6004         42.6004
 -20013522.90347 -15150344.77647  21198014.4274   21198011.9074   21198015.624
        46.5004         43.5004
 -10560137.86947  -8207328.32346  22339682.3184   22339685.1354   22339681.875
        42.9004         40.0004
   -270758.47345     26540.37345  24368473.5524   24368468.6434   24368472.166
        35.7004         34.0004
 -16020643.10547 -12235766.47746  22266572.9344   22266574.4344   22266572.918
        43.0004         40.4004
  -4893812.27046  -3801347.32945  24759235.0834   24759230.5254   24759234.656
        36.8004         34.8004
 -24263796.74948 -18894379.30447  20190606.1074   20190604.2624   20190605.836
        49.6004         46.6004
  -4260917.46246  -3310311.33146  23463750.5074   23463751.2854   23463750.064
        38.5004         36.2004
  -9082479.69547  -7062044.97046  22703712.4604   22703714.2054   22703711.676
        43.0004         40.2004
  -6360808.44246  -4943994.09746  23367967.8684   23367970.8124   23367967.903
        40.3004         37.8004
  -3310248.70745  -2556146.01645  24316918.1214   24316918.0474   24316916.051
        35.4004         33.8004
 16 11 15  0 36 30.0000000  0 11G14G22G01G11G03G23G31G25G32G26G10
 -18750083.74947 -14332017.80047  21229567.6244   21229565.6394   21229567.607
        45.6004         42.8004
 -20070607.43147 -15194826.22247  21187151.4264   21187149.2304   21187152.675
        46.5004         43.5004
 -10518024.70747  -8174512.88546  22347696.1614   22347697.8824   22347695.819
        42.9004         40.0004
   -192490.95445     87528.07545  24383364.4924   24383364.9014   24383366.336
        35.6004         33.8004
 -16103868.55147 -12300617.46046  22250736.2234   22250737.9584   22250735.484
        43.2004         40.6004
  -4970981.87846  -3861479.41845  24744549.8674   24744545.3554   24744550.470
        36.8004         35.0004
 -24237657.08648 -18874010.72247  20195580.4584   20195578.3894   20195580.142
        49.6004         46.6004
  -4223541.74946  -3281187.40746  23470862.0034   23470862.8634   23470862.648
        38.5004         36.2004
  -9014757.58447  -7009274.49146  22716599.9424   22716600.4164   22716598.952
        43.0004         40.4004
  -6456488.93446  -5018550.26446  23349760.4184   23349763.6554   23349760.246
        40.4004         37.9004
  -3205604.83745  -2474605.33145  24336829.8214   24336832.6674   24336828.727
        35.7004         34.1004
 16 11 15  0 37  0.0000000  0 11G14G22G01G11G03G23G31G25G32G26G10
 -18715571.29447 -14305124.97647  21236134.5204   21236133.3674   21236135.361
        45.6004         42.8004
 -20127328.41447 -15239024.37847  21176358.1344   21176354.9074   21176358.979
        46.5004         43.5004
 -10475412.78647  -8141308.79846  22355805.0734   22355806.9984   22355804.900
        43.0004         40.2004
   -114068.90145    148636.14545  24398289.3534   24398288.1564   24398288.958
        35.4004         34.0004
 -16186839.90947 -12365270.44746  22234946.8544   22234948.6954   22234946.678
        43.4004         40.7004
  -5048138.34546  -3921601.28845  24729865.8174   24729863.7554   24729867.177
        36.8004         34.6004
 -24211011.39148 -18853247.82747  20200650.8074   20200648.7504   20200650.548
        49.6004         46.6004
  -4185590.76946  -3251615.20146  23478084.6214   23478085.7104   23478084.503
        38.5004         36.0004
  -8946915.83447  -6956410.78546  22729508.6814   22729509.7734   22729508.978
        43.0004         40.0004
  -6551999.14446  -5092973.74646  23331585.5384   23331588.3124   23331585.703
        40.4004         37.9004
  -3100808.55446  -2392945.90045  24356771.6434   24356774.0394   24356772.178
        36.3004         34.6004
 16 11 15  0 37 30.0000000  0 11G14G22G01G11G03G23G31G25G32G26G10
 -18680883.80347 -14278095.75147  21242735.6474   21242734.1284   21242736.022
        45.6004         42.8004
 -20183684.15847 -15282937.93447  21165633.6854   21165631.2694   21165634.854
        46.3004         43.5004
 -10432304.19547  -8107717.69546  22364008.4514   22364011.0604   22364008.425
        43.0004         40.2004
    -35495.04545    209862.49345  24413241.4224   24413240.0354   24413242.210
        35.4004         34.0004
 -16269554.82947 -12429723.60546  22219206.6104   22219208.5194   22219206.451
        43.6004         40.7004
  -5125281.24346  -3981712.57245  24715186.6974   24715184.3294   24715186.127
        37.0004         34.8004
 -24183862.00148 -18832092.44647  20205817.2244   20205815.1234   20205816.820
        49.5004         46.5004
  -4147065.66246  -3221595.63145  23485414.5034   23485415.6084   23485415.341
        38.3004         35.9004
  -8878954.66747  -6903454.02546  22742442.0524   22742442.9204   22742441.993
        43.0004         40.2004
  -6647335.89846  -5167262.07246  23313443.8314   23313446.5114   23313443.644
        40.6004         38.1004
  -2995861.53046  -2311168.99545  24376744.0194   24376745.5364   24376743.117
        37.1004         35.3004
 16 11 15  0 38  0.0000000  0 11G14G22G01G11G03G23G31G25G32G26G10
 -18646021.59047 -14250930.39447  21249369.4484   21249368.2964   21249369.956
        45.6004         42.8004
 -20239672.55847 -15326565.24847  21154979.4204   21154976.8864   21154980.478
        46.3004         43.5004
 -10388701.02247  -8073741.20946  22372305.3234   22372308.4314   22372305.624
        43.0004         40.2004
     43227.25345    271204.52845  24428219.9834   24428219.1744   24428222.642
        35.4004         34.0004
 -16352010.88947 -12493975.05146  22203516.9144   22203518.1554   22203515.693
        43.7004         40.9004
  -5202411.13546  -4041813.71345  24700508.5954   24700508.5174   24700508.401
        37.1004         35.2004
 -24156210.41548 -18810545.74447  20211079.0864   20211077.0864   20211078.833
        49.5004         46.5004
  -4107967.51746  -3191129.53246  23492856.0034   23492856.7414   23492855.573
        38.3004         36.0004
  -8810874.32447  -6850404.39346  22755396.9944   22755398.9934   22755397.130
        43.0004         40.4004
  -6742496.13546  -5241412.83746  23295334.9414   23295337.6224   23295335.306
        40.6004         38.1004
  -2890765.37046  -2229275.87145  24396742.6904   24396744.1564   24396742.463
        37.8004         35.9004
 16 11 15  0 38 30.0000000  0 11G14G22G01G11G03G23G31G25G32G26G10
 -18610984.77347 -14223628.96547  21256036.7744   21256035.5884   21256037.182
        45.6004         42.6004
 -20295291.34447 -15369904.55047  21144395.9634   21144392.9394   21144396.633
        46.3004         43.5004
 -10344605.37447  -8039380.96646  22380697.0414   22380698.6584   22380696.624
        42.9004         40.0004
    122094.92845    332659.83945  24443227.5304   24443228.0324   24443230.125
        35.6004         34.0004
 -16434205.74347 -12558022.97546  22187874.6764   22187876.9104   22187874.560
        43.7004         41.1004
  -5279527.65746  -4101904.40145  24685832.8024   24685833.5994   24685834.632
        37.3004         35.3004
 -24128058.58548 -18788609.24647  20216436.4584   20216434.2014   20216436.119
        49.5004         46.5004
  -4068297.63146  -3160217.92746  23500403.6364   23500405.2094   23500404.377
        38.3004         36.2004
  -8742675.01047  -6797262.07146  22768375.2924   22768375.3484   22768374.537
        43.2004         40.4004
  -6837476.68746  -5315423.60346  23277261.0764   23277263.2324   23277260.956
        40.6004         38.1004
  -2785521.79246  -2147267.89246  24416770.3844   24416772.7244   24416769.929
        38.3004         36.4004
 16 11 15  0 39  0.0000000  0 11G14G22G01G11G03G23G31G25G32G26G10
 -18575773.57847 -14196191.66147  21262737.4804   21262735.7804   21262737.482
        45.6004         42.6004
 -20350538.31347 -15412954.13047  21133882.8554   21133880.1134   21133883.547
        46.3004         43.3004
 -10300019.43147  -8004638.67446  22389181.9014   22389183.4754   22389181.200
        42.9004         40.2004
    201104.88845    394226.02945  24458265.5264   24458265.0124   24458264.791
        35.4004         33.8004
 -16516136.96147 -12621865.45246  22172283.8654   22172285.5604   22172283.281
        43.7004         41.1004
  -5356630.93946  -4161984.79245  24671163.3114   24671159.9344   24671163.070
        37.3004         35.3004
 -24099408.18248 -18766284.24447  20221888.3954   20221886.1624   20221888.099
        49.5004         46.5004
  -4028057.00646  -3128861.57945  23508061.8154   23508062.3474   23508061.597
        38.2004         35.7004
  -8674357.04447  -6744027.29546  22781375.2734   22781376.1534   22781375.361
        43.0004         40.2004
  -6932274.45946  -5389291.96646  23259221.4464   23259224.4234   23259221.110
        40.6004         37.9004
  -2680132.42446  -2065146.31746  24436824.8234   24436826.2714   24436824.979
        38.7004         36.4004
 16 11 15  0 39 30.0000000  0 11G14G22G01G11G03G23G31G25G32G26G10
 -18540388.29747 -14168618.70347  21269470.7254   21269469.8424   21269471.085
        45.5004         42.6004
 -20405411.65247 -15455712.56747  21123440.6084   21123438.2904   21123441.464
        46.3004         43.5004
 -10254945.31047  -7969515.99046  22397758.2904   22397760.7984   22397758.580
        42.7004         39.9004
    280254.19745    455900.79845  24473325.5104   24473325.0934   24473326.029
        35.2004         33.4004
 -16597802.16847 -12685500.64846  22156743.6954   22156745.1004   22156743.233
        43.9004         41.2004
  -5433720.65946  -4222054.60245  24656490.9004   24656488.8044   24656491.956
        37.0004         35.0004
 -24070260.68248 -18743571.89647  20227434.9174   20227432.7394   20227434.557
        49.5004         46.5004
  -3987246.97246  -3097061.54246  23515827.3694   23515828.9394   23515827.684
        38.2004         36.0004
  -8605920.57847  -6690700.18046  22794398.8224   22794398.7004   22794398.038
        43.0004         40.0004
  -7026886.28046  -5463015.41446  23241217.1734   23241219.1154   23241217.025
        40.4004         37.8004
  -2574598.96046  -1982912.45446  24456906.8774   24456909.4724   24456907.191
        38.7004         36.6004
 16 11 15  0 40  0.0000000  0 11G14G22G01G11G03G23G31G25G32G26G10
 -18504829.07247 -14140910.21547  21276237.5384   21276236.1914   21276237.615
        45.5004         42.5004
 -20459909.21247 -15498178.18747  21113070.5294   21113067.1164   21113070.985
        46.5004         43.5004
 -10209385.06247  -7934014.49946  22406429.7594   22406429.3714   22406428.224
        42.5004         39.7004
    359539.50745    517681.55945  24488411.9324   24488413.2034   24488413.353
        35.0004         33.4004
 -16679198.95447 -12748926.69446  22141254.8664   22141255.6564   22141254.068
        43.9004         41.2004
  -5510796.93646  -4282113.95845  24641824.9954   24641823.4004   24641825.092
        37.0004         35.0004
 -24040618.29148 -18720473.91747  20233075.1274   20233073.5544   20233075.238
        49.5004         46.5004
  -3945868.69846  -3064818.71045  23523700.8444   23523703.3104   23523701.291
        38.0004         35.7004
  -8537365.86447  -6637280.91746  22807444.3364   22807444.6684   22807443.594
        42.9004         40.2004
  -7121309.07546  -5536591.56346  23223248.7844   23223250.6364   23223248.687
        40.1004         37.4004
  -2468923.08646  -1900567.60146  24477016.9634   24477017.9774   24477017.393
        38.7004         36.4004
 16 11 15  0 40 30.0000000  0 11G14G22G01G11G03G23G31G25G32G26G10
 -18469095.86247 -14113066.13947  21283037.4774   21283035.9064   21283037.796
        45.5004         42.6004
 -20514028.92247 -15540349.37747  21102771.5094   21102768.8804   21102772.363
        46.5004         43.7004
 -10163341.15447  -7898136.12446  22415190.5114   22415191.6214   22415190.039
        42.5004         39.7004
    438957.92045    579566.03145  24503525.9764   24503525.7794   24503526.369
        35.2004         33.8004
 -16760324.91347 -12812141.70046  22125817.1124   22125817.3954   22125816.350
        44.1004         41.1004
  -5587859.65346  -4342162.74145  24627161.5974   24627157.0634   24627160.381
        36.8004         34.8004
 -24010482.76448 -18696991.68047  20238810.1184   20238808.3404   20238809.983
        49.5004         46.5004
  -3903923.50246  -3032134.12545  23531683.1404   23531685.9984   23531683.275
        38.2004         35.9004
  -8468693.13647  -6583769.70346  22820512.8084   22820512.2474   22820511.961
        42.9004         40.0004
  -7215539.67546  -5610017.94946  23205316.3754   23205319.3994   23205316.941
        39.7004         37.3004
  -2363106.47446  -1818113.11446  24497153.3014   24497155.2944   24497152.690
        38.5004         36.2004
 16 11 15  0 41  0.0000000  0 11G14G22G01G11G03G23G31G25G32G26G10
 -18433189.14647 -14085086.87047  21289870.3274   21289869.2514   21289870.673
        45.6004         42.6004
 -20567768.53447 -15582224.38447  21092545.1034   21092542.4504   21092546.191
        46.7004         43.7004
 -10116815.63647  -7861882.47446  22424044.1234   22424046.4254   22424043.314
        42.3004         39.7004
    518505.79045    641551.37845  24518665.6054   24518663.1004   24518663.873
        35.4004         33.8004
 -16841177.69247 -12875143.83246  22110431.0634   22110432.0184   22110430.524
        44.1004         41.2004
  -5664908.53946  -4402200.71545  24612497.6454   24612495.6594   24612497.963
        36.8004         34.8004
 -23979855.62548 -18673126.36747  20244637.9774   20244636.3294   20244637.898
        49.3004         46.3004
  -3861412.64346  -2999008.76945  23539773.6274   23539774.1694   23539772.849
        38.0004         35.7004
  -8399902.60447  -6530166.69546  22833603.5214   22833603.1274   22833602.197
        42.9004         40.0004
  -7309575.00346  -5683292.18446  23187422.9974   23187425.4254   23187422.421
        39.6004         36.9004
  -2257150.82446  -1735550.28145  24517315.1474   24517316.8984   24517315.269
        38.0004         35.3004
 16 11 15  0 41 30.0000000  0 11G14G22G01G11G03G23G31G25G32G26G10
 -18397109.24747 -14056972.66047  21296735.8614   21296734.9594   21296736.372
        45.6004         42.6004
 -20621126.27347 -15623801.82747  21082391.8764   21082388.9824   21082392.488
        46.9004         44.0004
 -10069810.74247  -7825255.28846  22432988.4524   22432990.4174   22432988.228
        42.3004         39.7004
    598180.28946    703635.40045  24533826.4844   24533825.1184   24533826.071
        36.1004         34.5004
 -16921754.83747 -12937931.18846  22095097.4774   22095098.1144   22095097.119
        44.1004         41.2004
  -5741943.52746  -4462227.87545  24597837.8214   24597834.9324   24597838.236
        36.6004         34.8004
 -23948738.97648 -18648879.62047  20250559.4554   20250557.6574   20250559.245
        49.3004         46.3004
  -3818337.42946  -2965443.65345  23547970.6034   23547972.0834   23547969.950
        38.0004         35.7004
  -8330994.49547  -6476472.06746  22846715.1274   22846716.0334   22846715.158
        42.7004         39.9004
  -7403411.89046  -5756411.78146  23169566.0704   23169568.8614   23169565.586
        39.6004         37.1004
  -2151057.73746  -1652880.37845  24537503.9744   24537505.5564   24537503.416
        37.3004         35.0004
 16 11 15  0 42  0.0000000  0 11G14G22G01G11G03G23G31G25G32G26G10
 -18360856.18947 -14028723.51847  21303634.8254   21303633.2294   21303635.152
        45.6004         42.6004
 -20674100.20547 -15665080.19847  21072310.9614   21072308.3994   21072311.949
        46.9004         43.9004
 -10022328.71647  -7788256.30846  22442024.1974   22442026.2984   22442023.712
        42.3004         39.5004
    677978.98546    765816.18445  24549011.5294   24549009.4454   24549011.687
        36.4004         34.6004
 -17002053.95747 -13000501.89646  22079816.7824   22079817.6484   22079816.733
        44.2004         41.6004
  -5818964.81846  -4522244.34745  24583181.6654   24583178.8594   24583183.113
        36.6004         34.6004
 -23917134.75748 -18624252.95047  20256573.7234   20256571.5534   20256573.523
        49.3004         46.3004
  -3774699.17846  -2931439.82045  23556272.2534   23556275.6304   23556274.056
        38.0004         35.9004
  -8261969.01647  -6422685.97546  22859849.0704   22859850.8074   22859849.893
        42.5004         39.7004
  -7497047.20746  -5829374.32646  23151748.2744   23151750.9284   23151747.457
        39.7004         37.4004
  -2044828.98846  -1570104.75145  24557717.7484   24557719.8304   24557718.141
        37.0004         35.0004
 16 11 15  0 42 30.0000000  0 11G14G22G01G11G03G23G31G25G32G26G10
 -18324430.08847 -14000339.53047  21310566.0914   21310565.0734   21310566.480
        45.5004         42.5004
 -20726688.16247 -15706057.81047  21062303.6734   21062300.6604   21062304.859
        47.0004         44.0004
  -9974371.81147  -7750887.30246  22451150.1194   22451152.5224   22451149.777
        42.3004         39.7004
    757898.51946    828091.12345  24564219.6414   24564216.9614   24564219.756
        36.6004         34.6004
 -17082072.61947 -13062854.06046  22064590.5724   22064591.4734   22064589.775
        44.6004         41.9004
  -5895972.07246  -4582249.90945  24568528.2444   24568526.0174   24568529.647
        37.0004         35.0004
 -23885044.77748 -18599247.75947  20262680.1354   20262678.1384   20262680.043
        49.3004         46.3004
  -3730499.26546  -2896998.32945  23564684.4114   23564686.1354   23564685.076
        37.8004         35.5004
  -8192826.39347  -6368808.59846  22873007.7474   22873009.2474   22873007.120
        42.5004         39.7004
  -7590477.85146  -5902177.38446  23133968.1584   23133972.0004   23133968.304
        39.9004         37.6004
  -1938466.27846  -1487224.72745  24577959.6884   24577960.0074   24577958.399
        37.0004         35.0004
 16 11 15  0 43  0.0000000  0 11G14G22G01G11G03G23G31G25G32G26G10
 -18287831.09647 -13971820.82647  21317530.8174   21317529.6964   21317531.255
        45.5004         42.6004
 -20778888.34647 -15746733.26647  21052370.8144   21052367.7344   21052371.509
        47.0004         44.0004
  -9925942.31047  -7713150.03046  22460366.0444   22460367.4734   22460365.621
        42.3004         39.7004
    837935.44046    890457.56345  24579449.0354   24579449.5474   24579449.862
        36.4004         34.5004
 -17161808.45547 -13124985.85346  22049417.2354   22049418.3844   22049416.548
        44.8004         41.9004
  -5972965.33846  -4642244.56045  24553877.2504   24553874.7424   24553877.416
        37.3004         35.5004
 -23852470.87548 -18573865.48947  20268878.9074   20268876.5854   20268878.482
        49.3004         46.3004
  -3685739.04546  -2862120.21845  23573202.9164   23573203.8074   23573202.716
        37.8004         35.5004
  -8123566.81847  -6314840.10746  22886187.0354   22886188.6114   22886187.032
        42.5004         39.9004
  -7683700.66846  -5974818.50146  23116228.0834   23116231.9134   23116228.382
        40.3004         37.8004
  -1831971.33446  -1404241.64745  24598224.8604   24598225.7334   24598223.947
        36.8004         34.8004
 16 11 15  0 43 30.0000000  0 11G14G22G01G11G03G23G31G25G32G26G10
 -18251059.42047 -13943167.56547  21324528.3214   21324526.9714   21324528.655
        45.5004         42.5004
 -20830698.24047 -15787104.60247  21042511.8684   21042508.8064   21042512.550
        47.2004         44.2004
  -9877042.51447  -7675046.29346  22469671.7344   22469673.4924   22469670.734
        42.3004         39.7004
    918086.90046    952913.23945  24594701.8954   24594700.5444   24594702.031
        36.4004         34.5004
 -17241259.00047 -13186895.34147  22034298.2414   22034299.0134   22034297.647
        45.1004         42.3004
  -6049944.60146  -4702228.32745  24539228.5804   24539225.2334   24539228.037
        37.5004         35.5004
 -23819415.02848 -18548107.67647  20275169.3184   20275166.8054   20275168.941
        49.3004         46.3004
  -3640419.93246  -2826806.61445  23581826.6814   23581828.0544   23581826.547
        38.0004         35.7004
  -8054190.49647  -6260780.62846  22899389.6394   22899390.1164   22899389.282
        42.5004         39.9004
  -7776712.55446  -6047295.26046  23098529.1024   23098532.0694   23098529.027
        40.4004         37.9004
  -1725345.82546  -1321156.83545  24618514.1184   24618517.2554   24618514.512
        36.4004         34.5004
 16 11 15  0 44  0.0000000  0 11G14G22G01G11G03G23G31G25G32G26G10
 -18214115.26547 -13914379.90147  21331558.5934   21331557.1724   21331558.862
        45.5004         42.6004
 -20882116.18447 -15827170.51747  21032726.7574   21032724.0714   21032728.093
        47.2004         44.2004
  -9827674.70147  -7636577.87646  22479066.3294   22479067.4604   22479065.233
        42.3004         39.5004
    998350.13346   1015456.00945  24609976.0314   24609975.4114   24609975.812
        36.4004         34.5004
 -17320421.88247 -13248580.68247  22019233.5474   22019234.6094   22019233.170
        45.1004         42.5004
  -6126909.83946  -4762201.14445  24524583.0494   24524579.3814   24524583.309
        37.8004         35.7004
 -23785878.81048 -18521975.55247  20281550.7594   20281548.6484   20281550.670
        49.1004         46.1004
  -3594543.31946  -2791058.59945  23590556.2584   23590557.6854   23590556.938
        37.8004         35.7004
  -7984697.66047  -6206630.36346  22912612.9214   22912614.6674   22912612.683
        42.3004         39.7004
  -7869510.38046  -6119605.21746  23080870.1974   23080873.1244   23080870.351
        40.6004         38.1004
  -1618591.49346  -1237971.64445  24638827.9674   24638831.5094   24638828.535
        36.6004         34.6004
 16 11 15  0 44 30.0000000  0 11G14G22G01G11G03G23G31G25G32G26G10
 -18176998.83547 -13885457.99747  21338621.3764   21338620.2504   21338622.015
        45.5004         42.5004
 -20933140.20247 -15866929.47747  21023017.4364   21023014.5104   21023018.296
        47.2004         44.2004
  -9777841.23447  -7597746.60546  22488548.5704   22488550.0594   22488548.570
        42.5004         39.9004
   1078721.68446   1078083.19545  24625268.2024   24625268.3254   24625269.725
        36.3004         34.3004
 -17399294.66947 -13310039.97647  22004224.1394   22004225.8694   22004224.005
        45.1004         42.3004
  -6203860.99646  -4822163.00446  24509940.2724   24509937.1614   24509940.360
        38.2004         36.0004
 -23751864.62348 -18495470.98147  20288023.4434   20288021.3904   20288023.192
        49.1004         46.1004
  -3548110.68146  -2754877.31945  23599392.7184   23599393.3924   23599392.247
        38.0004         35.7004
  -7915088.50347  -6152389.46946  22925859.4114   22925860.7154   22925859.398
        42.3004         39.7004
  -7962091.02046  -6191745.93146  23063252.4034   23063256.1994   23063252.727
        40.6004         38.1004
  -1511710.00446  -1154687.39445  24659167.9224   24659168.7804   24659166.970
        36.8004         34.8004
 16 11 15  0 45  0.0000000  0 11G14G22G01G11G03G23G31G25G32G26G10
 -18139710.09447 -13856401.82247  21345717.6304   21345715.8234   21345717.909
        45.5004         42.5004
 -20983768.27747 -15906379.90647  21013383.0614   21013380.2784   21013383.901
        47.2004         44.2004
  -9727544.39947  -7558554.27246  22498120.1344   22498121.7934   22498119.583
        42.5004         39.9004
   1159198.80346   1140792.61645  24640583.3974   24640583.0954   24640584.752
        36.3004         34.5004
 -17477874.94347 -13371271.33447  21989271.0274   21989272.6964   21989270.465
        45.1004         42.1004
  -6280797.69046  -4882113.61246  24495299.2594   24495295.5354   24495298.871
        38.5004         36.4004
 -23717374.10148 -18468595.24247  20294586.9074   20294584.7624   20294586.664
        49.1004         46.1004
  -3501123.45946  -2718263.90145  23608333.3464   23608334.9854   23608333.602
        37.8004         35.5004
  -7845363.19147  -6098058.05846  22939128.6624   22939128.8094   22939127.794
        42.3004         39.7004
  -8054451.37946  -6263715.00746  23045676.6784   23045679.9564   23045676.842
        40.6004         38.1004
  -1404703.14946  -1071305.41645  24679530.7964   24679532.7074   24679530.388
        37.0004         35.0004
 16 11 15  0 45 30.0000000  0 11G14G22G01G11G03G23G31G25G32G26G10
 -18102249.22447 -13827211.52547  21352846.3594   21352844.3274   21352846.487
        45.5004         42.5004
 -21033998.42647 -15945520.27147  21003824.6034   21003821.6404   21003825.614
        47.2004         44.0004
  -9676786.65347  -7519002.79346  22507778.5064   22507780.5694   22507778.428
        42.5004         39.7004
   1239778.53346   1203581.97645  24655917.0274   24655918.2974   24655918.265
        36.3004         34.3004
 -17556160.28847 -13432272.88647  21974373.5624   21974375.3364   21974373.490
        45.1004         42.1004
  -6357719.82546  -4942052.87346  24480660.7154   24480657.9334   24480660.878
        38.9004         36.6004
 -23682409.24048 -18441349.88447  20301240.7004   20301238.4274   20301240.272
        48.9004         45.9004
  -3453583.12146  -2681219.46845  23617380.8114   23617381.7474   23617380.232
        37.8004         35.5004
  -7775521.98847  -6043636.35546  22952418.3914   22952419.1714   22952418.050
        42.3004         39.7004
  -8146588.28746  -6335509.95146  23028143.3964   23028147.3504   23028144.108
        40.6004         38.1004
  -1297572.60346   -987827.05045  24699916.8914   24699918.4764   24699916.626
        37.3004         35.2004
 16 11 15  0 46  0.0000000  0 11G14G22G01G11G03G23G31G25G32G26G10
 -18064616.31747 -13797887.16947  21360006.9714   21360006.0484   21360007.927
        45.5004         42.5004
 -21083828.44147 -15984348.83747  20994342.1894   20994339.4954   20994343.066
        47.0004         44.0004
  -9625570.28647  -7479093.92846  22517524.7374   22517526.7634   22517524.443
        42.5004         39.7004
   1320457.69146   1266448.84245  24671270.5664   24671268.7914   24671270.701
        36.4004         34.5004
 -17634148.26047 -13493042.71247  21959533.8104   21959534.8484   21959533.061
        45.1004         42.3004
  -6434627.60346  -5001980.97146  24466025.6214   24466022.7304   24466025.964
        38.9004         36.6004
 -23646971.93948 -18413736.39247  20307983.8184   20307981.5404   20307983.623
        48.9004         45.9004
  -3405491.21546  -2643745.25245  23626531.4754   23626533.7044   23626531.841
        37.8004         35.5004
  -7705565.00847  -5989124.42946  22965730.5624   22965730.3584   22965730.511
        42.2004         39.3004
  -8238498.66146  -6407128.37946  23010654.0574   23010657.7884   23010654.053
        40.9004         38.5004
  -1190320.08846   -904253.65545  24720326.2734   24720329.4014   24720325.643
        37.3004         35.0004
 16 11 15  0 46 30.0000000  0 11G14G22G01G11G03G23G31G25G32G26G10
 -18026811.84247 -13768429.12947  21367200.8334   21367199.8924   21367201.588
        45.5004         42.5004
 -21133256.39747 -16022864.11747  20984936.0034   20984932.9834   20984937.242
        47.0004         43.9004
  -9573897.70647  -7438829.58246  22527357.9204   22527359.3744   22527357.691
        42.5004         39.9004
   1401232.85946   1329390.52045  24686641.2724   24686640.8974   24686641.351
        36.3004         34.1004
 -17711836.48347 -13553578.96747  21944749.7694   21944750.5614   21944749.535
        45.3004         42.3004
  -6511520.56046  -5061897.51246  24451393.1944   24451390.5764   24451393.579
        38.9004         36.6004
 -23611064.25948 -18385756.37147  20314817.0574   20314814.7754   20314816.594
        48.9004         45.9004
  -3356849.23046  -2605842.39345  23635787.3154   23635790.0784   23635788.138
        37.8004         35.5004
  -7635492.53647  -5934522.50246  22979066.1494   22979065.3864   22979064.513
        42.2004         39.5004
  -8330179.34946  -6478567.82046  22993207.6544   22993211.0524   22993208.071
        41.1004         38.5004
  -1082947.36346   -820586.57745  24740758.1824   24740760.2504   24740757.739
        36.8004         34.6004
 16 11 15  0 47  0.0000000  0 11G14G22G01G11G03G23G31G25G32G26G10
 -17988835.98547 -13738837.54947  21374427.4944   21374426.3314   21374428.034
        45.5004         42.5004
 -21182280.41747 -16061064.64347  20975607.1934   20975604.6114   20975608.162
        46.9004         43.9004
  -9521771.36047  -7398211.65446  22537277.3654   22537279.0194   22537276.891
        42.5004         39.9004
   1482101.52946   1392405.04845  24702029.0774   24702029.5204   24702029.960
        36.4004         34.6004
 -17789222.48147 -13613879.71847  21930023.6744   21930024.6434   21930023.416
        45.3004         42.5004
  -6588398.77046  -5121802.54546  24436764.9594   24436760.8684   24436763.858
        38.9004         36.4004
 -23574688.28748 -18357411.44747  20321738.9804   20321736.8124   20321738.516
        48.9004         45.9004
  -3307658.74046  -2567512.12045  23645148.5924   23645149.4754   23645148.765
        37.8004         35.7004
  -7565304.69647  -5879830.68146  22992420.9234   22992422.2174   22992420.890
        42.3004         39.7004
  -8421627.22646  -6549825.85246  22975806.2494   22975808.7624   22975805.824
        41.3004         38.6004
   -975456.13146   -736827.12645  24761213.7734   24761216.1194   24761212.761
        36.4004         34.3004
 16 11 15  0 47 30.0000000  0 11G14G22G01G11G03G23G31G25G32G26G10
 -17950688.46647 -13709112.20347  21381687.1644   21381685.5614   21381687.533
        45.5004         42.6004
 -21230898.47447 -16098948.83047  20966355.6494   20966352.4764   20966356.520
        46.9004         43.9004
  -9469193.60547  -7357241.98446  22547283.1254   22547283.9784   22547282.163
        42.5004         39.5004
   1563060.83045   1455490.20645  24717435.5074   24717435.2644   24717436.236
        35.9004         34.1004
 -17866303.87447 -13673943.11047  21915356.3074   21915356.2754   21915355.315
        45.3004         42.5004
  -6665262.31546  -5181696.18446  24422136.7494   24422135.2564   24422137.786
        38.9004         36.7004
 -23537845.70748 -18328702.93247  20328749.8684   20328747.8804   20328749.434
        48.8004         45.9004
  -3257921.29746  -2528755.66745  23654613.2814   23654615.3884   23654613.065
        37.6004         35.3004
  -7495001.71247  -5825049.14246  23005798.2484   23005799.2054   23005798.788
        42.2004         39.5004
  -8512839.20346  -6620900.06646  22958449.0744   22958451.4894   22958448.505
        41.5004         38.8004
   -867848.14446   -652976.71045  24781689.8894   24781694.3174   24781690.796
        36.1004         34.3004
 16 11 15  0 48  0.0000000  0 11G14G22G01G11G03G23G31G25G32G26G10
 -17912369.45547 -13679253.22547  21388979.1724   21388977.2644   21388979.245
        45.5004         42.5004
 -21279108.50547 -16136515.07047  20957181.7814   20957178.5554   20957182.465
        46.9004         44.0004
  -9416166.89547  -7315922.46946  22557373.4374   22557375.1704   22557372.897
        42.3004         39.5004
   1644107.15846   1518643.19845  24732859.0644   24732858.3784   24732859.058
        36.1004         34.3004
 -17943078.21347 -13733767.25047  21900745.8514   21900747.2054   21900745.615
        45.3004         42.5004
  -6742110.92246  -5241578.18246  24407513.0424   24407511.6674   24407513.685
        39.0004         36.6004
 -23500538.89348 -18299632.67447  20335849.1434   20335847.0584   20335848.871
        48.8004         45.9004
  -3207638.47546  -2489574.23845  23664181.3884   23664183.4934   23664181.950
        37.6004         35.5004
  -7424583.72647  -5770177.99846  23019199.3034   23019200.7134   23019199.034
        42.0004         39.3004
  -8603812.14346  -6691788.01046  22941137.3804   22941139.7804   22941137.201
        41.5004         38.8004
   -760125.14346   -569036.68645  24802186.9374   24802193.6314   24802189.502
        36.1004         34.3004
 16 11 15  0 48 30.0000000  0 12G14G22G01G11G03G23G31G25G32G16G26G10
 -17873879.43847 -13649260.99847  21396303.6534   21396301.9774   21396303.752
        45.5004         42.3004
 -21326908.85547 -16173762.08647  20948085.4074   20948082.5424   20948086.403
        47.0004         44.0004
  -9362693.72847  -7274255.08146  22567548.7874   22567550.3594   22567548.299
        42.2004         39.3004
   1725237.64446   1581861.72545  24748298.3434   24748296.3154   24748298.861
        36.3004         34.5004
 -18019543.08647 -13793350.24847  21886195.5104   21886195.6114   21886194.586
        45.3004         42.5004
  -6818944.27946  -5301448.29046  24392891.9654   24392890.2254   24392892.478
        39.2004         36.6004
 -23462769.63148 -18270202.07047  20343036.4154   20343034.3204   20343036.316
        48.8004         45.8004
  -3156811.94746  -2449969.14245  23673853.8364   23673856.3184   23673854.055
        37.6004         35.5004
  -7354050.95146  -5715217.41046  23032621.7534   23032622.3314   23032621.156
        41.8004         39.0004
    -42693.89944     -5662.672            .000    24674612.238        -139.940
        26.4004          1.500
  -8694542.97646  -6762487.31446  22923872.7954   22923874.8734   22923871.500
        41.5004         38.8004
   -652288.89846   -485008.41545  24822710.2904   24822711.5934   24822710.216
        36.1004         34.3004
 16 11 15  0 49  0.0000000  0 12G14G22G01G11G03G23G31G25G32G16G26G10
 -17835218.36447 -13619135.47447  21403660.3794   21403658.8314   21403660.624
        45.5004         42.6004
 -21374297.47447 -16210688.27347  20939067.5484   20939064.6804   20939068.402
        47.0004         43.9004
  -9308776.51147  -7232241.66146  22577808.9284   22577810.2064   22577808.399
        42.0004         39.3004
   1806449.46445   1645143.63745  24763750.5494   24763750.4044   24763752.159
        35.9004         34.3004
 -18095696.06947 -13852690.21447  21871703.5434   21871704.1694   21871703.043
        45.3004         42.5004
  -6895762.51546  -5361306.64146  24378273.8614   24378270.6974   24378274.845
        39.2004         36.7004
 -23424539.97048 -18240412.71247  20350310.9354   20350309.1824   20350310.866
        48.8004         45.8004
  -3105443.29546  -2409941.60845  23683628.4374   23683630.8594   23683629.253
        37.6004         35.3004
  -7283403.56646  -5660167.49046  23046066.6634   23046065.1574   23046064.665
        41.6004         38.8004
   -155925.45844    -95365.17345          .000            .000    24652694.101
        26.4004         31.9004
  -8785028.58946  -6832995.52946  22906653.4404   22906655.5984   22906652.788
        41.5004         38.8004
   -544341.12246   -400893.23045  24843251.2984   24843255.2844   24843251.279
        36.3004         34.5004
 16 11 15  0 49 30.0000000  0 12G14G22G01G11G03G23G31G25G32G16G26G10
 -17796386.22047 -13588876.64747  21411050.3524   21411048.2604   21411050.084
        45.5004         42.6004
 -21421272.40047 -16247292.09947  20930128.6194   20930125.7544   20930129.201
        47.0004         44.0004
  -9254417.78246  -7189884.21046  22588153.5584   22588155.8734   22588152.687
        41.8004         39.2004
   1887739.49345   1708486.49845  24779220.0044   24779220.1434   24779221.052
        35.9004         34.1004
 -18171534.70747 -13911785.24747  21857271.8764   21857273.0714   21857271.315
        45.3004         42.5004
  -6972565.34646  -5421152.97046  24363658.8254   24363657.7664   24363659.455
        39.0004         36.7004
 -23385851.88748 -18210266.14447  20357673.0504   20357671.1734   20357673.040
        48.8004         45.8004
  -3053534.20446  -2369492.96045  23693506.4604   23693508.0414   23693507.019
        37.5004         35.3004
  -7212641.75346  -5605028.41846  23059530.9844   23059530.5834   23059530.028
        41.5004         39.0004
   -269220.51045   -183647.04845          .000    24631135.1454   24631135.003
        32.8004         33.6004
  -8875265.85146  -6903310.22546  22889480.9294   22889484.0104   22889481.177
        41.5004         38.6004
   -436283.58546   -316692.55145  24863812.2754   24863816.6984   24863814.171
        36.3004         34.5004
 16 11 15  0 50  0.0000000  0 12G14G22G01G11G03G23G31G25G32G16G26G10
 -17757382.99047 -13558484.51247  21418471.6214   21418470.0474   21418472.236
        45.5004         42.5004
 -21467831.45747 -16283571.87347  20921268.3684   20921265.9824   20921269.550
        47.0004         44.0004
  -9199619.96646  -7147184.60646  22598579.6134   22598583.2414   22598580.028
        41.8004         39.2004
   1969104.43745   1771887.72745  24794703.0994   24794704.5834   24794704.341
        35.9004         34.1004
 -18247056.59247 -13970633.45547  21842900.4364   21842901.4244   21842900.015
        45.5004         42.6004
  -7049352.50046  -5480987.10146  24349046.6734   24349044.9424   24349046.876
        39.0004         36.6004
 -23346707.47048 -18179763.99147  20365122.3214   20365120.1844   20365122.063
        48.8004         45.8004
  -3001086.34546  -2328624.48145  23703488.9254   23703489.4884   23703487.592
        37.6004         35.7004
  -7141765.68246  -5549800.31646  23073018.0384   23073018.5284   23073017.565
        41.5004         38.6004
   -382575.52345   -271975.64545  24609564.7664   24609563.4454   24609564.049
        35.6004         34.3004
  -8965251.69946  -6973429.00546  22872357.5884   22872359.6124   22872357.137
        41.3004         38.6004
   -328118.05846   -232407.70945  24884398.3954   24884401.0864   24884397.354
        36.1004         34.3004
 16 11 15  0 50 30.0000000  0 12G14G22G01G11G03G23G31G25G32G16G26G10
 -17718209.19747 -13527959.46947  21425926.6974   21425924.8464   21425926.706
        45.5004         42.5004
 -21513972.94547 -16319526.27047  20912488.0664   20912485.4034   20912488.948
        47.0004         44.0004
  -9144385.61746  -7104144.87246  22609091.0584   22609093.7084   22609090.766
        41.8004         39.2004
   2050541.29745   1835344.98045  24810200.5044   24810198.4954   24810201.021
        35.7004         34.1004
 -18322259.27847 -14029232.93947  21828590.2284   21828590.9284   21828589.352
        45.5004         42.8004
  -7126124.19046  -5540809.17446  24334438.3714   24334436.1704   24334437.923
        38.9004         36.2004
 -23307108.61148 -18148907.72647  20372657.4614   20372655.4934   20372657.255
        48.6004         45.6004
  -2948101.37946  -2287337.47345  23713569.2324   23713571.8634   23713569.669
        37.5004         35.3004
  -7070775.52846  -5494483.30646  23086526.6684   23086527.8434   23086526.486
        41.3004         38.3004
   -495988.16546   -360349.09345  24587980.5784   24587981.8464   24587982.277
        36.1004         34.3004
  -9054982.98646  -7043349.43746  22855282.7814   22855284.5904   22855282.297
        41.5004         38.8004
   -219846.24145   -148040.05845  24904998.9724   24905003.1314   24905000.069
        35.7004         33.8004
 16 11 15  0 51  0.0000000  0 12G14G22G01G11G03G23G31G25G32G16G26G10
 -17678864.74347 -13497301.44847  21433413.5054   21433411.6804   21433413.795
        45.5004         42.5004
 -21559695.19947 -16355153.99447  20903787.8074   20903784.7714   20903788.433
        47.0004         44.0004
  -9088717.25546  -7060766.91646  22619683.9294   22619686.3004   22619683.958
        41.8004         39.0004
   2132047.45145   1898856.23645  24825710.6734   24825712.0794   24825711.681
        35.6004         33.8004
 -18397140.33047 -14087581.80447  21814341.0734   21814342.0484   21814340.189
        45.6004         42.8004
  -7202879.99546  -5600618.86346  24319830.3334   24319829.6174   24319831.974
        38.9004         36.4004
 -23267057.57648 -18117699.11847  20380279.1104   20380276.9654   20380278.890
        48.6004         45.6004
  -2894581.04846  -2245633.33645  23723754.1754   23723756.1284   23723754.251
        37.6004         35.3004
  -6999671.49246  -5439077.54946  23100057.2634   23100057.8124   23100057.294
        41.1004         38.5004
   -609455.18246   -448764.95945  24566389.7254   24566388.6644   24566389.943
        36.1004         34.1004
  -9144456.65746  -7113069.12346  22838256.3774   22838258.6484   22838255.802
        41.5004         38.8004
   -111469.85145    -63590.92645  24925625.3284   24925627.3944   24925623.169
        35.2004         33.1004
 16 11 15  0 51 30.0000000  0 12G14G22G01G11G03G23G31G25G32G16G26G10
 -17639349.62047 -13466510.43547  21440933.1374   21440931.8054   21440933.071
        45.5004         42.5004
 -21604996.13147 -16390453.40547  20895166.9484   20895164.2074   20895167.939
        47.0004         44.2004
  -9032617.44046  -7017052.78946  22630359.5784   22630361.3714   22630359.322
        41.6004         38.8004
   2213619.93345   1962419.18845  24841233.0224   24841232.3964   24841234.411
        35.6004         33.8004
 -18471697.40947 -14145678.21847  21800153.1374   21800154.2274   21800152.648
        45.6004         42.8004
  -7279619.88046  -5660416.15746  24305227.8594   24305226.0094   24305228.267
        38.7004         36.2004
 -23226556.33748 -18086139.70247  20387986.0784   20387984.0384   20387985.804
        48.6004         45.6004
  -2840527.09046  -2203513.36845  23734039.2884   23734042.2584   23734040.218
        37.6004         35.7004
  -6928453.71746  -5383583.18246  23113610.0164   23113610.2694   23113609.273
        40.9004         38.5004
   -722973.83245   -537221.03245  24544788.4704   24544786.5774   24544787.500
        35.6004         33.6004
  -9233669.58746  -7182585.64246  22821278.8844   22821281.9844   22821278.962
        41.5004         38.8004
     -2990.75045     20938.24845  24946265.8594   24946269.6244   24946265.864
        34.3004         32.6004
 16 11 15  0 52  0.0000000  0 12G14G22G01G11G03G23G31G25G32G16G26G10
 -17599664.12947 -13435586.66847  21448484.8974   21448483.7154   21448485.051
        45.5004         42.6004
 -21649873.64647 -16425422.88647  20886627.0454   20886624.5164   20886628.086
        47.2004         44.2004
  -8976088.65346  -6973004.38846  22641117.2604   22641118.5224   22641116.549
        41.6004         38.8004
   2295255.34645   2026031.17545  24856768.8634   24856766.2534   24856768.002
        35.2004         33.8004
 -18545928.03947 -14203520.24747  21786027.4554   21786028.1084   21786026.819
        45.6004         42.6004
  -7356343.88146  -5720201.06546  24290628.1304   24290624.7364   24290628.172
        38.7004         36.0004
 -23185606.91948 -18054231.05747  20395778.7264   20395776.5164   20395778.310
        48.6004         45.6004
  -2785941.29546  -2160978.98245  23744428.2734   23744430.0154   23744428.393
        37.6004         35.5004
  -6857122.39846  -5328000.34146  23127184.2454   23127184.2004   23127183.396
        40.9004         38.1004
   -836541.08845   -625714.94145  24523177.5464   24523175.0924   24523175.872
        34.7004         33.3004
  -9322618.67146  -7251896.57146  22804353.2734   22804355.2114   22804352.571
        41.6004         39.0004
    105589.35645    105546.07945  24966929.8354   24966932.5334   24966928.531
        34.2004         32.7004
 16 11 15  0 52 30.0000000  0 12G14G22G01G11G03G23G31G25G32G16G26G10
 -17559808.30147 -13404530.16847  21456069.2424   21456068.2774   21456069.396
        45.5004         42.5004
 -21694325.96147 -16460061.04847  20878168.0784   20878165.4754   20878169.030
        47.2004         44.2004
  -8919133.52346  -6928623.76646  22651955.5584   22651957.6354   22651954.762
        41.6004         39.2004
   2376951.14245   2089690.24045  24872315.1804   24872314.1754   24872316.109
        35.0004         33.4004
 -18619829.78247 -14261105.99947  21771963.9524   21771964.7234   21771963.842
        45.5004         42.5004
  -7433051.64446  -5779973.31446  24276031.1024   24276028.0064   24276031.010
        38.7004         36.4004
 -23144211.45648 -18021974.84347  20403655.7414   20403653.6824   20403655.808
        48.4004         45.4004
  -2730825.35446  -2118031.49445  23754916.7644   23754918.3364   23754916.901
        38.0004         35.7004
  -6785677.68946  -5272329.13246  23140779.1064   23140780.3684   23140778.756
        40.8004         37.9004
   -950153.78645   -714244.28345  24501556.5254   24501556.8434   24501557.068
        34.9004         33.6004
  -9411300.84346  -7320999.52846  22787477.0684   22787480.4924   22787476.729
        41.6004         39.0004
    214268.54945    190231.12345  24987607.6244   24987612.1554   24987609.572
        34.5004         33.3004
 16 11 15  0 53  0.0000000  0 12G14G22G01G11G03G23G31G25G32G16G26G10
 -17519782.11947 -13373340.92947  21463685.3114   21463684.5144   21463685.996
        45.5004         42.5004
 -21738351.13747 -16494366.36547  20869790.6744   20869787.7034   20869791.402
        47.2004         44.2004
  -8861754.62646  -6883912.94346  22662874.4654   22662876.8304   22662873.950
        41.8004         39.2004
   2458704.03445   2153393.75245  24887871.8504   24887872.7304   24887872.739
        35.0004         33.6004
 -18693400.20547 -14318433.57947  21757964.0324   21757964.4764   21757963.509
        45.3004         42.3004
  -7509743.06746  -5839732.84045  24261437.2844   24261432.7734   24261436.719
        38.5004         35.9004
 -23102372.07448 -17989372.71747  20411617.9034   20411615.3784   20411617.557
        48.4004         45.6004
  -2675181.12746  -2074672.34645  23765504.6984   23765506.9554   23765505.444
        38.0004         35.9004
  -6714119.74346  -5216569.69946  23154395.2904   23154396.7374   23154395.208
        40.6004         37.8004
  -1063808.91245   -802806.64845  24479927.2164   24479928.5744   24479929.242
        35.2004         33.8004
  -9499713.01346  -7389892.08946  22770652.6944   22770655.2404   22770652.362
        41.6004         38.8004
    323045.15745    274992.13045  25008310.2544   25008312.5904   25008308.443
        35.2004         33.6004
 16 11 15  0 53 30.0000000  0 12G14G22G01G11G03G23G31G25G32G16G26G10
 -17479585.82447 -13342019.13547  21471334.7254   21471333.1584   21471335.020
        45.5004         42.5004
 -21781947.36347 -16528337.44047  20861494.3374   20861491.5414   20861495.032
        47.2004         44.4004
  -8803954.54147  -6838873.92546  22673873.4184   22673874.8914   22673873.119
        42.0004         39.3004
   2540511.34045   2217139.65945  24903440.6584   24903439.4714   24903439.442
        34.9004         33.3004
 -18766636.91347 -14375501.12647  21744027.2874   21744028.3674   21744026.853
        45.3004         42.5004
  -7586417.95446  -5899479.47345  24246846.8114   24246840.4064   24246846.464
        38.3004         35.9004
 -23060090.92348 -17956426.35747  20419663.5544   20419661.4964   20419663.333
        48.4004         45.4004
  -2619010.38146  -2030902.93345  23776193.9444   23776195.1514   23776194.651
        38.0004         35.7004
  -6642448.75146  -5160722.19046  23168034.2464   23168035.6464   23168033.598
        40.4004         37.8004
  -1177503.21546   -891399.53745  24458293.2974   24458292.7814   24458293.345
        36.3004         34.6004
  -9587852.07646  -7458571.82446  22753880.7764   22753883.0914   22753880.519
        41.8004         39.2004
    431917.43045    359827.69145  25029028.0704   25029030.9894   25029026.213
        35.6004         34.1004
 16 11 15  0 54  0.0000000  0 12G14G22G01G11G03G23G31G25G32G16G26G10
 -17439219.46947 -13310564.82447  21479015.8924   21479014.8574   21479016.514
        45.3004         42.5004
 -21825112.80947 -16561972.84347  20853280.2894   20853277.7544   20853281.028
        47.4004         44.4004
  -8745735.85947  -6793508.71646  22684951.9774   22684954.5524   22684951.523
        42.2004         39.3004
   2622369.97545   2280925.57245  24919015.6494   24919018.7554   24919016.298
        34.9004         33.3004
 -18839537.46147 -14432306.73447  21730155.1614   21730155.7854   21730154.623
        45.3004         42.5004
  -7663076.11546  -5959213.08245  24232257.6704   24232255.7104   24232259.776
        38.3004         35.9004
 -23017370.17948 -17923137.45647  20427793.1404   20427790.4454   20427793.057
        48.4004         45.4004
  -2562314.96146  -1986724.68945  23786982.9854   23786984.2164   23786982.682
        38.0004         35.9004
  -6570664.83746  -5104786.65646  23181694.6714   23181695.2564   23181693.971
        40.4004         37.8004
  -1291234.36046   -980021.14445  24436650.9704   24436653.5394   24436651.186
        36.6004         34.6004
  -9675714.97646  -7527036.37046  22737160.2774   22737162.9464   22737160.938
        41.8004         39.2004
    540883.56946    444736.37945  25049762.5004   25049764.8164   25049762.534
        36.1004         34.3004
 16 11 15  0 54 30.0000000  0 12G14G22G01G11G03G23G31G25G32G16G26G10
 -17398682.89247 -13278977.87547  21486730.2214   21486729.0494   21486730.466
        45.3004         42.3004
 -21867845.75547 -16595271.23247  20845148.4644   20845145.6944   20845149.406
        47.4004         44.4004
  -8687101.21747  -6747819.38346  22696109.4924   22696111.8994   22696109.531
        42.3004         39.5004
   2704276.75345   2344749.00345  24934603.6314   24934601.9894   24934603.220
        34.9004         33.3004
 -18912099.42947 -14488848.50747  21716346.9434   21716348.3064   21716346.683
        45.5004         42.6004
  -7739717.44646  -6018933.56445  24217673.4754   24217671.8094   24217674.943
        38.2004         35.5004
 -22974211.81248 -17889507.54747  20436005.5504   20436003.4884   20436005.568
        48.4004         45.2004
  -2505096.70946  -1942139.04746  23797871.7404   23797873.2104   23797871.271
        38.2004         36.0004
  -6498768.19546  -5048763.30346  23195375.9124   23195376.6664   23195375.227
        40.3004         37.6004
  -1404998.92546  -1068668.70345  24415002.1704   24415002.6244   24415002.083
        36.4004         34.3004
  -9763298.64246  -7595283.34646  22720493.8434   22720496.4494   22720494.251
        41.8004         39.2004
    649941.74846    529716.80745  25070516.0954   25070519.9134   25070516.622
        36.4004         34.6004
 16 11 15  0 55  0.0000000  0 12G14G22G01G11G03G23G31G25G32G16G26G10
 -17357976.38447 -13247258.51647  21494476.0754   21494475.0214   21494476.843
        45.5004         42.5004
 -21910144.18247 -16628231.03847  20837099.1404   20837096.6524   20837100.120
        47.4004         44.4004
  -8628053.25547  -6701807.99546  22707346.1874   22707348.7724   22707345.843
        42.3004         39.7004
   2786228.67445   2408607.62145  24950197.1934   24950196.6014   24950197.369
        35.0004         33.6004
 -18984320.41347 -14545124.58047  21702604.1294   21702605.0834   21702603.772
        45.8004         43.0004
  -7816341.89846  -6078640.90445  24203094.1094   24203091.3334   24203094.032
        38.0004         35.7004
 -22930618.04848 -17855538.37547  20444300.9694   20444299.4994   20444301.053
        48.2004         45.2004
  -2447357.57646  -1897147.50046  23808858.2284   23808860.5544   23808859.511
        38.5004         36.4004
  -6426758.97546  -4992652.24346  23209078.9944   23209080.5094   23209078.493
        40.3004         37.4004
  -1518794.03445  -1157340.07845  24393348.5324   24393349.1324   24393346.811
        35.9004         34.0004
  -9850599.97847  -7663310.31546  22703881.1704   22703883.6354   22703881.228
        42.0004         39.5004
    759090.23846    614767.56945  25091287.0954   25091289.3704   25091287.158
        36.8004         35.0004
 16 11 15  0 55 30.0000000  0 12G14G22G01G11G03G23G31G25G32G16G26G10
 -17317099.94647 -13215406.73747  21502255.3444   21502253.3434   21502255.494
        45.5004         42.6004
 -21952006.22447 -16660850.80647  20829133.2784   20829130.4444   20829134.315
        47.4004         44.5004
  -8568594.60747  -6655476.58846  22718661.0544   22718662.7334   22718660.276
        42.3004         39.5004
   2868222.92445   2472499.23145  24965800.5964   24965799.9024   24965800.857
        35.4004         33.8004
 -19056197.98747 -14601133.06747  21688926.0564   21688927.4154   21688926.020
        46.0004         43.3004
  -7892949.25846  -6138334.92945  24188515.9644   24188513.1484   24188516.718
        38.0004         35.9004
 -22886590.89348 -17821231.49447  20452679.5344   20452677.0844   20452679.109
        48.2004         45.2004
  -2389099.38146  -1851751.51046  23819945.1344   23819946.5124   23819945.317
        38.7004         36.4004
  -6354637.34946  -4936453.57646  23222802.4794   23222803.9784   23222803.241
        40.3004         37.8004
  -1632616.44345  -1246032.72645  24371685.5374   24371688.0004   24371687.866
        35.7004         34.0004
  -9937615.94147  -7731114.93146  22687322.2784   22687325.3434   22687322.454
        42.2004         39.5004
    868327.28246    699887.35545  25112073.1864   25112075.8424   25112073.145
        36.6004         34.5004
 16 11 15  0 56  0.0000000  0 12G14G22G01G11G03G23G31G25G32G16G26G10
 -17276053.64647 -13183422.60147  21510065.8814   21510064.0314   21510066.370
        45.5004         42.6004
 -21993430.34447 -16693129.32947  20821250.7474   20821247.8644   20821251.488
        47.5004         44.7004
  -8508727.92247  -6608827.22346  22730053.1824   22730054.8484   22730052.626
        42.3004         39.5004
   2950256.58945   2536421.57345  24981410.9794   24981411.6854   24981411.700
        35.2004         33.4004
 -19127729.72747 -14656872.06047  21675314.2324   21675315.2054   21675313.928
        46.2004         43.3004
  -7969539.10446  -6198015.29445  24173939.9664   24173939.8704   24173941.523
        38.0004         35.7004
 -22842132.42848 -17786588.52547  20461139.6194   20461137.6444   20461139.418
        48.2004         45.1004
  -2330323.99146  -1805952.49546  23831130.2634   23831131.6534   23831130.115
        38.9004         36.6004
  -6282403.47046  -4880167.43146  23236549.9704   23236549.6264   23236548.536
        40.4004         37.9004
  -1746463.39546  -1334744.55445  24350021.2974   24350024.6214   24350023.722
        36.3004         34.5004
 -10024343.45047  -7798694.77546  22670818.7564   22670821.8174   22670818.594
        42.3004         39.7004
    977651.08446    785074.74145  25132878.4814   25132879.0224   25132876.598
        36.1004         34.1004
 16 11 15  0 56 30.0000000  0 12G14G22G01G11G03G23G31G25G32G16G26G10
 -17234837.51147 -13151306.13247  21517909.0944   21517907.5444   21517909.299
        45.5004         42.6004
 -22034414.43547 -16725064.98347  20813451.2594   20813448.4924   20813452.406
        47.5004         44.7004
  -8448455.87047  -6561861.99546  22741521.8174   22741525.1334   22741522.057
        42.2004         39.3004
   3032326.95945   2600372.48245  24997029.8844   24997026.6724   24997029.581
        35.0004         33.6004
 -19198913.21347 -14712339.69647  21661768.7184   21661769.1674   21661768.276
        46.3004         43.3004
  -8046111.12946  -6257681.78845  24159368.9814   24159367.8034   24159369.642
        38.0004         35.7004
 -22797245.02548 -17751611.32247  20469681.0804   20469679.1854   20469680.921
        48.1004         45.1004
  -2271033.42946  -1759752.06346  23842411.8584   23842414.5264   23842411.878
        38.7004         36.4004
  -6210057.48946  -4823793.95046  23250315.3044   23250317.0994   23250315.620
        40.3004         37.8004
  -1860331.90746  -1423473.22545  24328355.7764   24328353.3234   24328355.286
        36.4004         34.6004
 -10110779.44847  -7866047.47646  22654369.7754   22654372.2784   22654370.438
        42.5004         39.7004
   1087059.81945    870328.31545  25153695.9114   25153697.7064   25153697.176
        35.7004         34.1004
 16 11 15  0 57  0.0000000  0 12G14G22G01G11G03G23G31G25G32G16G26G10
 -17193451.70947 -13119057.45047  21525784.1374   21525783.0284   21525784.757
        45.5004         42.5004
 -22074956.68347 -16756656.33847  20805736.6644   20805733.6904   20805737.356
        47.7004         44.7004
  -8387781.13147  -6514582.96946  22753069.0254   22753070.4534   22753068.455
        42.2004         39.3004
   3114430.79545   2664349.50145  25012655.6234   25012650.5534   25012653.588
        34.7004         33.3004
 -19269746.06347 -14767534.10147  21648289.1094   21648290.1454   21648288.988
        46.3004         43.3004
  -8122665.76046  -6317334.74645  24144799.4054   24144800.1534   24144800.892
        38.0004         35.9004
 -22751930.58848 -17716301.36447  20478304.6264   20478302.0214   20478304.261
        48.1004         45.1004
  -2211229.57546  -1713151.63546  23853792.1424   23853794.3704   23853792.580
        38.5004         36.0004
  -6137599.53846  -4767333.22846  23264104.5474   23264105.5374   23264103.736
        40.3004         37.6004
  -1974218.95946  -1512216.34645  24306682.3964   24306683.0734   24306683.609
        37.0004         35.0004
 -10196920.91447  -7933170.66446  22637977.4514   22637981.1124   22637978.144
        42.5004         39.7004
   1196551.72146    955646.68445  25174532.4274   25174535.3774   25174532.405
        36.1004         34.3004
 16 11 15  0 57 30.0000000  0 12G14G22G01G11G03G23G31G25G32G16G26G10
 -17151896.13047 -13086676.47547  21533692.6894   21533690.5044   21533692.513
        45.5004         42.6004
 -22115055.44947 -16787902.12447  20798105.9494   20798103.2834   20798106.670
        47.5004         44.5004
  -8326706.40147  -6466992.28446  22764690.8044   22764692.8884   22764690.286
        42.0004         39.3004
   3196564.95145   2728350.11845  25028281.0184   25028282.0854   25028282.749
        34.7004         33.4004
 -19340225.82647 -14822453.37747  21634877.3104   21634877.7384   21634877.054
        46.3004         43.2004
  -8199202.44646  -6376973.69645  24130236.3924   24130235.0574   24130236.578
        38.2004         35.9004
 -22706191.29048 -17680660.34247  20487008.3604   20487005.8434   20487008.012
        48.1004         45.2004
  -2150914.40746  -1666152.80346  23865269.1394   23865272.0764   23865269.855
        38.3004         36.0004
  -6065029.79346  -4710785.37946  23277913.4124   23277915.3884   23277913.510
        40.1004         37.6004
  -2088121.33846  -1600971.38745  24285009.1394   24285007.8624   24285008.732
        37.3004         35.3004
 -10282764.77847  -8000061.95946  22621642.3264   22621644.7314   22621642.311
        42.5004         39.7004
   1306124.95145   1041028.45545  25195383.8364   25195384.9174   25195383.342
        35.7004         34.0004
 16 11 15  0 58  0.0000000  0 12G14G22G01G11G03G23G31G25G32G16G26G10
 -17110171.16547 -13054163.51347  21541632.1274   21541630.8714   21541632.365
        45.5004         42.6004
 -22154708.95747 -16818800.95747  20790559.9574   20790557.4564   20790560.981
        47.5004         44.5004
  -8265234.39647  -6419092.02546  22776388.0914   22776390.4574   22776387.869
        42.0004         39.2004
   3278726.89545   2792372.40045  25043918.7564   25043918.3064   25043917.140
        34.9004         33.4004
 -19410350.10947 -14877095.66147  21621532.8724   21621533.9114   21621532.758
        46.2004         43.3004
  -8275720.88646  -6436598.44546  24115675.4654   24115673.8894   24115675.670
        38.2004         36.0004
 -22660029.77748 -17644690.32347  20495792.6434   20495790.3404   20495792.286
        48.1004         45.1004
  -2090089.88046  -1618757.05545  23876843.7404   23876846.0524   23876843.899
        38.2004         35.9004
  -5992348.40946  -4654150.53946  23291744.8934   23291744.9364   23291743.697
        40.3004         37.8004
  -2202035.94246  -1689735.95745  24263330.9884   24263330.1344   24263331.441
        37.3004         35.2004
 -10368307.99747  -8066718.98346  22605364.1974   22605366.3274   22605364.160
        42.5004         39.9004
   1415777.74745   1126472.22945  25216249.1634   25216253.1804   25216249.916
        35.2004         33.6004
 16 11 15  0 58 30.0000000  0 12G14G22G01G11G03G23G31G25G32G16G26G10
 -17068276.71247 -13021518.48347  21549604.3074   21549603.2074   21549604.559
        45.5004         42.6004
 -22193915.33747 -16849351.38047  20783099.5094   20783096.4674   20783100.366
        47.5004         44.5004
  -8203367.80846  -6370884.29646  22788161.2114   22788163.3384   22788160.792
        41.8004         39.2004
   3360913.54645   2856413.96245  25059556.9014   25059555.8004   25059556.934
        34.9004         33.4004
 -19480116.52947 -14931459.08747  21608257.1464   21608257.7514   21608256.546
        46.2004         43.3004
  -8352221.36246  -6496209.18546  24101118.1654   24101115.6494   24101118.742
        38.2004         36.2004
 -22613447.81448 -17608392.68547  20504656.8374   20504654.4754   20504656.293
        48.1004         45.1004
  -2028758.03946  -1570965.99845  23888514.9744   23888516.6924   23888515.183
        38.0004         35.7004
  -5919555.52046  -4597428.81146  23305596.3754   23305597.7904   23305596.193
        40.3004         37.8004
  -2315959.80546  -1778507.71545  24241651.2734   24241651.3414   24241652.068
        36.8004         34.6004
 -10453547.52547  -8133139.35646  22589143.5494   22589146.4504   22589143.893
        42.5004         39.9004
   1525508.39145   1211976.66945  25237130.1654   25237132.4054   25237131.141
        34.7004         32.9004
 16 11 15  0 59  0.0000000  0 12G14G22G01G11G03G23G31G25G32G16G26G10
 -17026212.75847 -12988741.37647  21557608.7094   21557607.6474   21557609.289
        45.5004         42.5004
 -22232672.72447 -16879551.93447  20775724.1364   20775721.5194   20775725.146
        47.7004         44.7004
  -8141109.39446  -6322371.25646  22800008.3394   22800011.3014   22800008.142
        41.8004         39.2004
   3443122.42845   2920472.81245  25075199.9374   25075200.6914   25075200.285
        34.7004         33.3004
 -19549522.66347 -14985541.77447  21595049.8244   21595050.3594   21595049.177
        46.3004         43.3004
  -8428703.09346  -6555805.29846  24086565.1594   24086561.0224   24086564.744
        38.3004         36.0004
 -22566447.64148 -17571769.16347  20513600.7464   20513598.1084   20513600.462
        48.1004         45.1004
  -1966920.83246  -1522781.14545  23900281.6334   23900285.7304   23900282.196
        37.8004         35.5004
  -5846651.28546  -4540620.32046  23319470.6844   23319470.7404   23319469.162
        40.3004         37.8004
  -2429889.88146  -1867284.30545  24219970.9194   24219970.1064   24219971.406
        36.6004         34.6004
 -10538480.33447  -8199320.73846  22572981.6644   22572984.1054   22572981.867
        42.7004         39.9004
   1635314.97445   1297540.28445  25258030.0824   25258027.4504   25258027.346
        34.5004         32.9004
 16 11 15  0 59 30.0000000  0 12G14G22G01G11G03G23G31G25G32G16G26G10
 -16983979.19247 -12955832.09747  21565645.5514   21565644.4094   21565646.059
        45.5004         42.5004
 -22270979.42947 -16909401.30347  20768434.3934   20768431.8984   20768435.389
        47.7004         44.7004
  -8078461.83846  -6273554.98646  22811929.5234   22811931.9424   22811929.512
        41.6004         39.0004
   3525350.19845   2984546.36145  25090848.6554   25090846.4194   25090848.452
        34.9004         33.4004
 -19618566.12147 -15039341.85147  21581911.0144   21581911.7804   21581910.599
        46.5004         43.5004
  -8505166.18946  -6615386.93146  24072014.9284   24072010.9224   24072015.329
        38.3004         36.0004
 -22519031.45547 -17534821.48247  20522623.3314   20522621.5724   20522623.195
        47.9004         45.1004
  -1904580.35246  -1474204.15545  23912145.2994   23912147.3734   23912145.246
        37.8004         35.5004
  -5773635.83346  -4483725.18346  23333365.3054   23333365.2564   23333364.478
        40.4004         37.9004
  -2543822.76446  -1956063.09245  24198291.4814   24198290.2614   24198290.394
        36.6004         34.6004
 -10623103.38947  -8265260.74546  22556877.9474   22556880.7674   22556878.322
        42.7004         39.9004
   1745195.76245   1383161.78845  25278936.4854   25278938.4014   25278938.041
        33.8004         32.6004
 16 11 15  1  0  0.0000000  0 12G14G22G01G11G03G23G31G25G32G16G26G10
 -16941576.12647 -12922790.75147  21573714.7104   21573712.7874   21573714.944
        45.3004         42.3004
 -22308833.91847 -16938898.29647  20761231.0694   20761228.1884   20761231.977
        47.7004         44.7004
  -8015427.97146  -6224437.69246  22823925.3274   22823926.9314   22823924.579
        41.6004         39.0004
   3607593.81245   3048632.27645  25106498.2114   25106497.2224   25106499.789
        34.9004         33.4004
 -19687244.46547 -15092857.42447  21568841.9524   21568843.0164   21568841.593
        46.5004         43.7004
  -8581610.23946  -6674953.70346  24057467.1414   24057465.5474   24057468.141
        38.3004         36.0004
 -22471201.34647 -17497551.25747  20531725.5314   20531723.1934   20531725.131
        47.9004         45.1004
  -1841738.59446  -1425236.55645  23924103.5234   23924105.0494   23924103.677
        37.6004         35.5004
  -5700509.34746  -4426743.51146  23347279.3874   23347280.8464   23347280.232
        40.4004         37.9004
  -2657755.70246  -2044841.91145  24176609.0634   24176609.5174   24176609.497
        36.4004         34.5004
 -10707413.67147  -8330957.03446  22540834.4344   22540837.0114   22540834.272
        42.7004         40.0004
   1855148.92145   1468839.61845  25299863.2224   25299862.3234   25299860.626
        33.8004         32.4004
 16 11 15  1  0 30.0000000  0 12G14G22G01G11G03G23G31G25G32G16G26G10
 -16899003.72447 -12889617.44347  21581815.5464   21581814.3074   21581816.037
        45.1004         42.3004
 -22346234.36747 -16968041.49547  20754114.0854   20754111.6824   20754114.990
        47.7004         44.9004
  -7952010.50346  -6175021.47646  22835992.5494   22835994.5424   22835992.789
        41.5004         38.6004
   3689850.43145   3112728.28845  25122151.0744   25122152.7594   25122152.406
        34.5004         33.1004
 -19755555.35947 -15146086.67447  21555843.1484   21555843.9934   21555842.391
        46.7004         43.7004
  -8658035.07046  -6734505.52846  24042923.3694   24042920.1684   24042924.034
        38.3004         36.2004
 -22422959.69547 -17459960.35247  20540905.5624   20540903.1444   20540905.175
        47.9004         44.9004
  -1778397.68346  -1375880.00345  23936158.0534   23936158.0814   23936157.843
        37.8004         35.5004
  -5627271.93146  -4369675.40446  23361216.1664   23361216.9874   23361216.477
        40.6004         37.9004
  -2771685.07745  -2133617.96745  24154929.5024   24154928.2394   24154930.046
        35.9004         34.0004
 -10791408.13747  -8396407.23946  22524850.3844   22524853.7644   22524850.683
        42.7004         40.0004
   1965172.72845   1554572.48145  25320798.4964   25320798.8734   25320798.142
        33.3004         32.4004
 16 11 15  1  1  0.0000000  0 11G14G22G01G11G03G23G31G25G32G16G26
 -16856261.87047 -12856312.09947  21589949.0974   21589947.7844   21589949.574
        45.1004         42.3004
 -22383179.07347 -16996829.57647  20747083.6044   20747081.1304   20747084.622
        47.7004         44.9004
  -7888212.19846  -6125308.51246  22848133.0894   22848135.3884   22848132.892
        41.5004         38.8004
   3772117.46245   3176832.40445  25137807.2304   25137804.6784   25137806.933
        34.3004         33.1004
 -19823496.33847 -15199027.68847  21542914.2864   21542914.9974   21542913.592
        46.7004         43.9004
  -8734440.62246  -6794042.28546  24028383.8434   24028383.2154   24028384.637
        38.3004         36.0004
 -22374308.43247 -17422050.27247  20550163.5444   20550161.2684   20550162.967
        47.9004         44.9004
  -1714559.62746  -1326136.06045  23948305.6134   23948307.2384   23948305.823
        37.6004         35.2004
  -5553923.77246  -4312521.00146  23375174.4834   23375174.5704   23375174.101
        40.4004         37.8004
  -2885608.29845  -2222389.18745  24133250.2264   24133248.4314   24133250.725
        35.9004         34.1004
 -10875083.82047  -8461609.04446  22508927.9554   22508930.0154   22508927.616
        42.7004         40.0004
 16 11 15  1  1 30.0000000  0 11G14G22G01G11G03G23G31G25G32G16G26
 -16813350.68547 -12822874.81047  21598115.1504   21598114.2504   21598115.439
        45.1004         42.3004
 -22419666.17047 -17025261.07547  20740140.5734   20740137.5764   20740141.409
        47.9004         44.9004
  -7824035.85846  -6075300.96346  22860346.0844   22860347.4774   22860345.306
        41.5004         38.8004
   3854391.69045   3240942.17545  25153462.2784   25153464.7624   25153463.284
        34.0004         32.9004
 -19891065.08347 -15251678.65047  21530055.9324   21530057.1734   21530055.717
        46.7004         43.7004
  -8810826.59546  -6853563.78846  24013847.8894   24013844.9244   24013848.829
        38.5004         36.2004
 -22325250.19947 -17383823.07047  20559498.8394   20559496.6374   20559498.702
        47.9004         45.1004
  -1650226.58446  -1276006.40945  23960547.1464   23960548.0684   23960548.006
        37.5004         35.2004
  -5480464.96546  -4255280.39346  23389152.7564   23389154.2204   23389152.205
        40.3004         37.6004
  -2999522.40046  -2311153.32045  24111574.4204   24111572.4584   24111573.478
        36.1004         34.3004
 -10958437.67847  -8526560.07046  22493065.7304   22493068.1404   22493065.923
        42.7004         40.0004
 16 11 15  1  2  0.0000000  0 11G14G22G01G11G03G23G31G25G32G16G26
 -16770270.18747 -12789305.59047  21606312.9494   21606311.9554   21606313.345
        45.1004         42.3004
 -22455693.90847 -17053334.63147  20733285.1094   20733281.7314   20733285.697
        47.9004         44.9004
  -7759484.28146  -6025001.03746  22872629.4084   22872631.2734   22872629.241
        41.5004         38.8004
   3936670.75745   3305055.73645  25169121.2024   25169121.4534   25169119.949
        34.0004         32.9004
 -19958259.17247 -15304037.67247  21517269.5884   21517270.3534   21517268.820
        46.5004         43.5004
  -8887192.76246  -6913069.86446  23999316.5904   23999315.6254   23999317.043
        38.5004         36.4004
 -22275787.07247 -17345280.36647  20568911.4254   20568909.1414   20568911.512
        47.9004         45.1004
  -1585400.65146  -1225492.69545  23972884.6294   23972883.9914   23972884.170
        37.3004         35.2004
  -5406895.69246  -4197953.69546  23403152.4354   23403154.1584   23403152.562
        40.3004         37.6004
  -3113424.13346  -2399907.78345  24089898.2194   24089899.5514   24089898.807
        36.1004         34.3004
 -11041466.73147  -8591258.00446  22477266.2064   22477268.7894   22477265.836
        42.7004         39.9004
 16 11 15  1  2 30.0000000  0 11G14G22G01G11G03G23G31G25G32G16G26
 -16727020.41447 -12755604.47147  21614543.3554   21614542.1744   21614543.576
        45.1004         42.3004
 -22491261.01847 -17081049.25547  20726516.3314   20726513.5634   20726517.294
        47.9004         44.9004
  -7694560.24746  -5974410.89246  22884983.5914   22884985.0984   22884983.929
        41.5004         38.8004
   4018951.41545   3369170.50045  25184777.6594   25184776.0774   25184777.312
        33.8004         32.6004
 -20025076.21947 -15356102.89247  21504554.3444   21504555.2564   21504554.108
        46.5004         43.5004
  -8963538.78846  -6972560.24246  23984788.9864   23984786.3124   23984788.989
        38.9004         36.6004
 -22225921.23347 -17306423.86347  20578400.5884   20578398.3794   20578400.388
        47.9004         44.9004
  -1520083.97346  -1174596.56745  23985312.7594   23985315.3544   23985312.820
        37.1004         35.2004
  -5333216.05946  -4140541.00346  23417173.8114   23417174.2234   23417173.296
        40.3004         37.6004
  -3227309.96246  -2488649.87545  24068225.7804   24068226.4514   24068227.199
        36.3004         34.5004
 -11124168.00247  -8655700.52146  22461528.8974   22461531.0324   22461528.432
        42.7004         40.0004
 16 11 15  1  3  0.0000000  0 11G14G22G01G11G03G23G31G25G32G16G26
 -16683601.31147 -12721771.40047  21622805.5844   21622804.2924   21622806.180
        45.1004         42.1004
 -22526365.42547 -17108403.33447  20719836.5174   20719833.4394   20719837.344
        47.9004         44.9004
  -7629266.58946  -5923532.71946  22897409.7484   22897410.0644   22897408.567
        41.3004         38.6004
   4101230.65645   3433284.21745  25200437.0814   25200437.0494   25200434.139
        33.8004         32.6004
 -20091513.87047 -15407872.48847  21491912.0634   21491912.7304   21491911.581
        46.5004         43.7004
  -9039864.48046  -7032034.78046  23970265.0724   23970263.4284   23970265.400
        39.0004         36.9004
 -22175654.75647 -17267255.17147  20587965.6344   20587963.8304   20587965.537
        47.7004         44.7004
  -1454278.64346  -1123319.67445  23997834.3334   23997836.3534   23997835.015
        37.1004         35.0004
  -5259426.22946  -4083042.43546  23431215.6864   23431216.6104   23431215.244
        40.4004         37.8004
  -3341177.03946  -2577377.35945  24046559.8034   24046558.3614   24046559.101
        36.4004         34.5004
 -11206538.48347  -8719885.27846  22445853.6954   22445856.4484   22445853.681
        42.7004         40.0004
 16 11 15  1  3 30.0000000  0 11G14G22G01G11G03G23G31G25G32G16G26
 -16640012.80347 -12687806.32847  21631099.8964   21631098.4874   21631100.541
        45.1004         42.3004
 -22561005.72247 -17135395.77147  20713244.4634   20713241.4824   20713245.472
        47.9004         44.9004
  -7563606.08946  -5872368.71046  22909903.4864   22909905.9914   22909903.463
        41.3004         38.6004
   4183505.42345   3497394.40545  25216092.0904   25216091.6654   25216090.503
        33.3004         32.2004
 -20157569.73847 -15459344.58047  21479342.1974   21479343.1464   21479341.341
        46.5004         43.7004
  -9116169.65846  -7091493.30246  23955744.9914   23955742.2024   23955744.437
        39.2004         36.9004
 -22124989.82747 -17227775.99947  20597606.8724   20597605.2844   20597606.915
        47.7004         44.9004
  -1387986.86446  -1071663.73645  24010448.0884   24010451.3964   24010449.993
        36.8004         34.6004
  -5185526.35746  -4025458.14946  23445277.2134   23445278.3944   23445277.742
        40.3004         37.8004
  -3455022.47146  -2666087.99245  24024894.7274   24024893.5734   24024894.369
        36.4004         34.5004
 -11288575.20247  -8783809.95746  22430241.8914   22430245.2494   22430242.239
        42.7004         40.0004
 16 11 15  1  4  0.0000000  0 11G14G22G01G11G03G23G31G25G32G16G26
 -16596255.12347 -12653709.42947  21639427.1304   21639425.1504   21639427.337
        45.1004         42.1004
 -22595180.15347 -17162025.19547  20706741.3694   20706738.1784   20706742.293
        47.9004         44.9004
  -7497581.64946  -5820921.10646  22922468.1234   22922469.8194   22922467.591
        41.3004         38.6004
   4265773.39445   3561499.31645  25231746.6294   25231743.4254   25231745.981
        33.8004         32.7004
 -20223241.46447 -15510517.33547  21466844.9144   21466845.8024   21466844.413
        46.7004         43.7004
  -9192453.85146  -7150935.49646  23941227.6594   23941225.2034   23941228.320
        39.0004         36.4004
 -22073928.96747 -17187988.31147  20607323.8364   20607321.3354   20607323.344
        47.7004         44.9004
  -1321210.84846  -1019630.46945  24023156.9904   24023158.7614   24023156.681
        36.6004         34.3004
  -5111516.54446  -3967788.17346  23459361.7264   23459362.1004   23459360.507
        40.3004         37.9004
  -3568842.88445  -2754779.09845  24003235.8104   24003236.3194   24003234.428
        35.9004         34.0004
 -11370275.17847  -8847472.25046  22414695.7664   22414698.1644   22414695.189
        42.9004         40.2004
 16 11 15  1  4 30.0000000  0 11G14G22G01G11G03G23G31G25G32G16G26
 -16552328.22947 -12619480.69046  21647786.1244   21647785.2184   21647786.033
        44.9004         41.9004
 -22628887.03647 -17188290.29047  20700327.2884   20700324.0264   20700328.184
        47.9004         44.9004
  -7431196.04746  -5769192.07046  22935100.5794   22935102.0524   22935100.356
        41.3004         38.8004
   4348031.59945   3625596.56645  25247399.9344   25247397.8024   25247399.788
        33.8004         32.7004
 -20288526.66047 -15561388.90447  21454421.5864   21454422.6584   21454421.130
        46.7004         43.9004
  -9268717.13746  -7210361.38546  23926715.9764   23926712.6924   23926715.402
        39.0004         36.7004
 -22022474.33347 -17147893.78847  20617115.0374   20617113.2064   20617114.991
        47.7004         44.7004
  -1253952.71046   -967221.51345  24035954.2904   24035957.7254   24035955.057
        36.3004         34.3004
  -5037396.91346  -3910032.61646  23473466.1204   23473468.4854   23473465.072
        40.3004         37.8004
  -3682635.17245  -2843448.29145  23981580.2824   23981578.5104   23981580.394
        35.9004         34.1004
 -11451635.44747  -8910869.83146  22399213.3734   22399216.0384   22399213.155
        43.0004         40.4004
 16 11 15  1  5  0.0000000  0 11G14G22G01G11G03G23G31G25G32G16G26
 -16508232.03247 -12585120.01446  21656177.0214   21656175.3514   21656177.400
        44.9004         41.9004
 -22662124.79448 -17214189.83947  20694002.2804   20693999.2214   20694003.201
        48.1004         44.9004
  -7364452.15646  -5717183.84346  22947802.2264   22947804.3574   22947801.668
        41.5004         38.6004
   4430277.02245   3689683.87845  25263051.0944   25263048.9724   25263051.751
        34.0004         32.6004
 -20353422.98247 -15611957.45747  21442072.4424   21442073.3604   21442071.949
        46.9004         43.9004
  -9344959.19646  -7269770.73646  23912206.3274   23912204.7684   23912207.027
        39.0004         36.9004
 -21970628.01647 -17107494.05547  20626981.4264   20626979.0054   20626981.006
        47.7004         44.7004
  -1186214.70746   -914438.65345  24048845.6104   24048847.8014   24048845.966
        36.3004         34.5004
  -4963167.65346  -3852191.65646  23487590.8064   23487591.8254   23487590.285
        40.3004         37.8004
  -3796396.18746  -2932093.16345  23959931.6544   23959932.5474   23959932.877
        36.4004         34.6004
 -11532653.06547  -8974000.42046  22383796.3944   22383799.4584   22383796.419
        43.4004         40.6004
 16 11 15  1  5 30.0000000  0 11G14G22G01G11G03G23G31G25G32G16G26
 -16463966.49847 -12550627.39746  21664600.5174   21664598.6604   21664600.884
        44.8004         41.9004
 -22694891.81248 -17239722.57547  20687766.8934   20687763.5064   20687767.717
        48.1004         44.9004
  -7297352.83946  -5664898.67846  22960570.2794   22960572.2114   22960569.811
        41.5004         38.6004
   4512506.96545   3753759.10745  25278699.5304   25278698.1254   25278699.383
        33.8004         32.7004
 -20417928.07347 -15662221.16447  21429797.7754   21429797.8764   21429797.047
        46.9004         43.9004
  -9421179.71146  -7329163.28746  23897701.0344   23897699.2314   23897702.893
        39.2004         36.7004
 -21918392.50747 -17066791.05347  20636921.3454   20636919.3504   20636921.191
        47.7004         44.7004
  -1117999.07345   -861283.60145  24061826.8994   24061829.1444   24061825.990
        35.9004         34.1004
  -4888828.87946  -3794265.36446  23501738.3184   23501739.5114   23501737.436
        40.1004         37.4004
  -3910122.37246  -3020710.88045  23938291.1634   23938290.6474   23938291.559
        36.8004         35.0004
 -11613325.09447  -9036861.71746  22368444.8634   22368447.6794   22368445.211
        43.6004         40.7004
 16 11 15  1  6  0.0000000  0 11G14G22G01G11G03G23G31G25G32G16G26
 -16419531.79947 -12516002.95746  21673056.0524   21673054.3854   21673056.687
        44.8004         41.8004
 -22727186.63748 -17264887.36947  20681621.4104   20681618.3374   20681622.268
        48.1004         44.9004
  -7229900.95446  -5612338.78146  22973405.5954   22973408.4634   22973405.541
        41.5004         38.6004
   4594718.91145   3817820.32545  25294343.9894   25294339.8854   25294344.779
        33.8004         32.6004
 -20482039.57047 -15712178.16547  21417597.2224   21417598.4674   21417597.019
        46.9004         43.9004
  -9497378.29046  -7388538.77246  23883202.4044   23883198.8104   23883201.879
        39.2004         36.6004
 -21865769.77547 -17025786.32547  20646934.7394   20646933.0394   20646934.792
        47.5004         44.7004
  -1049307.96446   -807758.05545  24074898.9124   24074898.6354   24074897.949
        36.1004         34.5004
  -4814380.70546  -3736253.81846  23515905.7834   23515906.0774   23515904.698
        40.1004         37.6004
  -4023811.11246  -3109299.43545  23916656.9464   23916656.9104   23916657.207
        37.3004         35.3004
 -11693648.54547  -9099451.39146  22353159.7984   22353162.7904   22353159.706
        43.6004         40.7004
 16 11 15  1  6 30.0000000  0 11G14G22G01G11G03G23G31G25G32G16G26
 -16374927.98247 -12481246.74246  21681544.7024   21681542.3824   21681544.409
        44.8004         41.9004
 -22759007.76648 -17289683.05447  20675565.9984   20675563.1594   20675566.749
        48.1004         45.1004
  -7162099.35646  -5559506.36546  22986308.2104   22986310.6344   22986307.619
        41.5004         38.6004
   4676909.71145   3881865.05145  25309982.5824   25309981.7684   25309983.664
        33.5004         32.4004
 -20545755.14347 -15761826.65947  21405473.1314   21405473.4584   21405472.368
        46.9004         43.9004
  -9573554.57346  -7447896.86346  23868705.9464   23868702.8184   23868706.570
        39.2004         36.7004
 -21812762.59347 -16984482.02647  20657021.8944   20657019.8164   20657021.798
        47.5004         44.5004
   -980143.70946   -753863.82945  24088058.2714   24088061.4324   24088060.215
        36.3004         34.3004
  -4739823.28446  -3678157.14046  23530093.1814   23530094.0574   23530092.858
        39.9004         37.3004
  -4137458.90946  -3197856.13345  23895030.1604   23895030.3454   23895031.193
        37.5004         35.3004
 -11773620.53647  -9161767.19946  22337941.6984   22337944.6104   22337941.388
        43.7004         40.9004
 16 11 15  1  7  0.0000000  0 11G14G22G01G11G03G23G31G25G32G16G26
 -16330154.79047 -12446358.54546  21690064.1064   21690062.1084   21690064.815
        44.8004         41.8004
 -22790352.96448 -17314107.88047  20669601.1664   20669598.1954   20669602.137
        48.1004         45.1004
  -7093950.95546  -5506403.72746  22999276.1344   22999278.1904   22999275.975
        41.3004         38.5004
   4759076.65845   3945891.19445  25325616.8154   25325619.4414   25325618.361
        33.1004         32.2004
 -20609072.43647 -15811164.80747  21393424.2364   21393424.3244   21393423.561
        46.9004         44.0004
  -9649708.41446  -7507237.47546  23854214.8064   23854211.8404   23854215.153
        39.0004         36.7004
 -21759372.96247 -16942879.71647  20667181.9754   20667179.6544   20667181.643
        47.5004         44.5004
   -910508.57246   -699602.66045  24101310.2924   24101312.4934   24101310.469
        36.3004         34.3004
  -4665156.77046  -3619975.45246  23544300.1524   23544301.2534   23544300.970
        39.9004         37.3004
  -4251062.74846  -3286378.54845  23873412.2364   23873412.5264   23873412.925
        37.8004         35.9004
 -11853238.08947  -9223806.82346  22322791.3764   22322793.2624   22322790.957
        43.9004         41.1004
 16 11 15  1  7 30.0000000  0 11G14G22G01G11G03G23G31G25G32G16G26
 -16285212.22647 -12411338.36346  21698617.2944   21698615.0934   21698617.094
        44.8004         41.8004
 -22821221.19748 -17338161.04647  20663727.1654   20663724.1334   20663727.928
        48.1004         44.9004
  -7025458.64346  -5453033.12046  23012311.1944   23012313.1354   23012309.633
        41.1004         38.6004
   4841216.66345   4009896.33145  25341248.4684   25341246.8924   25341248.832
        32.8004         32.2004
 -20671989.14047 -15860190.79547  21381451.0794   21381451.9514   21381450.876
        46.9004         43.9004
  -9725839.72546  -7566560.53146  23839727.3594   23839725.4364   23839727.552
        39.0004         36.6004
 -21705602.90647 -16900980.96847  20677414.1274   20677411.7934   20677413.637
        47.4004         44.4004
   -840404.80646   -644976.36245  24114650.9034   24114653.1484   24114651.383
        36.4004         34.5004
  -4590381.29346  -3561708.85046  23558530.9694   23558531.0004   23558529.215
        39.9004         37.4004
  -4364619.23946  -3374864.10446  23851804.2474   23851803.2064   23851804.152
        38.3004         36.2004
 -11932498.32047  -9285568.01346  22307708.7114   22307711.0354   22307708.570
        44.1004         41.2004
 16 11 15  1  8  0.0000000  0 11G14G22G01G11G03G23G31G25G32G16G26
 -16240100.35347 -12376186.25246  21707200.8004   21707199.4914   21707201.442
        44.8004         41.8004
 -22851611.09347 -17361841.47647  20657943.7674   20657941.1584   20657944.978
        47.9004         45.1004
  -6956625.32746  -5399396.78046  23025408.2144   23025410.5754   23025407.801
        41.1004         38.3004
   4923327.32745   4073878.68845  25356871.7514   25356876.0884   25356872.625
        32.4004         31.9004
 -20734502.88547 -15908902.79047  21369555.3984   21369555.9174   21369554.723
        46.9004         43.9004
  -9801947.94146  -7625865.59646  23825245.1274   23825242.4854   23825245.061
        39.2004         36.7004
 -21651454.80047 -16858787.63447  20687718.2874   20687715.4864   20687717.736
        47.4004         44.4004
   -769834.73046   -589986.69645  24128079.9864   24128080.3744   24128080.767
        36.6004         34.5004
  -4515496.97446  -3503357.46846  23572779.8204   23572781.8684   23572779.843
        39.9004         37.6004
  -4478125.33546  -3463310.39546  23830204.5804   23830203.3544   23830204.781
        38.5004         36.2004
 -12011398.29047  -9347048.47746  22292695.0594   22292697.1334   22292694.485
        44.2004         41.4004
 16 11 15  1  8 30.0000000  0 11G14G22G01G11G03G23G31G25G32G16G26
 -16194819.23447 -12340902.26446  21715817.4574   21715816.1754   21715818.155
        44.6004         41.8004
 -22881520.86447 -17385147.79247  20652252.4334   20652249.2594   20652253.236
        47.9004         44.9004
  -6887453.91246  -5345496.97446  23038571.8634   23038574.2594   23038570.982
        41.1004         38.3004
   5005405.80445   4137835.93945  25372492.0244           .000    25372492.074
        32.6004         32.2004
 -20796611.38847 -15957299.02147  21357735.9424   21357737.0054   21357735.848
        46.9004         43.7004
  -9878032.94246  -7685152.55046  23810765.6284   23810764.2544   23810766.579
        39.2004         36.9004
 -21596931.06047 -16816301.60347  20698093.3234   20698091.0294   20698093.108
        47.4004         44.4004
   -698800.62346   -534635.42845  24141597.2754   24141599.6904   24141597.641
        36.8004         34.8004
  -4440503.92046  -3444921.34946  23587051.5824   23587052.7874   23587050.788
        40.1004         37.6004
  -4591577.62846  -3551714.75346  23808614.9764   23808613.4164   23808615.716
        38.3004         36.0004
 -12089935.14847  -9408246.00446  22277748.7824   22277752.1874   22277749.007
        44.2004         41.4004
 16 11 15  1  9  0.0000000  0 11G14G22G01G11G03G23G31G25G32G16G26
 -16149368.90947 -12305486.43046  21724466.3904   21724465.3884   21724466.956
        44.6004         41.8004
 -22910949.07347 -17408078.86247  20646652.3594   20646649.0194   20646653.230
        47.9004         44.9004
  -6817947.33946  -5291336.01846  23051797.1374   23051800.1104   23051797.542
        40.9004         38.3004
   5087449.23945   4201765.80945  25388105.4614   25388106.1554   25388105.388
        32.8004         32.4004
 -20858312.28547 -16005377.63147  21345994.7524   21345995.4894   21345994.456
        46.7004         43.7004
  -9954094.47446  -7744421.24846  23796292.2474   23796290.3794   23796292.274
        39.2004         36.7004
 -21542033.81647 -16773524.52447  20708540.0734   20708537.7854   20708539.599
        47.4004         44.2004
   -627304.83146   -478924.43045  24155201.9474   24155205.7424   24155203.207
        37.1004         35.2004
  -4365402.29546  -3386400.63346  23601342.8444   23601342.3884   23601341.744
        40.1004         37.6004
  -4704973.21746  -3640074.92545  23787037.1024   23787035.6584   23787037.096
        38.2004         35.9004
 -12168105.95747  -9469158.29946  22262873.6644   22262875.9494   22262873.509
        44.4004         41.6004
 16 11 15  1  9 30.0000000  0 11G14G22G01G11G03G23G31G25G32G16G26
 -16103749.05247 -12269938.48746  21733147.7584   21733146.2384   21733148.307
        44.6004         41.8004
 -22939894.23247 -17430633.52747  20641144.2174   20641141.5824   20641145.097
        47.9004         45.1004
  -6748108.47046  -5236916.13546  23065088.1784   23065089.0344   23065087.630
        40.9004         38.3004
   5169454.67045   4265666.12845  25403709.2194   25403709.5564   25403712.339
        33.3004         32.4004
 -20919603.30247 -16053136.85647  21334332.0564   21334332.6554   21334330.985
        46.5004         43.7004
 -10030131.97146  -7803671.18746  23781822.1604   23781819.7574   23781822.898
        39.4004         36.7004
 -21486765.38847 -16730458.20747  20719056.8484   20719054.8824   20719056.824
        47.2004         44.2004
   -555349.67246   -422855.47945  24168895.9744   24168897.2974   24168896.559
        37.3004         35.3004
  -4290192.20246  -3327795.39146  23615654.3494   23615655.9184   23615653.873
        39.9004         37.3004
  -4818308.79446  -3728388.36345  23765469.1624   23765468.9884   23765469.843
        37.8004         35.3004
 -12245907.84747  -9529783.11646  22248068.9124   22248071.4014   22248068.230
        44.4004         41.6004
 16 11 15  1 10  0.0000000  0 11G14G22G01G11G03G23G31G25G32G16G26
 -16057959.88047 -12234258.62246  21741861.2344   21741860.2924   21741861.850
        44.6004         41.6004
 -22968354.49548 -17452810.35347  20635728.5424   20635725.4054   20635729.409
        48.1004         44.9004
  -6677940.29046  -5182239.64546  23078441.2794   23078442.9094   23078440.008
        40.8004         38.3004
   5251419.92045   4329535.12745  25419308.5074   25419303.5724   25419309.841
        33.7004         32.6004
 -20980482.11047 -16100574.88547  21322746.8224   21322747.3854   21322746.400
        46.5004         43.7004
 -10106145.20346  -7862902.22346  23767356.0814   23767355.1894   23767356.832
        39.2004         36.9004
 -21431128.20447 -16687104.55547  20729644.6254   20729642.1744   20729644.305
        47.2004         44.4004
   -482937.49246   -366430.39745  24182675.6434   24182676.1504   24182675.811
        37.6004         35.7004
  -4214873.77546  -3269105.72246  23629986.6754   23629987.9604   23629985.904
        39.7004         37.1004
  -4931581.06746  -3816652.45145  23743914.4594   23743913.7234   23743914.917
        37.6004         35.0004
 -12323337.95247  -9590118.24046  22233333.6254   22233335.8074   22233333.954
        44.4004         41.6004
 16 11 15  1 10 30.0000000  0 11G14G22G01G11G03G23G31G25G32G16G26
 -16012001.08747 -12198446.57446  21750606.7864   21750605.9054   21750607.478
        44.6004         41.6004
 -22996328.59448 -17474608.34847  20630405.0184   20630402.6264   20630406.078
        48.1004         45.1004
  -6607445.73146  -5127308.83246  23091855.0074   23091857.7754   23091855.130
        40.8004         38.1004
   5333341.69645   4393370.25745  25434897.6604   25434899.5694   25434898.846
        34.0004         32.9004
 -21040946.41447 -16147689.92147  21311240.4544   21311241.8544   21311240.409
        46.5004         43.7004
 -10182134.05946  -7922114.27546  23752896.1274   23752893.5144   23752897.605
        39.0004         36.6004
 -21375124.44347 -16643465.25947  20740301.8934   20740299.5324   20740301.522
        47.2004         44.2004
   -410070.68646   -309651.05945  24196539.6934   24196542.9054   24196541.362
        37.8004         35.7004
  -4139447.18146  -3210331.77746  23644339.5224   23644342.1954   23644338.748
        39.6004         37.1004
  -5044786.56746  -3904864.51245  23722371.9374   23722369.8434   23722372.633
        37.1004         35.0004
 -12400393.42947  -9650161.44346  22218671.3494   22218673.4144   22218670.573
        44.4004         41.6004
 16 11 15  1 11  0.0000000  0 11G14G22G01G11G03G23G31G25G32G16G26
 -15965872.97147 -12162502.58046  21759384.9444   21759382.6474   21759385.118
        44.4004         41.4004
 -23023815.44848 -17496026.67247  20625174.5994   20625171.6254   20625175.284
        48.1004         45.1004
  -6536627.74346  -5072125.99146  23105331.4444   23105334.2354   23105331.066
        40.8004         38.1004
   5415217.26145   4457169.36945  25450479.7604   25450481.6744   25450479.046
        33.8004         32.6004
 -21100993.93647 -16194480.19647  21299813.9604   21299814.8104   21299813.710
        46.7004         43.7004
 -10258097.93646  -7981306.86646  23738441.6384   23738437.3174   23738442.305
        39.0004         36.4004
 -21318756.24647 -16599541.98547  20751027.9824   20751026.1694   20751028.092
        47.2004         44.2004
   -336751.62346   -252519.33245  24210493.0264   24210495.0744   24210493.568
        38.0004         35.9004
  -4063912.53146  -3151473.61846  23658713.9154   23658715.4754   23658713.183
        39.6004         36.9004
  -5157922.39146  -3993022.21445  23700842.9384   23700842.6334   23700843.407
        37.1004         35.0004
 -12477071.37147  -9709910.47046  22204079.2964   22204081.6724   22204079.062
        44.4004         41.6004
 16 11 15  1 11 30.0000000  0 11G14G22G01G11G03G23G31G25G32G16G26
 -15919575.30647 -12126426.47046  21768194.5104   21768192.8674   21768195.186
        44.4004         41.4004
 -23050813.10048 -17517063.80347  20620037.1604   20620034.0404   20620037.967
        48.1004         45.1004
  -6465489.26846  -5016693.42046  23118868.1194   23118870.6344   23118868.160
        40.4004         37.6004
   5497044.15345   4520930.59945  25466053.1004   25466051.2834   25466050.912
        33.8004         32.7004
 -21160622.36247 -16240943.89647  21288467.4294   21288467.8514   21288466.842
        46.7004         43.9004
 -10334036.57246  -8040479.78046  23723992.0574   23723987.9124   23723990.845
        38.9004         36.4004
 -21262026.04047 -16555336.62547  20761823.3204   20761821.4834   20761823.369
        47.2004         44.2004
   -262982.67546   -195037.02346  24224531.2114   24224532.7944   24224531.629
        38.3004         36.0004
  -3988269.96746  -3092531.38446  23673108.0994   23673109.5444   23673107.519
        39.4004         36.9004
  -5270985.39346  -4081123.23945  23679328.6334   23679328.3954   23679328.584
        37.0004         34.8004
 -12553368.93747  -9769363.08046  22189560.3064   22189562.5594   22189560.086
        44.4004         41.8004
 16 11 15  1 12  0.0000000  0 11G14G22G01G11G03G23G31G25G32G16G26
 -15873108.21447 -12090218.34246  21777037.3954   21777035.4974   21777037.504
        44.2004         41.4004
 -23077320.50648 -17537718.92347  20614993.0284   20614989.9214   20614993.861
        48.1004         45.1004
  -6394033.27146  -4961013.42246  23132465.6094   23132467.7824   23132465.635
        40.3004         37.6004
   5578819.37445   4584651.58945  25481611.3434   25481608.5794   25481610.683
        34.3004         33.1004
 -21219829.44947 -16287079.28347  21277200.3684   21277201.4364   21277199.874
        46.7004         43.9004
 -10409949.97746  -8099633.04146  23709544.5304   23709541.4884   23709544.940
        38.9004         36.4004
 -21204936.12847 -16510850.97647  20772687.5454   20772685.0734   20772687.319
        47.2004         44.2004
   -188766.20946   -137206.01046  24238654.2594   24238655.7334   24238654.055
        38.3004         36.2004
  -3912519.58646  -3033505.13846  23687523.0734   23687523.5814   23687522.493
        39.4004         36.9004
  -5383971.84446  -4169164.61945  23657827.0254   23657826.3504   23657828.049
        37.0004         35.0004
 -12629283.29247  -9828517.09446  22175113.8724   22175116.6504   22175114.336
        44.6004         41.8004
 16 11 15  1 12 30.0000000  0 11G14G22G01G11G03G23G31G25G32G16G26
 -15826471.55847 -12053878.09146  21785912.1964   21785910.6514   21785912.085
        44.2004         41.4004
 -23103336.22048 -17557990.90747  20610042.3244   20610039.2154   20610043.223
        48.1004         45.1004
  -6322262.73046  -4905088.32646  23146123.1444   23146126.0094   23146123.345
        40.1004         37.4004
   5660540.38645   4648330.27645  25497160.1574   25497161.7784   25497162.524
        34.7004         33.3004
 -21278612.88147 -16332884.55147  21266014.4084   21266015.2084   21266013.860
        46.7004         43.9004
 -10485837.15646  -8158765.86946  23695104.1014   23695101.1224   23695104.487
        39.0004         36.7004
 -21147488.62247 -16466086.67947  20783619.5784   20783617.2734   20783619.350
        47.2004         44.2004
   -114104.68646    -79028.19846  24252861.1234   24252863.9524   24252862.029
        38.3004         36.0004
  -3836661.53046  -2974394.98646  23701958.9414   23701959.3784   23701958.760
        39.4004         36.9004
  -5496878.72846  -4257143.97045  23636343.4004   23636338.9144   23636342.999
        37.1004         35.0004
 -12704811.64147  -9887370.33546  22160741.6624   22160744.1624   22160741.793
        44.8004         41.8004
 16 11 15  1 13  0.0000000  0 11G14G22G01G11G03G23G31G25G32G16G26
 -15779665.23247 -12017405.62946  21794818.8084   21794816.7814   21794819.240
        44.2004         41.6004
 -23128858.62448 -17577878.49047  20605185.4414   20605182.7694   20605186.333
        48.1004         45.1004
  -6250180.60746  -4848920.44746  23159839.8714   23159841.7904   23159840.142
        39.9004         37.4004
   5742204.18345   4711964.39245  25512701.4504   25512701.8144   25512702.388
        34.2004         32.7004
 -21336970.44147 -16378357.97447  21254909.0844   21254910.1994   21254908.820
        46.7004         43.7004
 -10561698.34346  -8217878.43246  23680667.4934   23680665.5794   23680668.185
        39.0004         36.6004
 -21089686.16747 -16421045.80847  20794619.0224   20794616.7984   20794618.757
        47.2004         44.2004
    -39000.52446    -20505.46546  24267152.7604   24267155.6284   24267153.867
        38.2004         36.0004
  -3760695.96046  -2915201.05746  23716414.6184   23716414.8434   23716414.842
        39.2004         36.9004
  -5609702.76246  -4345058.77845  23614873.2674   23614871.4424   23614873.108
        37.6004         35.7004
 -12779951.12247  -9945920.55246  22146443.3194   22146445.8654   22146443.205
        44.8004         41.8004
 16 11 15  1 13 30.0000000  0 11G14G22G01G11G03G23G31G25G32G16G26
 -15732689.38647 -11980801.07746  21803757.9574   21803756.4964   21803758.467
        44.2004         41.4004
 -23153886.31148 -17597380.58047  20600422.8334   20600419.9934   20600423.790
        48.1004         45.1004
  -6177789.88346  -4792512.09346  23173616.2224   23173617.6454   23173615.707
        39.7004         37.3004
   5823808.22545   4775551.99645  25528231.8804   25528230.7094   25528231.382
        34.3004         33.1004
 -21394899.81147 -16423497.73847  21243885.3184   21243886.8054   21243885.097
        46.7004         43.9004
 -10637532.90146  -8276970.25446  23666237.7464   23666235.9754   23666237.332
        39.0004         36.7004
 -21031530.78147 -16375729.91447  20805685.6214   20805683.2804   20805685.344
        47.2004         44.2004
     36543.87646     38360.30745  24281530.0544   24281530.4304   24281529.537
        38.2004         35.9004
  -3684622.99846  -2855923.45046  23730891.2944   23730892.6704   23730890.677
        39.4004         37.1004
  -5722441.02946  -4432906.74146  23593419.0374   23593418.0144   23593419.542
        38.2004         36.0004
 -12854698.96047 -10004165.59546  22132218.9794   22132221.9634   22132219.126
        44.8004         41.8004
 16 11 15  1 14  0.0000000  0 11G14G22G01G11G03G23G31G25G32G16G26
 -15685543.78247 -11944064.23646  21812730.0284   21812728.6034   21812729.959
        44.2004         41.4004
 -23178418.01848 -17616496.19247  20595754.9224   20595751.7154   20595755.758
        48.1004         45.2004
  -6105093.53346  -4735865.60846  23187449.7314   23187452.2114   23187449.552
        39.7004         37.3004
   5905349.85545   4839090.90645  25543746.8834   25543747.5544   25543748.663
        34.3004         33.1004
 -21452398.78747 -16468302.13647  21232943.7944   21232944.8354   21232943.605
        46.7004         43.9004
 -10713340.83546  -8336041.34846  23651810.8704   23651808.8454   23651812.265
        39.2004         36.7004
 -20973024.98347 -16330140.97847  20816818.6694   20816816.5134   20816818.645
        47.2004         44.2004
    112526.03946     97567.17545  24295989.1534   24295990.3174   24295988.717
        37.8004         35.5004
  -3608442.76146  -2796562.24446  23745387.1914   23745388.1844   23745387.328
        39.4004         37.1004
  -5835090.02746  -4520685.16646  23571982.6694   23571982.3034   23571982.806
        38.3004         36.0004
 -12929052.34447 -10062103.26946  22118070.1474   22118072.4754   22118070.183
        44.8004         41.8004
 16 11 15  1 14 30.0000000  0 11G14G22G01G11G03G23G31G25G32G16G26
 -15638228.38047 -11907195.09746  21821733.1184   21821731.2604   21821733.454
        44.1004         41.2004
 -23202452.52248 -17635224.37947  20591181.2194   20591178.0364   20591182.166
        48.2004         45.1004
  -6032094.59046  -4678983.30046  23201340.9514   23201342.8754   23201340.517
        39.7004         37.3004
   5986826.39145   4902579.11245  25559254.5574   25559250.0254   25559252.559
        33.8004         32.7004
 -21509465.11647 -16512769.40447  21222084.5754   21222085.2804   21222084.149
        46.9004         43.9004
 -10789121.29846  -8395091.01946  23637390.8924   23637387.7644   23637391.659
        39.2004         36.7004
 -20914171.08647 -16284280.80047  20828018.3864   20828015.9734   20828018.043
        47.2004         44.2004
    188943.53646    157113.27945  24310530.4894   24310530.0524   24310530.357
        37.5004         35.2004
  -3532155.39146  -2737117.55846  23759904.6984   23759904.9074   23759903.998
        39.6004         37.1004
  -5947646.33546  -4608391.36046  23550564.0624   23550561.7674   23550563.755
        38.5004         36.4004
 -13003008.50847 -10119731.42546  22103997.0754   22103998.5834   22103996.702
        44.8004         41.8004
 16 11 15  1 15  0.0000000  0 11G14G22G01G11G03G23G31G25G32G16G26
 -15590743.21547 -11870193.66146  21830768.9694   21830767.8474   21830769.893
        44.1004         41.2004
 -23225988.44648 -17653564.06147  20586702.4194   20586699.4224   20586703.137
        48.2004         45.2004
  -5958796.00746  -4621867.53346  23215288.8624   23215291.2784   23215288.640
        39.7004         37.1004
   6068235.44745   4966014.71845  25574742.3144   25574742.6524   25574744.024
        33.5004         32.2004
 -21566096.56547 -16556897.80347  21211308.2094   21211308.9074   21211307.711
        47.0004         44.0004
 -10864873.97846  -8454119.04846  23622975.1874   23622972.6304   23622975.998
        39.2004         37.1004
 -20854971.21047 -16238151.02247  20839283.6494   20839281.7594   20839283.364
        47.2004         44.2004
    265793.83146    216996.64945  24325152.2524   24325155.3574   24325154.552
        36.8004         34.6004
  -3455761.01846  -2677589.49746  23774442.5134   23774443.3134   23774441.547
        39.6004         37.1004
  -6060106.78146  -4696022.82746  23529163.1364   23529162.9024   23529163.550
        38.7004         36.6004
 -13076564.66347 -10177047.88746  22089999.4244   22090002.0334   22089999.633
        44.8004         41.9004
 16 11 15  1 15 30.0000000  0 11G14G22G01G11G03G23G31G25G32G16G26
 -15543088.28847 -11833059.95146  21839837.9384   21839836.7054   21839838.444
        44.1004         41.2004
 -23249024.18748 -17671513.98447  20582318.7564   20582315.7154   20582319.521
        48.2004         45.2004
  -5885200.83046  -4564520.65146  23229294.1804   23229295.5094   23229293.481
        39.6004         37.1004
   6149573.76445   5029395.25545  25590225.8964   25590221.6594   25590222.287
        33.1004         32.0004
 -21622290.92047 -16600685.60747  21200614.7534   21200615.3474   21200614.365
        47.0004         44.2004
 -10940598.79846  -8513125.36846  23608565.2024   23608562.7484   23608565.830
        39.2004         36.6004
 -20795427.81547 -16191753.56947  20850614.4504   20850611.9234   20850614.210
        47.2004         44.2004
    343074.54346    277215.37945  24339858.8504   24339862.4024   24339859.765
        36.1004         34.0004
  -3379259.76446  -2617978.15346  23789000.3654   23789000.5074   23788999.317
        39.6004         36.9004
  -6172468.06946  -4783577.04646  23507781.4414   23507780.1484   23507781.813
        39.0004         36.7004
 -13149718.04347 -10234050.51046  22076078.5004   22076080.7884   22076078.875
        44.8004         41.9004
 16 11 15  1 16  0.0000000  0 11G14G22G01G11G03G23G31G25G32G16G26
 -15495263.53747 -11795793.92346  21848938.5384   21848936.8874   21848939.403
        44.2004         41.2004
 -23271558.52648 -17689073.21247  20578030.7474   20578027.7734   20578031.466
        48.2004         45.2004
  -5811312.05146  -4506944.97846  23243354.3804   23243356.4864   23243354.183
        39.6004         37.1004
   6230838.92745   5092718.78345  25605689.8924   25605686.0974   25605687.278
        32.4004         31.7004
 -21678045.92947 -16644131.06547  21190004.9034   21190005.4894   21190004.443
        47.2004         44.4004
 -11016295.20946  -8572109.55146  23594161.1224   23594159.5694   23594161.349
        39.2004         36.7004
 -20735542.95347 -16145090.04147  20862010.0094   20862007.8904   20862009.876
        47.2004         44.2004
    420783.06145    337767.46645  24354648.5394   24354648.6014   24354648.147
        35.4004         33.4004
  -3302651.77446  -2558283.62246  23803577.2674   23803579.6414   23803577.443
        39.4004         37.1004
  -6284726.80446  -4871051.34446  23486419.1464   23486416.7424   23486419.303
        39.0004         36.6004
 -13222465.88847 -10290737.12646  22062235.6634   22062238.0294   22062235.626
        44.9004         41.9004
 16 11 15  1 16 30.0000000  0 11G14G22G01G11G03G23G31G25G32G16G26
 -15447268.75247 -11758395.37346  21858071.8564   21858070.5024   21858072.175
        44.2004         41.4004
 -23293590.33648 -17706240.85547  20573838.3314   20573835.0354   20573839.036
        48.2004         45.2004
  -5737132.67746  -4449142.86646  23257469.8234   23257471.8614   23257469.666
        39.6004         37.1004
   6312028.21945   5155983.18245  25621135.5424           .000    25621136.834
        31.9004         31.5004
 -21733359.42047 -16687232.48147  21179479.0784   21179479.7574   21179478.431
        47.2004         44.4004
 -11091962.77646  -8631071.27146  23579761.7814   23579757.8434   23579762.456
        39.2004         36.9004
 -20675318.92247 -16098162.22047  20873470.3944   20873468.2994   20873470.255
        47.2004         44.2004
    498916.98145    398651.00745  24369517.6614   24369517.4474   24369515.131
        34.7004         32.9004
  -3225937.16146  -2498506.03346  23818176.4564   23818177.0144   23818175.565
        39.2004         36.7004
  -6396880.05346  -4958443.45446  23465076.5464   23465076.9014   23465077.264
        39.0004         36.7004
 -13294805.47247 -10347105.61946  22048469.6004   22048471.2154   22048469.479
        44.8004         41.9004
 16 11 15  1 17  0.0000000  0 11G14G22G01G11G03G23G31G25G32G16G26
 -15399103.90547 -11720864.33146  21867237.6454   21867235.8394   21867237.483
        44.2004         41.2004
 -23315118.26948 -17723015.86947  20569741.8044   20569738.7644   20569742.566
        48.2004         45.4004
  -5662665.72546  -4391116.68446  23271641.2764   23271642.7984   23271640.483
        39.6004         37.1004
   6393139.30645   5219186.62445          .000            .000    25636571.767
        31.7004         31.5004
 -21788229.16047 -16729988.12547  21169037.5464   21169038.3464   21169037.111
        47.2004         44.4004
 -11167601.16746  -8690010.25746  23565368.4934   23565365.7984   23565368.802
        39.2004         36.7004
 -20614758.26847 -16050972.09947  20884994.5884   20884992.4034   20884994.509
        47.2004         44.2004
    577473.82745    459864.12945  24384465.8454   24384463.7924   24384465.175
        34.2004         32.9004
  -3149116.03346  -2438645.43146  23832793.8084   23832795.8394   23832794.148
        39.4004         37.1004
  -6508924.39946  -5045750.68046  23443756.8024   23443754.1254   23443755.665
        38.7004         36.0004
 -13366734.05247 -10403153.84046  22034781.8244   22034783.4004   22034782.005
        44.9004         41.9004
 16 11 15  1 17 30.0000000  0 11G14G22G01G11G03G23G31G25G32G16G26
 -15350769.08247 -11683200.83346  21876435.5654   21876432.7574   21876435.516
        44.2004         41.2004
 -23336141.13148 -17739397.32547  20565741.1864   20565738.1384   20565741.973
        48.4004         45.4004
  -5587914.23846  -4332868.76846  23285865.3544   23285869.1964   23285865.323
        39.6004         37.1004
   6474169.23645   5282326.85945          .000            .000    25651991.757
        31.0004         30.8004
 -21842652.97847 -16772396.29447  21158680.8894   21158682.0154   21158680.580
        47.2004         44.2004
 -11243210.04146  -8748926.22846  23550980.5664   23550978.6544   23550981.070
        39.2004         36.7004
 -20553863.18547 -16003521.38647  20896583.0644   20896580.4364   20896582.601
        47.2004         44.2004
    656450.90645    521404.70345  24399491.6424   24399499.2924   24399494.330
        34.5004         33.3004
  -3072188.55246  -2378701.95046  23847433.0634   23847434.5704   23847432.800
        39.4004         36.9004
  -6620855.64946  -5132969.78745  23422455.1744   23422455.5304   23422456.108
        38.3004         35.9004
 -13438248.93147 -10458879.69146  22021173.5704   22021175.4134   22021173.451
        44.8004         41.9004
 16 11 15  1 18  0.0000000  0 11G14G22G01G11G03G23G31G25G32G16G26
 -15302264.10347 -11645404.74546  21885665.1754   21885663.4304   21885665.710
        44.2004         41.2004
 -23356657.85648 -17755384.38247  20561836.6834   20561833.9754   20561837.627
        48.2004         45.2004
  -5512881.24046  -4274401.50346  23300143.6614   23300145.5274   23300143.627
        39.7004         37.3004
   6555115.33844     23028.77443          .000            .000    25667394.397
        26.4004         23.4004
 -21896628.69647 -16814455.29247  21148409.5894   21148410.4934   21148409.358
        47.2004         44.2004
 -11318788.77846  -8807818.72446  23536597.3514   23536595.2934   23536598.694
        39.0004         36.6004
 -20492636.05847 -15955811.93647  20908233.8044   20908231.7894   20908233.648
        47.2004         44.0004
    735845.77945    583270.84345  24414602.0054   24414604.4154   24414602.581
        35.0004         33.6004
  -2995154.89846  -2318675.74946  23862092.6014   23862093.6374   23862091.224
        39.4004         37.1004
  -6732671.60446  -5220099.06045  23401175.3254   23401176.0294   23401177.032
        38.2004         35.7004
 -13509347.37647 -10514281.05246  22007643.4154   22007646.0524   22007643.612
        44.9004         41.9004
 16 11 15  1 18 30.0000000  0 11G14G22G01G11G03G23G31G25G32G16G26
 -15253588.75647 -11607475.91146  21894928.0184   21894926.5284   21894928.591
        44.2004         41.4004
 -23376666.98348 -17770975.90947  20558029.2304   20558026.3034   20558029.944
        48.2004         45.2004
  -5437569.79146  -4215717.25746  23314475.1574   23314477.4304   23314475.096
        39.7004         37.3004
   6635974.95944     86027.46244          .000            .000    25682780.892
        26.4004         29.3004
 -21950154.13247 -16856163.42447  21138224.5874   21138225.1874   21138223.781
        47.2004         44.2004
 -11394337.39046  -8866687.75246  23522220.3584   23522219.6134   23522221.691
        39.0004         36.6004
 -20431079.21147 -15907845.55947  20919947.8974   20919945.1764   20919947.554
        47.2004         44.2004
    815655.87745    645460.57545  24429787.9194   24429788.6634   24429789.523
        35.2004         33.8004
  -2918015.13046  -2258566.87946  23876770.8244   23876772.2874   23876770.241
        39.4004         37.1004
  -6844368.90946  -5307135.86045  23379921.8484   23379922.1844   23379921.818
        37.8004         35.3004
 -13580026.69047 -10569355.81246  21994194.2734   21994195.7804   21994193.993
        44.9004         41.9004
 16 11 15  1 19  0.0000000  0 11G14G22G01G11G03G23G31G25G32G16G26
 -15204743.32147 -11569414.53546  21904222.9114   21904221.4244   21904223.525
        44.1004         41.1004
 -23396167.12048 -17786170.81947  20554318.6474   20554315.6584   20554319.334
        48.2004         45.4004
  -5361982.89746  -4156818.39946  23328859.6394   23328861.6784   23328859.122
        39.9004         37.4004
   6716745.75544    148949.17544          .000            .000    25698151.885
        26.4004         29.8004
 -22003227.12647 -16897518.99547  21128124.9414   21128125.7054   21128124.576
        47.2004         44.2004
 -11469855.14046  -8925532.72046  23507850.8994   23507848.5174   23507851.291
        39.0004         36.7004
 -20369194.82147 -15859623.95347  20931723.9044   20931721.8004   20931723.883
        47.2004         44.2004
    895878.64945    707971.82545  24445054.9224   24445058.1854   24445055.053
        35.7004         34.0004
  -2840769.40846  -2198375.43946  23891470.0234   23891472.0384   23891469.387
        39.4004         36.9004
  -6955944.05546  -5394077.46045  23358690.9854   23358689.3964   23358689.659
        37.6004         35.3004
 -13650284.22047 -10624101.91146  21980824.6264   21980826.2424   21980824.022
        44.8004         41.9004
 16 11 15  1 19 30.0000000  0 10G14G22G01G03G23G31G25G32G16G26
 -15155727.58947 -11531220.46146  21913550.3904   21913549.2704   21913550.835
        43.9004         41.1004
 -23415157.16048 -17800968.25547  20550704.5644   20550702.1024   20550705.614
        48.4004         45.4004
  -5286123.60746  -4097707.27746  23343294.8074   23343296.5254   23343294.767
        40.1004         37.6004
 -22055845.53447 -16938520.34747  21118112.1634   21118113.1714   21118111.566
        47.2004         44.2004
 -11545341.74346  -8984353.43246  23493486.3644   23493483.3744   23493486.927
        39.2004         36.9004
 -20306984.91747 -15811148.70247  20943562.0074   20943560.1164   20943561.889
        47.2004         44.2004
    976511.55746    770802.66245  24460398.6034   24460400.1594   24460398.891
        36.1004         34.5004
  -2763417.87146  -2138101.55146  23906189.1374   23906192.0354   23906188.818
        39.4004         36.9004
  -7067393.46646  -5480921.13245  23337482.4234   23337480.9464   23337481.547
        37.6004         35.2004
 -13720117.28047 -10678517.24746  21967535.0944   21967536.9574   21967535.093
        44.8004         41.8004
 16 11 15  1 20  0.0000000  0 10G14G22G01G03G23G31G25G32G16G26
 -15106541.13847 -11492893.35846  21922910.3914   21922908.6344   21922910.518
        43.9004         40.9004
 -23433636.04848 -17815367.39347  20547188.4384   20547185.7454   20547189.367
        48.4004         45.4004
  -5209994.94546  -4038386.24846  23357781.1144   23357783.1154   23357781.023
        40.1004         37.4004
 -22108007.19047 -16979165.78647  21108185.9194   21108186.7184   21108185.403
        47.2004         44.2004
 -11620796.59646  -9043149.40346  23479128.4134   23479125.3064   23479128.425
        39.2004         36.7004
 -20244452.35347 -15762422.02747  20955461.6404   20955459.5944   20955461.351
        47.2004         44.2004
   1057552.01446    833951.09845  24475820.1194   24475821.0834   24475821.122
        36.4004         34.6004
  -2685960.62846  -2077745.28046  23920928.9224   23920931.6524   23920928.703
        39.2004         36.7004
  -7178713.87446  -5567664.27245  23316297.9684   23316298.9284   23316297.762
        37.8004         35.9004
 -13789523.23347 -10732599.79146  21954327.7044   21954330.2084   21954327.472
        44.8004         41.9004
 16 11 15  1 20 30.0000000  0 10G14G22G01G03G23G31G25G32G16G26
 -15057184.41547 -11454433.57346  21932302.5314   21932300.5664   21932302.612
        43.7004         41.1004
 -23451602.52848 -17829367.25247  20543769.1124   20543766.4884   20543770.155
        48.2004         45.2004
  -5133600.03046  -3978857.75546  23372319.0714   23372320.8134   23372318.883
        39.9004         37.3004
 -22159709.98347 -17019453.67347  21098346.8244   21098347.7344   21098346.735
        47.2004         44.2004
 -11696219.28746  -9101920.31646  23464775.6114   23464772.3944   23464776.334
        39.4004         36.9004
 -20181599.42647 -15713445.72047  20967422.5664   20967420.1204   20967421.915
        47.0004         44.0004
   1138997.44446    897415.08945  24491318.0864   24491320.4804   24491318.944
        36.8004         34.8004
  -2608397.86746  -2017306.80146  23935689.9594   23935691.6564   23935689.243
        39.4004         36.9004
  -7289902.32746  -5654304.58545  23295139.9084   23295138.1394   23295139.777
        38.0004         35.9004
 -13858499.41047 -10786347.44046  21941202.2154   21941204.4354   21941201.228
        44.8004         41.8004
 16 11 15  1 21  0.0000000  0 10G14G22G01G03G23G31G25G32G16G26
 -15007657.29047 -11415841.00746  21941726.7304   21941725.1854   21941727.660
        43.7004         40.9004
 -23469055.73148 -17842967.15347  20540447.9354   20540445.2064   20540449.042
        48.2004         45.2004
  -5056941.86146  -3919124.14046  23386906.2914   23386908.8434   23386905.659
        39.7004         37.1004
 -22210951.77647 -17059382.33647  21088595.8064   21088596.6714   21088595.504
        47.0004         44.2004
 -11771609.33746  -9160665.78346  23450429.4854   23450427.0724   23450430.356
        39.4004         36.9004
 -20118428.02147 -15664221.24447  20979442.9544   20979441.0734   20979443.078
        47.0004         44.2004
   1220845.25546    961192.60045  24506894.4424   24506894.2034   24506894.043
        37.5004         35.5004
  -2530729.66046  -1956786.15346  23950469.3274   23950470.8814   23950469.094
        39.4004         36.9004
  -7400955.02346  -5740839.14545  23274007.5164   23274007.2674   23274007.592
        38.2004         35.9004
 -13927043.19247 -10839758.15346  21928158.0634   21928160.8634   21928158.089
        44.6004         41.8004
 16 11 15  1 21 30.0000000  0 10G14G22G01G03G23G31G25G32G16G26
 -14957959.39747 -11377115.37846  21951183.8934   21951182.7154   21951184.781
        43.7004         40.9004
 -23485994.04248 -17856165.83547  20537224.9584   20537222.2204   20537225.687
        48.2004         45.4004
  -4980023.55046  -3859187.79446  23401542.7784   23401546.1894   23401542.571
        39.7004         37.1004
 -22261730.46647 -17098950.14547  21078933.3834   21078933.9064   21078932.716
        47.0004         44.2004
 -11846966.56946  -9219385.68646  23436090.1484   23436084.7484   23436089.917
        39.4004         36.7004
 -20054940.52047 -15614750.46347  20991524.6474   20991522.4794   20991524.498
        47.0004         44.0004
   1303092.82746   1025281.60445  24522544.9984   24522545.8934   24522545.610
        37.6004         35.5004
  -2452956.19546  -1896183.49146  23965270.1104   23965270.1244   23965269.103
        39.4004         37.3004
  -7511868.74346  -5827265.41946  23252901.2934   23252900.5324   23252901.075
        38.3004         36.2004
 -13995151.97247 -10892829.91347  21915197.9934   21915199.7304   21915197.942
        44.8004         42.1004
 16 11 15  1 22  0.0000000  0 10G14G22G01G03G23G31G25G32G16G26
 -14908090.81347 -11338256.75046  21960673.9364   21960672.5394   21960674.491
        43.7004         40.9004
 -23502416.91048 -17868962.87647  20534099.9954   20534096.8934   20534100.522
        48.4004         45.2004
  -4902848.09946  -3799051.08746  23416228.8974   23416231.4754   23416228.393
        39.4004         36.7004
 -22312043.92647 -17138155.43047  21069358.9584   21069359.8304   21069358.453
        47.0004         44.0004
 -11922290.39246  -9278079.55146  23421756.1374   23421751.8924   23421756.278
        39.4004         36.9004
 -19991139.36047 -15565035.27147  21003665.3634   21003663.3874   21003665.173
        47.0004         44.0004
   1385737.57446   1089680.13145  24538271.9784   24538274.7414   24538272.556
        37.8004         35.7004
  -2375077.56346  -1835498.87746  23980089.7484   23980091.2884   23980088.603
        39.6004         37.3004
  -7622640.50746  -5913581.07546  23231821.6104   23231821.3564   23231822.004
        38.5004         36.2004
 -14062823.11747 -10945560.65446  21902320.3124   21902322.4014   21902320.343
        44.8004         41.9004
 16 11 15  1 22 30.0000000  0 10G14G22G01G03G23G31G25G32G16G26
 -14858051.56247 -11299265.12946  21970197.1914   21970195.0764   21970196.535
        43.7004         40.9004
 -23518323.03748 -17881357.25947  20531072.7334   20531070.0264   20531073.769
        48.4004         45.4004
  -4825418.64546  -3738716.45546  23430963.5674   23430965.7394   23430962.927
        39.2004         36.7004
 -22361890.11747 -17176996.61447  21059873.5184   21059874.5724   21059872.977
        47.0004         44.0004
 -11997580.37146  -9336747.04746  23407427.7434   23407425.1444   23407428.646
        39.4004         37.1004
 -19927026.87447 -15515077.48947  21015865.8734   21015863.5284   21015865.744
        47.0004         44.0004
   1468776.86146   1154386.07445  24554074.5434   24554076.2644   24554074.600
        37.6004         35.3004
  -2297093.97146  -1774732.47046  23994929.1154   23994930.1774   23994928.955
        39.7004         37.3004
  -7733266.66946  -5999783.27346  23210770.4744   23210768.9824   23210770.633
        38.5004         36.2004
 -14130054.06147 -10997948.39247  21889527.0894   21889529.7914   21889526.971
        44.9004         42.1004
 16 11 15  1 23  0.0000000  0 10G14G22G01G03G23G31G25G32G16G26
 -14807841.26647 -11260140.22246  21979750.0464   21979749.3994   21979751.092
        43.6004         40.6004
 -23533711.15348 -17893348.00447  20528144.5294   20528141.9494   20528145.357
        48.4004         45.4004
  -4747738.20546  -3678186.25346  23445745.4584   23445748.0094   23445745.490
        39.2004         36.6004
 -22411266.90547 -17215472.02747  21050477.0594   21050478.5824   21050476.717
        47.0004         44.2004
 -12072836.11546  -9395387.86446  23393106.9024   23393104.0434   23393107.823
        39.4004         36.7004
 -19862605.18547 -15464878.77047  21028124.5444   21028122.5204   21028124.381
        47.0004         44.0004
   1552208.07746   1219397.39245  24569950.7204   24569950.5074   24569950.198
        37.6004         35.5004
  -2219005.49246  -1713884.33146  24009788.6784   24009789.4984   24009788.342
        39.9004         37.4004
  -7843743.96046  -6085869.46046  23189747.8244   23189745.2564   23189747.555
        38.7004         36.2004
 -14196842.24947 -11049991.12947  21876817.3984   21876819.5834   21876817.382
        44.9004         42.1004
 16 11 15  1 23 30.0000000  0 10G14G22G01G03G23G31G25G32G16G26
 -14757459.93047 -11220882.04246  21989337.8084   21989336.1814   21989338.231
        43.6004         40.6004
 -23548580.27348 -17904934.33747  20525315.2174   20525312.2674   20525316.143
        48.6004         45.6004
  -4669809.86046  -3617462.89246  23460574.4484   23460577.6634   23460574.558
        39.0004         36.7004
 -22460172.24347 -17253580.07847  21041171.2814   21041171.5314   21041170.647
        47.0004         44.2004
 -12148056.99346  -9454001.51046  23378793.7704   23378790.3394   23378793.620
        39.4004         36.9004
 -19797876.82147 -15414441.08647  21040442.2124   21040440.0454   21040442.095
        46.9004         43.9004
   1636028.56446   1284712.05245  24585900.5294   24585903.4034   24585901.118
        37.3004         35.0004
  -2140812.29346  -1652954.58346  24024669.4344   24024668.8394   24024668.160
        40.3004         37.8004
  -7954068.78846  -6171836.85246  23168752.5254   23168752.1054   23168753.441
        38.5004         36.0004
 -14263185.06247 -11101686.81547  21864192.6524   21864194.8484   21864192.741
        44.9004         42.1004
 16 11 15  1 24  0.0000000  0 10G14G22G01G03G23G31G25G32G16G26
 -14706907.74147 -11181490.71646  21998958.1704   21998956.8944   21998958.155
        43.4004         40.4004
 -23562929.40148 -17916115.48047  20522584.6444   20522581.6604   20522585.542
        48.6004         45.6004
  -4591636.70946  -3556548.76146  23475451.2434   23475453.5424   23475450.541
        39.2004         36.7004
 -22508604.06647 -17291319.15647  21031955.0644   21031955.3954   21031954.315
        47.2004         44.4004
 -12223242.41746  -9512587.52146  23364486.5354   23364483.4984   23364487.385
        39.6004         37.3004
 -19732843.85747 -15363766.04347  21052817.7034   21052815.2684   21052817.262
        46.9004         43.9004
   1720235.74546   1350328.01145  24601924.0804   24601925.8714   24601925.039
        37.0004         34.6004
  -2062514.53446  -1591943.38246  24039568.8144   24039569.0364   24039567.970
        40.4004         37.8004
  -8064237.74346  -6257682.77646  23147789.4424   23147787.5314   23147789.171
        38.3004         36.0004
 -14329079.94847 -11153033.46047  21851653.2444   21851655.7054   21851653.379
        45.1004         42.3004
 16 11 15  1 24 30.0000000  0 10G14G22G01G03G23G31G25G32G16G26
 -14656184.24147 -11141965.91346  22008610.1754   22008608.0274   22008610.543
        43.2004         40.4004
 -23576757.80648 -17926890.86447  20519953.1154   20519950.3664   20519954.167
        48.6004         45.4004
  -4513221.81746  -3495446.26746  23490372.7564   23490374.4484   23490372.357
        39.2004         36.7004
 -22556560.33247 -17328687.67047  21022829.1614   21022829.9264   21022828.539
        47.4004         44.5004
 -12298392.18646  -9571145.75146  23350186.2644   23350182.3574   23350186.637
        39.6004         37.3004
 -19667508.92547 -15312855.70247  21065250.8234   21065247.9004   21065250.185
        46.9004         43.9004
   1804826.89246   1416243.19245  24618020.9204   24618022.5334   24618021.861
        36.3004         34.1004
  -1984112.31346  -1530850.76646  24054487.3744   24054488.4894   24054487.295
        40.4004         37.9004
  -8174248.20046  -6343405.17345  23126854.2844   23126854.6084   23126854.054
        38.2004         35.9004
 -14394524.41747 -11204029.13247  21839199.3544   21839201.8194   21839199.534
        45.1004         42.3004
 16 11 15  1 25  0.0000000  0 10G14G22G01G03G23G31G25G32G16G26
 -14605289.77647 -11102307.88846  22018295.6184   22018292.9484   22018295.567
        43.2004         40.4004
 -23590064.16548 -17937259.45847  20517420.9954   20517418.2784   20517421.996
        48.6004         45.6004
  -4434568.27546  -3434157.80746  23505339.8784   23505341.5304   23505339.656
        39.2004         36.9004
 -22604039.01047 -17365684.03847  21013794.2534   21013794.8514   21013793.748
        47.4004         44.5004
 -12373505.67946  -9629675.71446  23335892.3724   23335888.5394   23335892.723
        39.6004         37.1004
 -19601873.96547 -15261711.58047  21077740.1174   21077737.7704   21077739.842
        46.7004         43.9004
   1889799.39645   1482455.51345  24634193.3264   24634193.3364   24634192.676
        35.6004         33.6004
  -1905605.83146  -1469676.92546  24069427.7504   24069428.3294   24069426.565
        40.4004         37.9004
  -8284096.34846  -6429001.11545  23105951.7824   23105950.8274   23105950.943
        38.0004         35.7004
 -14459515.92547 -11254671.84047  21826832.1304   21826834.1474   21826831.937
        45.1004         42.3004
 16 11 15  1 25 30.0000000  0 10G14G22G01G03G23G31G25G32G16G26
 -14554223.64547 -11062516.11446  22028012.6264   22028011.5474   22028013.063
        43.2004         40.6004
 -23602847.62748 -17947220.60047  20514988.2494   20514985.4214   20514989.280
        48.6004         45.4004
  -4355679.17746  -3372685.78346  23520351.9354   23520355.1194   23520351.585
        39.2004         36.9004
 -22651038.05747 -17402306.66847  21004850.6214   21004851.4894   21004850.123
        47.5004         44.7004
 -12448582.43446  -9688177.04346  23321605.8664   23321602.4354   23321605.859
        39.6004         37.1004
 -19535941.26647 -15210335.45047  21090287.2644   21090284.4694   21090286.642
        46.7004         43.9004
   1975150.60745   1548962.92345  24650432.0384   24650436.9854   24650432.583
        35.0004         33.4004
  -1826995.15846  -1408421.86946  24084386.2634   24084387.7224   24084385.937
        40.3004         37.4004
  -8393778.85646  -6514467.97346  23085078.8954   23085078.8724   23085078.576
        38.2004         36.0004
 -14524051.97447 -11304959.65147  21814551.6604   21814553.4174   21814551.291
        45.1004         42.3004
 16 11 15  1 26  0.0000000  0 10G14G22G01G03G23G31G25G32G16G26
 -14502986.34747 -11022590.93846  22037762.0644   22037760.6334   22037763.031
        43.2004         40.4004
 -23615106.93348 -17956773.31147  20512656.0354   20512652.5424   20512656.453
        48.4004         45.4004
  -4276557.57446  -3311032.58446  23535407.8834   23535411.1974   23535408.007
        39.2004         36.7004
 -22697555.49247 -17438554.02047  20995998.3904   20995999.4144   20995998.171
        47.7004         44.7004
 -12523621.88746  -9746649.32846  23307326.4014   23307323.4924   23307326.138
        39.6004         36.9004
 -19469713.49447 -15158729.38847  21102889.4514   21102886.9714   21102889.415
        46.7004         43.7004
   2060877.77545   1615763.30645  24666745.6284   24666747.4514   24666747.395
        34.9004         33.4004
  -1748280.48646  -1347085.77546  24099365.4004   24099366.4704   24099365.010
        39.9004         37.3004
  -8503292.27246  -6599803.08446  23064238.6584   23064239.0974   23064238.922
        38.3004         36.0004
 -14588130.07847 -11354890.61947  21802357.5614   21802359.2244   21802357.853
        45.3004         42.5004
 16 11 15  1 26 30.0000000  0 10G14G22G01G03G23G31G25G32G16G26
 -14451577.56747 -10982532.16146  22047546.1244   22047543.6244   22047546.104
        43.2004         40.4004
 -23626841.43048 -17965917.08347  20510422.6304   20510419.7294   20510423.520
        48.4004         45.4004
  -4197206.62646  -3249200.68746  23550508.5394   23550511.1094   23550508.213
        38.9004         36.6004
 -22743589.28747 -17474424.50847  20987238.6514   20987239.2454   20987238.229
        47.7004         44.7004
 -12598623.40746  -9805092.02846  23293052.9374   23293050.7174   23293053.555
        39.7004         37.3004
 -19403192.77147 -15106895.05647  21115548.2734   21115545.4894   21115547.779
        46.7004         43.7004
   2146978.22645   1682854.54245  24683130.8724   24683132.5924   24683130.937
        34.9004         33.4004
  -1669461.94946  -1285668.76446  24114363.9224   24114363.9394   24114363.526
        39.6004         36.9004
  -8612633.27346  -6685003.83546  23043432.0024   23043431.5314   23043432.277
        38.7004         36.4004
 -14651747.72347 -11404462.78747  21790251.7344   21790253.5664   21790251.662
        45.3004         42.6004
 16 11 15  1 27  0.0000000  0 10G14G22G01G03G23G31G25G32G16G26
 -14399997.25847 -10942339.71746  22057360.9864   22057359.5184   22057361.513
        43.2004         40.4004
 -23638050.29248 -17974651.26847  20508289.4794   20508286.4554   20508290.500
        48.4004         45.6004
  -4117629.34646  -3187192.42846  23565651.8764   23565652.8784   23565650.796
        38.7004         36.2004
 -22789137.49247 -17509916.62047  20978571.1764   20978571.9554   20978570.672
        47.7004         44.9004
 -12673586.70146  -9863504.94946  23278789.4884   23278784.9954   23278789.064
        39.9004         37.4004
 -19336381.00847 -15054833.94047  21128261.5794   21128259.3794   21128261.507
        46.7004         43.7004
   2233449.34845   1750234.62945  24699588.2744   24699588.7684   24699586.806
        35.2004         33.6004
  -1590539.69246  -1224170.90946  24129381.7774   24129382.8044   24129381.782
        39.2004         36.6004
  -8721798.60546  -6770067.70246  23022658.9534   23022658.1194   23022659.015
        38.9004         36.4004
 -14714902.50547 -11453674.28047  21778234.0564   21778235.8124   21778233.777
        45.5004         42.6004
 16 11 15  1 27 30.0000000  0 10G14G22G01G03G23G31G25G32G16G26
 -14348245.24247 -10902013.46546  22067209.3224   22067207.9284   22067209.295
        43.4004         40.4004
 -23648732.43448 -17982975.02147  20506256.9954   20506253.8934   20506257.814
        48.6004         45.6004
  -4037828.87046  -3125010.24746  23580837.5964   23580839.5894   23580836.806
        38.5004         36.4004
 -22834198.10547 -17545028.78247  20969996.8134   20969996.9504   20969996.099
        47.9004         44.9004
 -12748511.27446  -9921887.71746  23264532.6744   23264527.7464   23264531.606
        39.9004         37.4004
 -19269280.92247 -15002548.15547  21141030.6184   21141027.7794   21141030.525
        46.7004         43.9004
   2320288.43045   1817901.43145  24716110.6104   24716110.7664   24716111.705
        35.4004         33.8004
  -1511513.86446  -1162592.36745  24144419.2544   24144422.0114   24144419.619
        38.7004         35.9004
  -8830784.84346  -6854992.02446  23001918.3634   23001918.9954   23001919.118
        38.9004         36.4004
 -14777591.94447 -11502523.16547  21766304.1874   21766306.5494   21766303.952
        45.5004         42.5004
 16 11 15  1 28  0.0000000  0 10G14G22G01G03G23G31G25G32G16G26
 -14296321.44847 -10861553.37046  22077089.8774   22077088.7334   22077090.474
        43.2004         40.4004
 -23658886.73148 -17990887.47047  20504324.7684   20504321.6564   20504325.631
        48.6004         45.6004
  -3957808.28946  -3062656.57846  23596064.3724   23596066.7934   23596063.872
        38.7004         36.4004
 -22878769.18647 -17579759.49547  20961514.9894   20961515.5154   20961514.508
        47.9004         44.9004
 -12823396.57346  -9980239.87146  23250280.2894   23250276.7434   23250281.403
        40.1004         37.6004
 -19201894.55347 -14950039.29247  21153854.1054   21153851.3004   21153853.815
        46.9004         43.9004
   2407492.71145   1885852.86145  24732706.2284   24732707.2014   24732706.867
        35.4004         33.6004
  -1432384.62846  -1100933.25645  24159478.8224   24159478.2194   24159477.519
        38.3004         35.7004
  -8939588.26246  -6939773.88946  22981213.8784   22981214.0024   22981214.634
        39.0004         36.7004
 -14839813.64147 -11551007.58647  21754463.7754   21754466.0954   21754463.354
        45.5004         42.6004
 16 11 15  1 28 30.0000000  0 10G14G22G01G03G23G31G25G32G16G26
 -14244225.71847 -10820959.29946  22087003.3094   22087002.1684   22087003.405
        43.0004         40.2004
 -23668512.66748 -17998388.20647  20502492.8494   20502489.8974   20502493.737
        48.6004         45.6004
  -3877570.68246  -3000133.78146  23611333.0824   23611335.6854   23611332.614
        38.7004         36.4004
 -22922848.77347 -17614107.21947  20953126.6434   20953127.1414   20953126.430
        47.7004         44.7004
 -12898241.82546 -10038560.82246  23236038.3204   23236034.9594   23236039.114
        40.3004         37.6004
 -19134224.37647 -14897309.27947  21166730.5984   21166728.5914   21166730.700
        46.7004         43.9004
   2495059.49345   1954086.73045  24749366.9804   24749371.6964   24749369.826
        35.2004         33.6004
  -1353152.12746  -1039193.66845  24174555.0794   24174558.5534   24174554.643
        38.0004         35.3004
  -9048205.84846  -7024410.94546  22960545.0814   22960544.5984   22960545.376
        39.0004         36.6004
 -14901565.16247 -11599125.63447  21742712.7484   21742715.0174   21742712.714
        45.5004         42.5004
 16 11 15  1 29  0.0000000  0 11G14G22G01G11G03G23G31G25G32G16G26
 -14191957.75747 -10780231.01846  22096949.3914   22096948.0204   22096949.741
        43.0004         40.2004
 -23677609.25148 -18005476.45547  20500762.0444   20500758.8994   20500762.685
        48.6004         45.6004
  -3797119.19446  -2937444.33246  23626642.3904   23626644.7934   23626641.517
        38.7004         36.2004
     68614.39744     39619.07043          .000    26000991.3614       -139.940
        26.4004         23.4004
 -22966434.92347 -17648070.45247  20944832.5084   20944833.0704   20944832.151
        47.7004         44.5004
 -12973046.80546 -10096850.39046  23221803.8284   23221800.2374   23221803.784
        40.3004         37.6004
 -19066272.54947 -14844359.80147  21179662.0104   21179659.8074   21179661.658
        46.7004         43.7004
   2582986.13545   2022601.02045  24766102.0184   24766101.1764   24766101.315
        35.2004         33.4004
  -1273816.48746   -977373.73545  24189653.2484   24189654.4634   24189651.955
        37.8004         35.3004
  -9156634.46346  -7108900.75346  22939911.8324   22939912.1944   22939912.150
        39.0004         36.7004
 -14962844.09347 -11646875.41247  21731051.7594   21731053.9484   21731051.925
        45.6004         42.8004
 16 11 15  1 29 30.0000000  0 11G14G22G01G11G03G23G31G25G32G16G26
 -14139518.19047 -10739369.01446  22106928.3054   22106926.8964   22106929.042
        43.0004         40.2004
 -23686175.83648 -18012151.72247  20499131.5464   20499128.5774   20499132.507
        48.6004         45.6004
  -3716456.91046  -2874590.61546  23641991.7164   23641994.3114   23641991.579
        38.7004         36.4004
    146928.84844     39619.070            .000    26000991.361        -139.940
        26.4004          1.500
 -23009525.75247 -17681647.72547  20936632.1674   20936633.1714   20936632.104
        47.5004         44.5004
 -13047810.78146 -10155108.01846  23207575.1394   23207572.6424   23207576.268
        40.4004         37.8004
 -18998041.31147 -14791192.59847  21192645.7514   21192643.2724   21192645.631
        46.7004         43.7004
   2671269.83745   2091393.53445  24782900.8134   24782901.7794   24782901.366
        35.0004         33.1004
  -1194377.84046   -915473.50845  24204768.4914   24204770.3984   24204768.747
        37.3004         35.2004
  -9264870.62446  -7193240.59546  22919315.5234   22919315.1264   22919315.727
        39.0004         36.6004
 -15023648.07347 -11694255.11647  21719481.1684   21719483.3534   21719481.221
        45.6004         42.8004
 16 11 15  1 30  0.0000000  0 11G14G22G01G11G03G23G31G25G32G16G26
 -14086906.45147 -10698372.86346  22116939.3484   22116939.0364   22116940.512
        43.0004         40.0004
 -23694211.37348 -18018413.18747  20497602.4484   20497599.5824   20497603.485
        48.6004         45.6004
  -3635586.87446  -2811575.02346  23657381.3254   23657383.7894   23657380.585
        38.9004         36.4004
    225099.29544    134161.976 3          .000    26024087.728        -139.940
        27.4004         21.700
 -23052119.32847 -17714837.52047  20928527.2534   20928528.1104   20928526.888
        47.5004         44.5004
 -13122533.14246 -10213333.20746  23193356.7624   23193353.7844   23193357.118
        40.4004         37.8004
 -18929532.95947 -14737809.46047  21205682.3594   21205679.8194   21205682.234
        46.7004         43.7004
   2759907.92045   2160462.21045  24799768.5214   24799770.7444   24799767.610
        34.7004         33.4004
  -1114836.42246   -853493.22845  24219904.5134   24219906.6104   24219905.045
        37.5004         35.5004
  -9372910.49146  -7277427.50146  22898755.6394   22898755.4954   22898756.618
        39.2004         36.7004
 -15083974.73347 -11741262.88247  21708000.7454   21708003.9264   21708001.220
        45.8004         42.8004
 16 11 15  1 30 30.0000000  0 10G14G22G01G03G23G31G25G32G16G26
 -14034122.38747 -10657242.42546  22126984.6834   22126983.3644   22126984.918
        43.0004         40.2004
 -23701714.99648 -18024260.17347  20496174.7534   20496171.7304   20496175.664
        48.6004         45.8004
  -3554512.23046  -2748399.99646  23672808.4984   23672811.7484   23672808.522
        38.9004         36.4004
 -23094213.75147 -17747638.37247  20920516.9214   20920517.6504   20920516.583
        47.7004         44.7004
 -13197213.32646 -10271525.54346  23179145.5014   23179142.1244   23179146.026
        40.4004         37.8004
 -18860749.62947 -14684212.05947  21218771.4764   21218768.7924   21218770.989
        46.5004         43.7004
   2848897.67845   2229804.89945  24816703.0714   24816704.9634   24816701.166
        34.7004         33.3004
  -1035192.33146   -791432.91345  24235061.7144   24235061.9614   24235060.845
        37.8004         35.9004
  -9480751.16146  -7361459.16446  22878234.5274   22878233.1484   22878235.247
        39.2004         36.7004
 -15143821.73647 -11787896.88847  21696612.7934   21696615.4734   21696612.793
        45.8004         42.8004
 16 11 15  1 31  0.0000000  0 11G14G22G01G11G03G23G31G25G32G16G26
 -13981165.87047 -10615977.60546  22137061.5664   22137059.9914   22137062.449
        43.0004         40.2004
 -23708686.38348 -18029692.42947  20494848.0734   20494845.3274   20494849.004
        48.8004         45.8004
  -3473236.12846  -2685067.98746  23688275.6454   23688278.3214   23688275.069
        38.9004         36.6004
     52231.19644      -587.333            .000            .000        -139.940
        26.4004           .000
 -23135807.14947 -17780048.81347  20912602.2104   20912602.7154   20912601.754
        47.7004         44.7004
 -13271850.70546 -10329684.50446  23164943.1174   23164938.6684   23164943.242
        40.4004         38.1004
 -18791693.95247 -14630402.44547  21231912.4144   21231910.2704   21231912.085
        46.5004         43.5004
   2938236.34745   2299419.48545  24833702.0094   24833701.9864   24833702.354
        34.7004         33.1004
   -955445.77146   -729292.78746  24250235.5954   24250237.6214   24250235.771
        38.2004         36.0004
  -9588389.14046  -7445332.88346  22857752.0424   22857751.0334   22857752.620
        39.2004         36.9004
 -15203186.71547 -11834155.28347  21685316.3834   21685318.4034   21685316.150
        45.8004         43.0004
 16 11 15  1 31 30.0000000  0 11G14G22G01G11G03G23G31G25G32G16G26
 -13928036.99647 -10574578.49046  22147171.8274   22147170.6484   22147172.356
        42.9004         40.2004
 -23715124.44148 -18034709.10147  20493623.0604   20493620.3184   20493623.947
        48.8004         45.8004
  -3391761.65146  -2621581.39946  23703779.2714   23703782.2664   23703779.025
        38.9004         36.4004
    129954.77944     74646.665 2          .000    26072029.151        -139.940
        26.4004         16.400
 -23176897.64747 -17812067.38947  20904782.7954   20904783.5854   20904782.420
        47.7004         44.7004
 -13346444.79046 -10387809.74646  23150748.1424   23150744.5314   23150748.405
        40.6004         38.1004
 -18722367.87647 -14576382.12147  21245104.9394   21245102.5274   21245104.400
        46.5004         43.5004
   3027921.18145   2369303.76845  24850769.8254   24850768.4744   24850769.512
        34.9004         33.4004
   -875596.86846   -667072.90146  24265431.1444   24265432.8314   24265430.614
        38.9004         36.7004
  -9695821.08846  -7529046.07146  22837308.7354   22837307.2544   22837308.799
        39.2004         36.7004
 -15262067.38847 -11880036.29947  21674111.3414   21674113.3604   21674111.417
        45.8004         43.0004
 16 11 15  1 32  0.0000000  0 11G14G22G01G11G03G23G31G25G32G16G26
 -13874735.50547 -10533044.85946  22157313.9134   22157313.2204   22157315.338
        43.0004         40.0004
 -23721028.31648 -18039309.53147  20492499.6764   20492496.8144   20492500.499
        48.8004         45.8004
  -3310091.85546  -2557942.62346  23719320.1204   23719322.4214   23719320.217
        38.9004         36.6004
    207524.84144    139145.732 2          .000    26087723.120        -139.940
        26.4004         13.700
 -23217483.41947 -17843692.66747  20897059.5214   20897060.4754   20897059.120
        47.7004         44.7004
 -13420995.34446 -10445901.06946  23136561.7464   23136556.9894   23136561.836
        40.6004         37.9004
 -18652773.81447 -14522152.98347  21258348.1514   21258345.9814   21258347.666
        46.5004         43.5004
   3117949.40045   2439455.65645  24867902.3024   24867901.3564   24867901.170
        35.0004         33.6004
   -795645.77746   -604773.37546  24280644.8784   24280647.8884   24280644.880
        39.2004         37.1004
  -9803043.56146  -7612596.02046  22816904.8524   22816904.7594   22816905.097
        39.0004         36.7004
 -15320461.48447 -11925538.17947  21662999.0864   21663001.7904   21662999.140
        46.0004         43.0004
 16 11 15  1 32 30.0000000  0 10G14G22G01G03G23G31G25G32G16G26
 -13821261.26447 -10491376.63146  22167491.0894   22167489.1524   22167491.437
        42.9004         40.2004
 -23726397.47348 -18043493.29547  20491477.7334   20491474.9844   20491478.642
        48.8004         45.8004
  -3228229.89846  -2494154.09446  23734898.2254   23734900.8094   23734898.471
        39.0004         36.6004
 -23257562.60347 -17874923.20447  20889432.6384   20889433.2924   20889432.266
        47.7004         44.7004
 -13495501.23546 -10503957.58946  23122384.4654   23122380.4114   23122384.034
        40.8004         38.3004
 -18582913.67747 -14467716.51347  21271641.8844   21271639.5444   21271641.586
        46.5004         43.5004
   3208318.35945   2509873.03245  24885097.4314   24885099.4534   24885097.066
        35.2004         33.8004
   -715592.67546   -542394.35746  24295879.6894   24295880.8434   24295878.648
        39.6004         37.4004
  -9910052.79246  -7695979.79846  22796541.4664   22796540.7534   22796541.773
        39.0004         36.7004
 -15378366.65547 -11970659.07347  21651980.7194   21651982.4214   21651980.235
        46.0004         43.0004
 16 11 15  1 33  0.0000000  0 10G14G22G01G03G23G31G25G32G16G26
 -13767614.21647 -10449573.73746  22177699.6164   22177698.6824   22177700.087
        42.9004         40.0004
 -23731231.28748 -18047259.90647  20490558.0144   20490555.1054   20490558.830
        48.8004         45.8004
  -3146178.86646  -2430218.24646  23750512.4044   23750514.9314   23750512.341
        38.9004         36.4004
 -23297133.38547 -17905757.57547  20881902.7384   20881903.3624   20881902.145
        47.7004         44.7004
 -13569962.26646 -10561979.16146  23108213.6404   23108209.9044   23108214.698
        40.9004         38.3004
 -18512790.06047 -14413074.73047  21284985.9974   21284983.8364   21284985.446
        46.5004         43.5004
   3299025.17345   2580553.67345  24902361.5334   24902358.8524   24902358.750
        35.2004         33.6004
   -635437.71746   -479935.98146  24311132.0164   24311134.2894   24311131.534
        39.7004         37.1004
 -10016845.87146  -7779195.16346  22776219.6514   22776217.8364   22776219.754
        39.0004         36.6004
 -15435780.63447 -12015397.21247  21641054.6944   21641057.1154   21641054.858
        46.0004         43.0004
 16 11 15  1 33 30.0000000  0 10G14G22G01G03G23G31G25G32G16G26
 -13713794.43647 -10407636.25346  22187941.4504   22187939.2334   22187941.496
        42.9004         40.0004
 -23735529.03948 -18050608.81147  20489740.3884   20489737.2794   20489741.310
        48.8004         45.8004
  -3063941.85146  -2366137.47946  23766161.0524   23766164.4494   23766161.564
        38.9004         36.6004
 -23336193.95447 -17936194.38847  20874469.6044   20874470.2564   20874469.265
        47.7004         44.7004
 -13644377.80146 -10619965.26346  23094053.3864   23094049.4054   23094053.694
        40.9004         38.5004
 -18442405.22947 -14358229.39747  21298379.1904   21298377.6234   21298378.971
        46.3004         43.3004
   3390067.17845   2651495.49245  24919684.7914   24919681.5294   24919683.593
        35.2004         33.6004
   -555181.06846   -417398.35646  24326404.1184   24326405.4894   24326403.621
        39.7004         37.3004
 -10123419.48846  -7862239.52646  22755938.9104   22755938.7664   22755939.643
        39.2004         36.9004
 -15492701.24247 -12059750.91347  21630223.0864   21630225.3644   21630223.040
        46.0004         43.0004
 16 11 15  1 34  0.0000000  0 10G14G22G01G03G23G31G25G32G16G26
 -13659801.62547 -10365563.93846  22198215.2724   22198213.8224   22198215.992
        42.7004         39.9004
 -23739289.97648 -18053539.42047  20489024.4084   20489021.6234   20489025.341
        48.8004         45.8004
  -2981522.00246  -2301914.23546  23781845.7544   23781848.6834   23781845.581
        39.0004         36.7004
 -23374742.51647 -17966232.23247  20867133.8904   20867134.7424   20867133.632
        47.7004         44.7004
 -13718747.06346 -10677915.31646  23079901.5484   23079897.2084   23079901.761
        41.1004         38.6004
 -18371761.39747 -14303182.25547  21311822.2354   21311820.4464   21311822.170
        46.3004         43.3004
   3481441.59945   2722696.35145  24937072.2624   24937072.9334   24937072.218
        35.2004         34.0004
   -474822.91146   -354781.64546  24341695.8634   24341698.6244   24341695.389
        39.7004         37.3004
 -10229770.08646  -7945110.11146  22735701.7944   22735699.2994   22735701.784
        39.2004         36.9004
 -15549125.98247 -12103718.22047  21619485.8504   21619488.0874   21619486.069
        46.0004         43.0004
 16 11 15  1 34 30.0000000  0 10G14G22G01G03G23G31G25G32G16G26
 -13605635.82147 -10323356.82446  22208522.2454   22208521.4864   22208523.368
        42.7004         39.9004
 -23742513.06748 -18056050.92347  20488411.2574   20488408.3794   20488412.024
        48.8004         45.8004
  -2898922.40746  -2237550.92746  23797564.4154   23797566.2284   23797564.198
        39.2004         36.9004
 -23412777.31047 -17995869.73547  20859896.4344   20859896.8494   20859895.803
        47.7004         44.7004
 -13793069.49046 -10735828.89046  23065757.9464   23065755.9714   23065759.068
        41.1004         38.6004
 -18300860.73847 -14247934.98847  21325314.4324   21325312.8454   21325314.209
        46.3004         43.3004
   3573145.74245   2794154.12945  24954522.3684   24954527.4114   24954521.485
        35.0004         33.3004
   -394363.35946   -292085.92146  24357006.7304   24357007.9534   24357006.163
        39.6004         37.1004
 -10335894.28146  -8027804.27546  22715506.0894   22715505.1024   22715506.931
        39.6004         37.1004
 -15605053.09547 -12147297.76847  21608843.7894   21608845.4974   21608843.577
        46.0004         43.2004
 16 11 15  1 35  0.0000000  0 10G14G22G01G03G23G31G25G32G16G26
 -13551296.90747 -10281014.81746  22218864.1004   22218861.7534   22218863.800
        42.7004         40.0004
 -23745198.42248 -18058143.41647  20487900.0934   20487897.1404   20487900.994
        48.8004         45.8004
  -2816146.14446  -2173049.96946  23813316.2214   23813318.2224   23813316.094
        39.4004         36.9004
 -23450296.54847 -18025105.50447  20852756.8244   20852757.6494   20852756.276
        47.7004         44.9004
 -13867344.33446 -10793705.37946  23051624.7354   23051620.3514   23051624.782
        41.3004         38.6004
 -18229705.39547 -14192489.26647  21338855.0724   21338852.7344   21338854.626
        46.3004         43.5004
   3665176.57645   2865866.39845  24972034.3664   24972036.7724   24972034.301
        35.2004         33.4004
   -313802.65746   -229311.38246  24372337.3894   24372339.3164   24372337.073
        39.4004         36.7004
 -10441788.29246  -8110319.05546  22695355.5964   22695355.3034   22695355.619
        39.7004         37.3004
 -15660480.12647 -12190487.63747  21598295.9784   21598297.8364   21598295.968
        46.0004         43.2004
 16 11 15  1 35 30.0000000  0 10G14G22G01G03G23G31G25G32G16G26
 -13496784.51947 -10238537.63046  22229236.3914   22229234.9994   22229237.193
        42.7004         40.0004
 -23747345.48048 -18059816.45347  20487491.6354   20487488.6304   20487492.573
        48.8004         45.8004
  -2733196.35446  -2108413.78446  23829101.8704   23829102.1984   23829100.808
        39.4004         36.9004
 -23487298.52547 -18053938.21347  20845715.3764   20845716.2134   20845715.019
        47.9004         44.9004
 -13941570.93646 -10851544.26646  23037498.7334   23037497.6194   23037499.671
        41.5004         38.8004
 -18158297.73947 -14136846.93447  21352443.0584   21352441.5994   21352443.131
        46.3004         43.3004
   3757531.54245   2937831.31645  24989610.4524   24989606.3864   24989611.675
        35.6004         34.0004
   -233140.94746   -166458.13746  24387687.2334   24387689.1194   24387686.709
        39.2004         36.6004
 -10547449.74546  -8192652.64546  22675248.3984   22675247.6444   22675249.263
        39.9004         37.4004
 -15715404.96447 -12233286.18147  21587843.8544   21587846.1294   21587843.858
        46.0004         43.0004
 16 11 15  1 36  0.0000000  0 10G14G22G01G03G23G31G25G32G16G26
 -13442098.82647 -10195925.40346  22239642.9274   22239641.9624   22239643.507
        42.7004         39.9004
 -23748953.24348 -18061069.26147  20487186.0204   20487182.6724   20487186.653
        48.8004         45.8004
  -2650076.20846  -2043644.85346  23844918.4054   23844919.8514   23844917.909
        39.0004         36.4004
 -23523781.48747 -18082366.49747  20838773.1614   20838773.8554   20838772.561
        47.9004         45.1004
 -14015748.85446 -10909345.22446  23023384.4264   23023379.5894   23023384.160
        41.6004         39.0004
 -18086639.75947 -14081009.55247  21366079.7644   21366077.5484   21366079.484
        46.3004         43.3004
   3850207.92045   3010046.62745  25007244.7914   25007249.3894   25007244.575
        35.0004         33.8004
   -152378.35646   -103526.29746  24403055.8244   24403057.9084   24403055.443
        38.7004         36.0004
 -10652874.20946  -8274801.55346  22655188.1034   22655185.9194   22655187.644
        40.1004         37.8004
 -15769825.43247 -12275691.72747  21577487.5444   21577490.1404   21577487.953
        45.8004         42.8004
 16 11 15  1 36 30.0000000  0 10G14G22G01G03G23G31G25G32G16G26
 -13387239.60347 -10153177.95946  22250081.8264   22250081.0704   22250082.929
        42.7004         39.9004
 -23750021.22948 -18061901.46447  20486982.6704   20486979.6834   20486983.486
        48.8004         45.8004
  -2566788.66346  -1978745.49646  23860767.2494   23860768.3174   23860767.026
        38.9004         36.4004
 -23559743.70447 -18110389.00347  20831929.5324   20831930.0504   20831929.181
        47.9004         44.9004
 -14089877.42746 -10967107.72746  23009277.2654   23009274.6804   23009278.499
        41.6004         39.0004
 -18014733.88847 -14024979.00547  21379762.6154   21379760.2184   21379762.612
        46.2004         43.2004
   3943202.73345   3082510.09745  25024942.3914   25024942.8784   25024942.948
        35.0004         33.3004
    -71515.14546    -40516.04145  24418443.3884   24418443.8584   24418442.941
        38.3004         35.7004
 -10758059.02346  -8356763.71446  22635171.3644   22635170.0134   22635171.837
        40.4004         37.9004
 -15823739.37547 -12317702.57747  21567228.9174   21567231.0914   21567228.626
        45.8004         43.0004
 16 11 15  1 37  0.0000000  0 10G14G22G01G03G23G31G25G32G16G26
 -13332206.73347 -10110295.21946  22260554.1764   22260554.7454   22260555.027
        42.5004         39.7004
 -23750548.87548 -18062312.62847  20486882.0394   20486878.9754   20486882.996
        48.8004         45.8004
  -2483336.94246  -1913718.18946  23876646.7564   23876649.2914   23876647.112
        38.5004         36.0004
 -23595183.48547 -18138004.42147  20825185.4104   20825186.0304   20825185.141
        47.9004         44.9004
 -14163955.95246 -11024831.24846  22995181.0784   22995177.0704   22995181.123
        41.6004         39.0004
 -17942582.36147 -13968757.04047  21393492.7344   21393490.6824   21393492.624
        46.2004         43.2004
   4036513.20745   3155219.61245  25042700.4494   25042697.5374   25042698.651
        34.7004         33.3004
      9448.59246     22572.54045  24433850.0974   24433850.5094   24433849.829
        37.6004         35.2004
 -10863000.64146  -8438536.38746  22615201.2594   22615200.0244   22615201.825
        40.6004         38.3004
 -15877144.67447 -12359317.07547  21557065.5814   21557068.1494   21557065.946
        45.8004         43.0004
 16 11 15  1 37 30.0000000  0 10G14G22G01G03G23G31G25G32G16G26
 -13277000.08247 -10067277.06446  22271060.4704   22271059.0934   22271060.514
        42.5004         39.3004
 -23750535.70648 -18062302.37347  20486884.4444   20486881.7624   20486885.387
        48.8004         45.8004
  -2399724.14946  -1848565.38345  23892558.6234   23892560.4044   23892557.745
        38.2004         35.9004
 -23630099.16947 -18165211.45147  20818541.5434   20818541.8884   20818540.975
        47.9004         44.9004
 -14237983.79046 -11082515.25846  22981095.0844   22981090.7114   22981094.051
        41.8004         38.8004
 -17870187.39447 -13912345.38247  21407269.0294   21407266.5044   21407268.861
        46.2004         43.3004
   4130136.74645   3228173.01245  25060513.2634   25060515.5554   25060514.665
        35.4004         34.0004
     90512.62246     85739.26745  24449276.7624   24449276.2504   24449275.086
        37.1004         34.6004
 -10967695.47446  -8520116.76146  22595278.7334   22595277.8684   22595279.014
        40.9004         38.3004
 -15930039.23747 -12400533.59947  21547000.2934   21547002.6744   21547000.340
        45.8004         43.0004
 16 11 15  1 38  0.0000000  0 10G14G22G01G03G23G31G25G32G16G26
 -13221619.73747 -10024123.56346  22281598.5604   22281597.3464   22281598.784
        42.3004         39.7004
 -23749981.08648 -18061870.21547  20486990.0744   20486987.2334   20486991.085
        48.8004         45.6004
  -2315953.34346  -1783289.44846  23908499.6554   23908500.5664   23908498.964
        38.2004         36.0004
 -23664489.08347 -18192008.79247  20811997.2944   20811997.6604   20811996.760
        47.9004         44.9004
 -14311960.20746 -11140159.20146  22967016.0914   22967012.8764   22967016.709
        41.8004         39.0004
 -17797551.22547 -13855745.77047  21421091.4074   21421088.8324   21421091.250
        46.2004         43.2004
   4224070.38445   3301368.01045  25078388.1054   25078389.7244   25078388.877
        35.6004         34.0004
    171676.80846    148984.07745  24464720.6764   24464722.5894   24464720.978
        36.8004         34.6004
 -11072140.09846  -8601502.18446  22575403.7984   22575401.4994   22575403.759
        40.9004         38.3004
 -15982420.99047 -12441350.52447  21537032.7094   21537034.9564   21537032.457
        45.8004         42.8004
 16 11 15  1 38 30.0000000  0 10G14G22G01G03G23G31G25G32G16G26
 -13166065.47447  -9980834.52946  22292170.9094   22292168.5204   22292170.315
        42.2004         39.5004
 -23748884.96448 -18061016.09947  20487198.6034   20487195.6884   20487199.400
        48.6004         45.6004
  -2232027.63746  -1717892.80746  23924469.8144   23924472.1444   23924469.912
        38.3004         36.2004
 -23698351.54448 -18218395.12547  20805553.5504   20805554.0384   20805553.098
        48.1004         45.1004
 -14385884.40146 -11197762.45846  22952950.1724   22952947.1944   22952949.484
        41.8004         39.2004
 -17724675.81247 -13798959.73447  21434959.1144   21434956.8184   21434958.861
        46.0004         43.2004
   4318311.32545   3374802.49545  25096323.7824   25096323.3064   25096322.919
        35.0004         33.1004
    252940.88946    212306.72145  24480184.9634   24480185.6154   24480184.804
        36.6004         34.3004
 -11176331.29846  -8682690.12146  22555575.8724   22555576.5074   22555576.509
        40.8004         38.1004
 -16034287.85047 -12481766.23047  21527163.1454   21527164.8504   21527162.703
        45.8004         42.8004
 16 11 15  1 39  0.0000000  0 10G14G22G01G03G23G31G25G32G16G26
 -13110337.25847  -9937409.96146  22302774.7144   22302773.9464   22302775.904
        42.2004         39.3004
 -23747246.37848 -18059739.28347  20487510.2814   20487507.4894   20487511.394
        48.6004         45.6004
  -2147950.13946  -1652377.90246  23940470.0084   23940472.5614   23940469.359
        38.5004         36.4004
 -23731684.95348 -18244369.21147  20799210.3804   20799210.9404   20799209.870
        48.1004         45.1004
 -14459755.80746 -11255324.57646  22938891.1244   22938888.1734   22938892.070
        41.8004         39.3004
 -17651563.33147 -13741988.96647  21448871.7234   21448869.3144   21448871.748
        46.0004         43.0004
   4412856.91145   3448474.31645  25114313.4074   25114316.4014   25114313.275
        34.9004         33.6004
    334304.76546    275707.13045  24495668.6764   24495668.8394   24495668.224
        36.4004         34.6004
 -11280265.71546  -8763677.98346  22535797.7454   22535797.3874   22535798.824
        40.6004         37.9004
 -16085637.80047 -12521779.15447  21517391.4944   21517393.1884   21517391.223
        45.8004         43.0004
 16 11 15  1 39 30.0000000  0 10G14G22G01G03G23G31G25G32G16G26
 -13054434.81147  -9893849.61046  22313413.2684   22313412.4234   22313413.664
        42.2004         39.5004
 -23745065.40148 -18058039.82747  20487925.3844   20487922.3744   20487926.405
        48.6004         45.6004
  -2063723.95746  -1586747.14446  23956497.3814   23956499.9294   23956497.262
        38.7004         36.4004
 -23764487.68648 -18269929.78347  20792968.1114   20792968.6304   20792967.521
        48.1004         45.1004
 -14533573.92947 -11312845.17446  22924844.4644   22924840.7944   22924844.909
        42.0004         39.2004
 -17578216.13047 -13684835.30047  21462829.1674   21462827.1124   21462829.168
        46.0004         43.2004
   4507704.25345   3522381.38745  25132363.8314   25132362.1664   25132363.151
        34.3004         32.7004
    415768.17546    339185.08845  24511169.3904   24511170.7004   24511170.277
        36.4004         34.8004
 -11383940.09146  -8844463.19646  22516069.9024   22516068.5434   22516069.934
        40.4004         37.8004
 -16136468.79147 -12561387.69947  21507718.0854   21507720.0444   21507718.215
        45.8004         42.8004
 16 11 15  1 40  0.0000000  0 10G14G22G01G03G23G31G25G32G16G26
 -12998358.04547  -9850153.43346  22324084.1144   22324082.6844   22324084.307
        42.2004         39.2004
 -23742341.15248 -18055917.05047  20488443.7794   20488440.9234   20488444.856
        48.6004         45.6004
  -1979352.19546  -1521002.93246  23972552.1104   23972554.9514   23972552.308
        38.5004         36.2004
 -23796758.15348 -18295075.60647  20786827.2424   20786827.8644   20786826.650
        48.1004         45.1004
 -14607337.86547 -11370323.55546  22910806.8574   22910804.1074   22910808.106
        42.0004         39.2004
 -17504636.20047 -13627500.29247  21476831.4604   21476829.0574   21476830.781
        46.0004         43.2004
   4602850.42545   3596521.32445  25150467.9374   25150471.7864   25150468.123
        34.7004         33.4004
    497330.96546    402740.49645  24526692.5444   24526692.7574   24526691.201
        36.6004         34.8004
 -11487350.72746  -8925042.89546  22496391.6424   22496390.6694   22496392.024
        40.4004         37.8004
 -16186778.85347 -12600590.33447  21498144.2034   21498146.9794   21498144.238
        45.8004         42.8004
 16 11 15  1 40 30.0000000  0 10G14G22G01G03G23G31G25G32G16G26
 -12942107.07447  -9806321.51546  22334787.5624   22334787.7344   22334788.263
        42.0004         39.2004
 -23739073.30548 -18053370.68447  20489065.6874   20489062.9634   20489066.590
        48.6004         45.6004
  -1894837.95246  -1455147.70646  23988635.0504   23988637.2724   23988634.346
        38.3004         36.0004
 -23828494.75748 -18319805.42947  20780787.7634   20780788.8074   20780787.110
        48.1004         45.1004
 -14681046.85947 -11427759.13546  22896781.8204   22896778.4344   22896782.041
        42.0004         39.3004
 -17430826.25447 -13569986.04347  21490876.5794   21490874.6154   21490876.420
        46.2004         43.3004
   4698292.87045   3670892.07645  25168629.2264   25168632.6004   25168631.491
        34.9004         33.1004
    578992.92246    466373.14145  24542230.4484   24542232.0264   24542231.077
        36.6004         34.5004
 -11590494.42946  -9005414.58846  22476763.9534   22476762.5994   22476763.992
        40.4004         37.8004
 -16236565.96547 -12639385.45947  21488670.0274   21488672.5364   21488670.021
        45.8004         42.8004
 16 11 15  1 41  0.0000000  0 10G14G22G01G03G23G31G25G32G16G26
 -12885681.51647  -9762353.54946  22345526.3874   22345525.0694   22345526.314
        42.0004         39.3004
 -23735261.98248 -18050400.82547  20489791.0594   20489788.1894   20489791.964
        48.6004         45.6004
  -1810184.33046  -1389183.85245  24004742.9004   24004746.9934   24004743.058
        38.0004         35.9004
 -23859695.94248 -18344118.04047  20774850.1984   20774851.4344   20774849.818
        48.1004         45.1004
 -14754700.30647 -11485151.41846  22882765.4844   22882762.3314   22882765.973
        42.2004         39.5004
 -17356788.06147 -13512293.94347  21504965.6484   21504963.2994   21504965.514
        46.2004         43.2004
   4794028.61245   3745491.34845  25186848.0564   25186849.7694   25186848.185
        34.9004         33.4004
    660753.85446    530082.91345  24557790.1894   24557789.5954   24557789.397
        36.8004         34.5004
 -11693367.94146  -9085575.76046  22457187.2224   22457187.1094   22457188.063
        40.4004         37.9004
 -16285828.16747 -12677771.57147  21479295.9634   21479298.0014   21479295.972
        45.8004         42.8004
 16 11 15  1 41 30.0000000  0 10G14G22G01G03G23G31G25G32G16G26
 -12829081.35747  -9718249.53646  22356296.7484   22356294.8984   22356297.326
        42.0004         39.3004
 -23730906.53348 -18047006.97747  20490619.8954   20490616.8404   20490620.613
        48.4004         45.4004
  -1725394.41946  -1323113.81345  24020878.3634   24020881.0484   24020878.450
        38.0004         35.5004
 -23890360.16548 -18368012.24247  20769015.2184   20769016.3164   20769014.738
        48.1004         45.1004
 -14828297.56647 -11542499.91246  22868760.6224   22868756.8204   22868761.333
        42.2004         39.3004
 -17282523.92147 -13454425.77947  21519097.7784   21519095.2124   21519097.622
        46.2004         43.2004
   4890054.88645   3820316.95045  25205122.8084   25205121.5054   25205122.126
        34.5004         33.3004
    742613.60746    593869.73345  24573367.3544   24573368.0024   24573366.655
        36.8004         34.8004
 -11795967.48346  -9165523.46946  22437663.4184   22437662.0924   22437664.122
        40.6004         38.1004
 -16334563.54747 -12715747.17147  21470021.7094   21470024.1814   21470021.633
        45.8004         43.0004
 16 11 15  1 42  0.0000000  0 10G14G22G01G03G23G31G25G32G16G26
 -12772306.80047  -9674009.63446  22367100.3274   22367099.6504   22367100.611
        42.0004         39.3004
 -23726006.75848 -18043188.97447  20491552.1714   20491549.3714   20491552.983
        48.4004         45.4004
  -1640471.30546  -1256939.96545  24037039.9614   24037041.3154   24037039.079
        38.0004         35.7004
 -23920485.90248 -18391486.84647  20763282.5694   20763283.3584   20763282.245
        48.1004         45.2004
 -14901837.84547 -11599804.00646  22854766.5484   22854763.0804   22854766.646
        42.2004         39.3004
 -17208036.13647 -13396383.35247  21533272.2334   21533269.9014   21533272.101
        46.2004         43.2004
   4986368.87145   3895366.86545  25223446.6854   25223450.3204   25223449.298
        34.5004         33.3004
    824571.96246    657733.35845  24588964.7474   24588964.2244   24588961.921
        36.6004         34.8004
 -11898290.27346  -9245255.49246  22418192.6644   22418191.1094   22418192.580
        40.8004         38.3004
 -16382770.14947 -12753310.74447  21460848.4944   21460851.1254   21460848.335
        45.8004         43.0004
 16 11 15  1 42 30.0000000  0 10G14G22G01G03G23G31G25G32G16G26
 -12715357.21047  -9629633.33346  22377936.8434   22377936.5364   22377937.926
        42.0004         39.0004
 -23720562.13048 -18038946.41347  20492588.2064   20492585.0774   20492589.123
        48.4004         45.4004
  -1555418.08246  -1190664.73746  24053224.5104   24053226.5084   24053224.649
        38.2004         36.0004
 -23950071.64048 -18414540.67247  20757652.4324   20757653.5244   20757652.059
        48.1004         45.1004
 -14975320.32247 -11657063.08046  22840782.9274   22840778.9504   22840783.436
        42.3004         39.7004
 -17133326.51347 -13338168.05847  21547489.2784   21547486.2314   21547488.867
        46.0004         43.2004
   5082967.75545   3970638.78145  25241830.6924   25241833.5694   25241830.534
        34.0004         32.4004
    906628.69146    721673.61845  24604577.6954   24604580.8574   24604577.298
        36.8004         34.6004
 -12000332.65346  -9324769.03046  22398773.6814   22398773.7454   22398774.086
        40.9004         38.3004
 -16430446.07147 -12790460.79147  21451775.8444   21451778.4624   21451776.035
        46.0004         43.2004
 16 11 15  1 43  0.0000000  0 10G14G22G01G03G23G31G25G32G16G26
 -12658232.69846  -9585120.73246  22388807.7254   22388806.9934   22388808.329
        41.8004         39.0004
 -23714572.15048 -18034278.90347  20493728.2044   20493725.1724   20493729.149
        48.4004         45.4004
  -1470237.81846  -1124290.53846  24069434.8274   24069436.7794   24069434.055
        38.5004         36.2004
 -23979115.87848 -18437172.54747  20752125.1824   20752126.4804   20752125.017
        48.1004         45.1004
 -15048744.25647 -11714276.51646  22826811.5914   22826806.8774   22826811.465
        42.5004         39.5004
 -17058397.18947 -13279781.57147  21561747.8364   21561745.4474   21561747.569
        46.0004         43.0004
   5179848.77245   4046130.53845  25260266.5464   25260267.8394   25260266.506
        33.3004         32.2004
    988783.65246    785690.44545  24620210.1784   24620213.0264   24620211.096
        36.8004         35.0004
 -12102091.22946  -9404061.40546  22379409.2094   22379409.0134   22379409.720
        40.9004         38.3004
 -16477589.44347 -12827195.87247  21442805.3634   21442807.2134   21442805.259
        46.2004         43.3004
 16 11 15  1 43 30.0000000  0 10G14G22G01G03G23G31G25G32G16G26
 -12600932.95346  -9540471.59646  22399710.6644   22399710.5174   22399711.679
        41.5004         38.6004
 -23708036.79548 -18029186.42747  20494971.8184   20494968.9164   20494972.729
        48.4004         45.4004
  -1384933.66046  -1057819.78446  24085666.9014   24085668.9514   24085666.683
        38.5004         36.2004
 -24007617.13248 -18459381.31947  20746702.0494   20746703.0994   20746701.391
        48.1004         45.1004
 -15122109.03147 -11771443.84946  22812850.6704   22812846.7304   22812850.781
        42.5004         39.5004
 -16983250.26947 -13221225.52347  21576047.2844   21576044.9444   21576047.373
        46.0004         43.0004
   5277009.06545   4121839.76445  25278754.9864   25278761.0824   25278755.344
        33.1004         32.2004
   1071036.61446    849783.60845  24635863.9144   24635864.5834   24635863.210
        37.0004         35.2004
 -12203562.64246  -9483130.03946  22360100.4964   22360099.9604   22360100.899
        41.1004         38.6004
 -16524198.39647 -12863514.52147  21433935.7374   21433937.3944   21433935.643
        46.2004         43.3004
 16 11 15  1 44  0.0000000  0 10G14G22G01G03G23G31G25G32G16G26
 -12543458.36546  -9495686.21346  22410648.1124   22410647.6044   22410648.683
        41.5004         38.6004
 -23700955.86848 -18023668.82947  20496319.0914   20496316.6644   20496320.037
        48.4004         45.6004
  -1299508.67546   -991254.86746  24101922.2944   24101924.7554   24101922.349
        38.7004         36.4004
 -24035573.96648 -18481165.86947  20741382.2054   20741382.7294   20741381.425
        48.2004         45.2004
 -15195413.89347 -11828564.51546  22798900.9134   22798897.9254   22798901.013
        42.5004         39.9004
 -16907888.37747 -13162501.97347  21590388.1894   21590386.0474   21590387.875
        46.0004         43.0004
   5374445.88745   4197764.57045  25297299.1684   25297297.8044   25297298.511
        33.5004         32.7004
   1153387.33546    913952.95845  24651533.3944   24651536.2644   24651534.327
        37.1004         35.2004
 -12304743.39346  -9561972.15646  22340847.2864   22340846.4924   22340847.367
        41.3004         38.6004
 -16570271.06947 -12899415.29147  21425167.9084   21425170.4154   21425168.167
        46.3004         43.3004
 16 11 15  1 44 30.0000000  0 11G14G22G01G09G03G23G31G25G32G16G26
 -12485808.55746  -9450764.28046  22421619.7144   22421618.3834   22421619.266
        41.5004         39.0004
 -23693329.23748 -18017726.00847  20497770.6394   20497767.5044   20497771.367
        48.4004         45.4004
  -1213965.93546   -924598.20146  24118200.8464   24118203.9414   24118200.225
        38.5004         36.2004
   -392405.85744    -58161.673            .000    25483501.661        -139.940
        26.4004          1.500
 -24062984.93548 -18502525.06947  20736165.9594   20736167.0064   20736165.401
        48.2004         45.2004
 -15268657.93847 -11885637.78646  22784961.8054   22784959.1194   22784962.713
        42.5004         39.9004
 -16832313.24747 -13103612.25547  21604769.5994   21604768.0254   21604769.650
        46.0004         43.0004
   5472156.41345   4273902.61245  25315892.1824   25315894.9454   25315890.609
        33.1004         32.0004
   1235835.66246    978198.39245  24667224.0344   24667226.3484   24667223.998
        37.5004         35.3004
 -12405630.17146  -9640585.22146  22321648.8964   22321648.0414   22321649.495
        41.5004         38.8004
 -16615805.67547 -12934896.78347  21416503.2754   21416505.3524   21416503.086
        46.3004         43.3004
 16 11 15  1 45  0.0000000  0 11G14G22G01G09G03G23G31G25G32G16G26
 -12427983.58546  -9405705.86846  22432623.4384   22432621.9824   22432623.259
        41.5004         39.0004
 -23685156.64348 -18011357.76147  20499325.7254   20499322.7984   20499326.677
        48.4004         45.4004
  -1128308.51746   -857852.16246  24134501.0194   24134503.4834   24134500.352
        38.7004         36.4004
   -480299.36944   -133486.212 3          .000    25465106.848        -139.940
        26.4004         22.000
 -24089848.62048 -18523457.81447  20731053.9824   20731054.6344   20731053.431
        48.2004         45.2004
 -15341840.37747 -11942663.04346  22771036.6534   22771033.0074   22771036.749
        42.5004         39.7004
 -16756527.14547 -13044558.15047  21619191.6364   21619189.3474   21619191.100
        45.8004         43.0004
   5570137.79345   4350251.81645  25334535.9504   25334540.7104   25334536.982
        33.0004         32.2004
   1318381.32446   1042519.68145  24682932.3314   24682934.2604   24682931.708
        37.6004         35.3004
 -12506219.83946  -9718966.76346  22302507.1514   22302506.3474   22302508.087
        41.6004         39.0004
 -16660800.39747 -12969957.58447  21407941.1804   21407942.9304   21407940.770
        46.3004         43.3004
 16 11 15  1 45 30.0000000  0  9G14G22G01G03G23G31G32G16G26
 -12369983.19146  -9360510.76446  22443660.4244   22443658.6694   22443660.653
        41.5004         38.6004
 -23676437.81748 -18004563.87947  20500984.9024   20500982.0524   20500985.972
        48.4004         45.4004
  -1042539.53246   -791019.19646  24150822.5634   24150825.3324   24150821.963
        38.9004         36.6004
 -24116163.62048 -18543963.01847  20726046.2934   20726046.7674   20726045.789
        48.2004         45.2004
 -15414960.53147 -11999639.78046  22757121.8784   22757118.8594   22757122.549
        42.5004         39.7004
 -16680532.30847 -12985341.39447  21633652.6794   21633650.5964   21633652.579
        46.0004         43.0004
   1401024.08346   1106916.59445  24698658.4194   24698660.4444   24698657.914
        37.6004         35.3004
 -12606509.02446  -9797114.16346  22283422.7684   22283422.6124   22283423.049
        41.6004         39.2004
 -16705253.45047 -13004596.31247  21399481.6394   21399484.0964   21399481.797
        46.3004         43.5004
 16 11 15  1 46  0.0000000  0  9G14G22G01G03G23G31G32G16G26
 -12311807.24646  -9315178.86846  22454730.1774   22454729.7864   22454730.931
        41.5004         38.8004
 -23667172.66348 -17997344.28647  20502748.2904   20502745.2494   20502748.878
        48.4004         45.4004
   -956662.01646   -724101.66646  24167165.0684   24167166.2214   24167164.270
        38.7004         36.2004
 -24141928.56448 -18564039.59747  20721143.3214   20721143.9914   20721143.118
        48.2004         45.2004
 -15488017.46447 -12056567.24146  22743220.1084   22743216.0074   22743220.502
        42.5004         39.7004
 -16604330.51147 -12925963.36847  21648153.4114   21648151.2974   21648153.320
        46.0004         43.2004
   1483763.78846   1171389.04745  24714404.3624   24714405.8714   24714402.899
        37.3004         35.2004
 -12706494.15246  -9875024.62546  22264396.0584   22264395.5294   22264396.613
        41.6004         39.0004
 -16749163.12347 -13038811.62747  21391125.9294   21391127.8834   21391126.314
        46.5004         43.5004
 16 11 15  1 46 30.0000000  0  9G14G22G01G03G23G31G32G16G26
 -12253455.81346  -9269710.23146  22465834.2704   22465833.6964   22465834.816
        41.5004         38.8004
 -23657361.12048 -17989698.93347  20504615.1504   20504612.3724   20504616.007
        48.4004         45.4004
   -870679.05946   -657101.97046  24183526.6734   24183528.2774   24183526.337
        38.9004         36.4004
 -24167142.08348 -18583686.50347  20716345.5744   20716346.4024   20716345.069
        48.2004         45.2004
 -15561010.82447 -12113445.16546  22729329.3174   22729325.9324   22729330.166
        42.5004         39.7004
 -16527924.20547 -12866425.98847  21662693.3234   21662691.2804   21662693.121
        46.2004         43.3004
   1566600.21346   1235936.86345  24730166.8004   24730168.4674   24730166.514
        37.1004         35.0004
 -12806172.61846  -9952696.13846  22245428.4794   22245427.3864   22245427.869
        41.8004         39.0004
 -16792527.62547 -13072602.13447  21382874.5484   21382876.3844   21382874.344
        46.5004         43.7004
 16 11 15  1 47  0.0000000  0  9G14G22G01G03G23G31G32G16G26
 -12194928.42646  -9224104.48046  22476971.8444   22476970.3234   22476972.232
        41.3004         38.5004
 -23647003.16648 -17981627.80947  20506586.1994   20506583.2324   20506587.147
        48.4004         45.4004
   -784593.71846   -590022.50446  24199908.5244   24199910.1604   24199907.972
        38.9004         36.4004
 -24191802.83648 -18602902.67747  20711652.7504   20711653.6444   20711652.198
        48.2004         45.2004
 -15633939.41747 -12170272.62146  22715452.5274   22715448.1264   22715452.264
        42.5004         39.9004
 -16451315.28647 -12806730.72747  21677271.1524   21677269.7074   21677271.304
        46.2004         43.2004
   1649533.10146   1300559.83345  24745950.7094   24745948.8354   24745948.420
        36.4004         34.5004
 -12905540.31546 -10030125.49746  22226518.0714   22226518.5454   22226519.010
        41.8004         39.2004
 -16835345.26747 -13105966.51547  21374726.2194   21374727.9914   21374726.240
        46.5004         43.5004
 16 11 15  1 47 30.0000000  0  9G14G22G01G03G23G31G32G16G26
 -12136225.16446  -9178361.67946  22488143.0004   22488141.9334   22488143.715
        41.3004         38.6004
 -23636098.45848 -17973130.64247  20508661.0964   20508658.3224   20508662.074
        48.4004         45.4004
   -698409.12646   -522865.70546  24216307.8484   24216310.5264   24216308.182
        38.7004         36.2004
 -24215909.50948 -18621687.10447  20707065.3644   20707065.9334   20707065.069
        48.2004         45.2004
 -15706802.53147 -12227049.06646  22701585.9804   22701582.3314   22701586.571
        42.5004         39.7004
 -16374505.83347 -12746879.20447  21691888.0424   21691885.5914   21691887.839
        46.2004         43.3004
   1732562.26246   1365257.83245  24761751.6074   24761750.0504   24761748.246
        36.3004         34.3004
 -13004594.02746 -10107310.19946  22207669.4834   22207668.1484   22207669.776
        41.8004         39.0004
 -16877614.36347 -13138903.45247  21366682.4634   21366684.1524   21366682.483
        46.5004         43.5004
 16 11 15  1 48  0.0000000  0  9G14G22G01G03G23G31G32G16G26
 -12077346.23146  -9132481.99546  22499346.0534   22499346.3344   22499347.685
        41.3004         38.6004
 -23624647.09748 -17964207.51147  20510840.4234   20510837.6184   20510841.173
        48.4004         45.4004
   -612128.31446   -455633.90745  24232726.7454   24232729.8794   24232725.883
        38.2004         35.9004
 -24239460.79248 -18640038.75647  20702583.8924   20702584.4864   20702583.183
        48.2004         45.2004
 -15779599.16547 -12283773.69946  22687733.6644   22687730.4084   22687733.871
        42.5004         39.7004
 -16297498.23147 -12686873.27947  21706541.9604   21706539.8624   21706542.030
        46.2004         43.3004
   1815687.47346   1430030.69445  24777565.4044   24777567.3224   24777566.732
        36.1004         34.3004
 -13103330.67646 -10184247.83146  22188879.8214   22188878.7834   22188880.739
        41.6004         39.0004
 -16919333.23747 -13171411.64847  21358744.2424   21358745.9634   21358743.642
        46.5004         43.5004
 16 11 15  1 48 30.0000000  0  9G14G22G01G03G23G31G32G16G26
 -12018291.19946  -9086465.09346  22510584.5614   22510583.6494   22510584.928
        41.1004         38.3004
 -23612648.97448 -17954858.33647  20513123.4064   20513120.6514   20513124.392
        48.4004         45.2004
   -525754.31446   -388329.51145  24249162.2834   24249165.9154   24249161.863
        37.8004         35.3004
 -24262455.38848 -18657956.62447  20698208.1214   20698208.7224   20698207.615
        48.2004         45.2004
 -15852328.59047 -12340445.97546  22673893.5244   22673890.0684   22673893.788
        42.5004         39.7004
 -16220294.34547 -12626714.40047  21721233.4264   21721230.9154   21721233.247
        46.2004         43.0004
   1898908.47445   1494878.19745  24793404.9144   24793404.6744   24793403.050
        35.9004         34.1004
 -13201746.79246 -10260935.69246  22170153.4634   22170151.5094   22170152.588
        41.6004         39.0004
 -16960500.23947 -13203489.82147  21350910.0344   21350912.1494   21350909.991
        46.5004         43.5004
 16 11 15  1 49  0.0000000  0  9G14G22G01G03G23G31G32G16G26
 -11959060.10346  -9040310.98846  22521855.1864   22521854.8694   22521855.988
        40.9004         38.3004
 -23600103.89548 -17945082.95747  20515510.6934   20515508.0544   20515511.621
        48.2004         45.2004
   -439290.33646   -320954.98445  24265616.2404   24265620.2634   24265615.664
        37.6004         35.3004
 -24284892.03548 -18675439.72847  20693938.4814   20693939.1164   20693938.085
        48.2004         45.2004
 -15924990.01747 -12397065.25846  22660066.6664   22660063.1354   22660066.963
        42.5004         39.5004
 -16142896.05347 -12566404.03947  21735962.1374   21735959.0874   21735961.381
        46.0004         42.8004
   1982225.03345   1559800.16745  24809258.7154   24809259.4834   24809256.981
        35.9004         34.0004
 -13299838.77946 -10337370.99046  22151486.4574   22151485.4834   22151486.563
        41.8004         39.0004
 -17001113.74947 -13235136.68947  21343181.6084   21343183.4614   21343181.484
        46.5004         43.5004
 16 11 15  1 49 30.0000000  0  9G14G22G01G03G23G31G32G16G26
 -11899652.73646  -8994019.55146  22533161.7154   22533158.9624   22533161.448
        40.9004         38.3004
 -23587012.03848 -17934881.52047  20518002.1704   20517999.0104   20518002.904
        48.2004         45.2004
   -352739.19646   -253512.54845  24282086.6204   24282089.0324   24282086.193
        37.3004         35.2004
 -24306769.52648 -18692487.12947  20689775.2774   20689775.7534   20689774.858
        48.2004         45.2004
 -15997582.77147 -12453631.01846  22646252.7304   22646249.5774   22646252.700
        42.5004         39.5004
 -16065305.79747 -12505944.09447  21750726.5434   21750724.0584   21750726.215
        45.8004         42.8004
   2065636.92646   1624796.42745  24825130.4954   24825131.8494   24825129.799
        36.1004         34.1004
 -13397603.53147 -10413551.29046  22132882.4284   22132881.2124   22132882.648
        42.0004         39.2004
 -17041172.15447 -13266351.00747  21335558.7204   21335560.8194   21335558.531
        46.5004         43.5004
 16 11 15  1 50  0.0000000  0  9G14G22G01G03G23G31G32G16G26
 -11840069.14146  -8947590.76846  22544498.6104   22544497.2964   22544500.022
        40.9004         38.1004
 -23573373.49048 -17924254.08447  20520597.6414   20520594.3314   20520598.283
        48.2004         45.2004
   -266104.04046   -186004.64945  24298572.1594   24298575.3524   24298573.459
        37.3004         35.2004
 -24328086.61648 -18709097.84847  20685718.7094   20685719.3804   20685718.395
        48.2004         45.2004
 -16070105.79647 -12510142.45846  22632451.3254   22632449.0654   22632451.997
        42.3004         39.5004
 -15987525.45447 -12445336.03447  21765527.7224   21765525.0554   21765527.375
        45.6004         42.6004
   2149143.85345   1689866.72945  24841020.8064   24841023.4014   24841020.447
        35.9004         34.1004
 -13495037.92547 -10489474.18546  22114340.3344   22114339.0154   22114341.234
        42.2004         39.5004
 -17080673.90547 -13297131.57247  21328041.6204   21328043.9444   21328041.570
        46.5004         43.3004
 16 11 15  1 50 30.0000000  0  9G14G22G01G03G23G31G32G16G26
 -11780309.29946  -8901024.66346  22555869.8564   22555870.9824   22555871.738
        40.8004         38.1004
 -23559188.08048 -17913200.52547  20523296.8604   20523294.1124   20523297.696
        48.2004         45.2004
   -179387.95046   -118433.70045  24315075.8734   24315076.6114   24315074.872
        37.3004         35.2004
 -24348842.10348 -18725270.96247  20681768.8884   20681769.5524   20681768.671
        48.2004         45.2004
 -16142558.36847 -12566599.00646  22618664.6874   22618660.7574   22618664.600
        42.5004         39.7004
 -15909556.97547 -12384581.36647  21780364.9244   21780361.8324   21780364.334
        45.5004         42.6004
   2232745.65845   1755010.95145  24856931.3934   24856932.5664   24856929.164
        35.9004         34.1004
 -13592138.41547 -10565136.88446  22095862.9044   22095861.8824   22095863.468
        42.2004         39.5004
 -17119617.41247 -13327477.14547  21320631.2644   21320632.9054   21320630.803
        46.5004         43.7004
 16 11 15  1 51  0.0000000  0 10G14G22G01G09G03G23G31G32G16G26
 -11720372.97646  -8854321.03946  22567276.5214   22567274.8084   22567277.036
        40.8004         38.1004
 -23544456.01748 -17901721.00347  20526100.1724   20526097.2944   20526101.214
        48.2004         45.2004
    -92593.94646    -50802.03045  24331592.1524   24331592.9684   24331591.165
        37.3004         35.0004
  -1538440.96745   -976278.46245          .000            .000    25259285.049
        31.0004         31.2004
 -24369034.79448 -18741005.52747  20677926.9184   20677927.4694   20677926.225
        48.2004         45.4004
 -16214939.52647 -12622999.90846  22604891.1924   22604886.8434   22604890.979
        42.5004         39.5004
 -15831402.57947 -12323681.83847  21795236.5804   21795234.5074   21795236.717
        45.5004         42.6004
   2316442.05746   1820228.86545  24872856.3394   24872858.5414   24872856.800
        36.1004         34.1004
 -13688901.89047 -10640536.97146  22077450.4394   22077448.8834   22077450.408
        42.5004         39.9004
 -17158001.16047 -13357386.54047  21313326.7974   21313328.7404   21313326.389
        46.5004         43.5004
 16 11 15  1 51 30.0000000  0 10G14G22G01G09G03G23G31G32G16G26
 -11660259.99046  -8807479.75946  22578714.5324   22578714.6044   22578716.143
        40.8004         38.3004
 -23529177.25348 -17889815.47847  20529007.8084   20529004.4344   20529008.764
        48.2004         45.2004
     -5725.10946     16887.97245  24348121.9064   24348124.6954   24348121.226
        37.1004         34.8004
  -1626893.77845  -1045202.69645          .000            .000    25242451.605
        31.7004         31.3004
 -24388663.52348 -18756300.64047  20674191.3614   20674192.2864   20674191.017
        48.4004         45.4004
 -16287248.54047 -12679344.58846  22591129.6894   22591127.0294   22591130.880
        42.3004         39.7004
 -15753064.41647 -12262639.11047  21810144.5284   21810142.0334   21810144.122
        45.5004         42.6004
   2400232.82345   1885520.34845  24888803.3304   24888804.8234   24888801.626
        35.7004         33.8004
 -13785325.17047 -10715671.96246  22059101.6914   22059100.4174   22059101.828
        42.5004         39.7004
 -17195823.62047 -13386858.57347  21306128.9114   21306131.1334   21306128.950
        46.3004         43.5004
 16 11 15  1 52  0.0000000  0 10G14G22G01G09G03G23G31G32G16G26
 -11599970.40146  -8760500.86546  22590188.8784   22590186.4974   22590189.224
        40.6004         38.1004
 -23513352.28548 -17877484.34647  20532019.0924   20532016.3844   20532020.173
        48.2004         45.2004
     81215.56346     84633.93545  24364665.7574   24364667.5214   24364665.258
        36.6004         34.6004
  -1715386.81645  -1114158.32645  25225614.6994   25225618.6634   25225613.657
        33.5004         32.7004
 -24407727.18648 -18771155.44847  20670563.7734   20670564.2244   20670563.301
        48.4004         45.4004
 -16359484.07747 -12735631.99746  22577384.2064   22577382.5034   22577385.226
        42.5004         39.9004
 -15674544.24647 -12201454.55247  21825086.0364   21825083.6684   21825086.142
        45.6004         42.6004
   2484117.66145   1950885.08945  24904765.3254   24904766.7924   24904763.922
        35.6004         33.8004
 -13881404.69847 -10790539.10446  22040818.0334   22040816.9714   22040818.777
        42.7004         39.9004
 -17233083.32447 -13415892.09347  21299038.7074   21299040.9934   21299038.901
        46.3004         43.3004
 16 11 15  1 52 30.0000000  0 10G14G22G01G09G03G23G31G32G16G26
 -11539503.91546  -8713384.11346  22601694.4374   22601693.1964   22601695.568
        40.4004         37.9004
 -23496980.95748 -17864727.47647  20535134.3854   20535131.7294   20535135.403
        48.2004         45.2004
    168225.02546    152433.50345  24381220.2164   24381225.9344   24381222.159
        36.3004         34.1004
  -1803919.89045  -1183145.13045  25208762.8704   25208768.0714   25208766.701
        33.5004         32.2004
 -24426224.63348 -18785569.04547  20667043.8244   20667044.4584   20667043.310
        48.4004         45.4004
 -16431645.87147 -12791861.96246  22563652.3594   22563649.9384   22563653.210
        42.5004         40.0004
 -15595844.42947 -12140130.01647  21840062.4954   21840059.6334   21840062.401
        45.6004         42.6004
   2568096.37845   2016323.00045  24920745.6984   24920744.2784   24920745.318
        35.0004         33.1004
 -13977137.19147 -10865135.83146  22022600.9144   22022599.9664   22022601.034
        42.7004         40.0004
 -17269778.79447 -13444485.94647  21292056.2624   21292058.1684   21292056.047
        46.5004         43.5004
 16 11 15  1 53  0.0000000  0 10G14G22G01G09G03G23G31G32G16G26
 -11478860.62546  -8666129.61146  22613235.2514   22613233.1764   22613235.174
        40.3004         37.6004
 -23480063.13448 -17851544.76247  20538353.5564   20538351.0614   20538354.664
        48.2004         45.1004
    255300.26246    220284.33345  24397792.0434   24397796.5854   24397792.300
        36.3004         34.5004
  -1892492.51945  -1252162.73945  25191911.0384   25191912.3054   25191911.338
        34.2004         33.4004
 -24444154.76848 -18799540.58247  20663631.7234   20663632.1544   20663631.047
        48.2004         45.2004
 -16503732.68347 -12848033.51246  22549935.6384   22549931.9374   22549935.517
        42.7004         39.9004
 -15516966.79147 -12078666.91447  21855072.2304   21855070.0664   21855072.188
        45.6004         42.8004
   2652168.71745   2081833.85845  24936742.4244   24936745.1464   24936743.230
        35.0004         33.3004
 -14072519.49747 -10939459.67346  22004450.2334   22004448.5694   22004450.212
        42.9004         39.9004
 -17305908.58947 -13472639.01747  21285181.0254   21285182.5864   21285180.723
        46.5004         43.5004
 16 11 15  1 53 30.0000000  0 10G14G22G01G09G03G23G31G32G16G26
 -11418040.62146  -8618737.40846  22624806.8974   22624807.6064   22624807.696
        40.1004         37.6004
 -23462599.49248 -17837936.74147  20541676.8804   20541674.0934   20541677.995
        48.1004         45.1004
    342438.20246    288184.01745  24414372.8314   24414378.2304   24414374.846
        36.3004         34.5004
  -1981104.22145  -1321210.80645  25175050.0724   25175050.3594   25175049.208
        35.7004         34.6004
 -24461516.52748 -18813069.23147  20660327.9194   20660328.6264   20660327.354
        48.2004         45.2004
 -16575743.68847 -12904145.97646  22536232.4494   22536229.4684   22536232.579
        42.9004         40.0004
 -15437913.18447 -12017066.70247  21870115.4834   21870113.3774   21870115.384
        45.6004         42.8004
   2736334.38245   2147417.49345  24952759.1724   24952761.6624   24952759.581
        34.7004         33.3004
 -14167548.29447 -11013508.06746  21986366.3774   21986364.9124   21986366.779
        42.9004         40.4004
 -17341471.28947 -13500350.20447  21278413.2974   21278415.3624   21278413.457
        46.5004         43.7004
 16 11 15  1 54  0.0000000  0 10G14G22G01G09G03G23G31G32G16G26
 -11357043.39646  -8571207.11946  22636415.4784   22636413.8134   22636416.002
        40.1004         37.6004
 -23444589.86248 -17823903.27447  20545104.2194   20545101.4314   20545105.143
        48.2004         45.1004
    429635.87746    356130.23445  24430967.4854   24430968.5594   24430968.266
        36.4004         34.5004
  -2069754.68846  -1390289.07245  25158179.9374   25158183.4154   25158179.208
        36.1004         34.5004
 -24478308.84748 -18826154.16147  20657132.4764   20657133.0674   20657131.933
        48.2004         45.2004
 -16647678.03347 -12960198.70046  22522544.0874   22522539.9694   22522544.146
        42.9004         40.4004
 -15358685.69947 -11955330.99047  21885192.6824   21885189.6024   21885192.068
        45.6004         42.8004
   2820593.12945   2213073.58345  24968795.3964   24968796.1324   24968793.430
        34.7004         33.6004
 -14262220.41447 -11087278.52946  21968350.9694   21968349.8094   21968351.255
        43.0004         40.0004
 -17376465.51847 -13527618.42647  21271754.1134   21271756.2764   21271754.195
        46.5004         43.7004
 16 11 15  1 54 30.0000000  0 10G14G22G01G09G03G23G31G32G16G26
 -11295869.20546  -8523538.92746  22648057.2174   22648054.8804   22648057.141
        40.3004         37.8004
 -23426034.53048 -17809444.58347  20548635.2564   20548632.2274   20548636.085
        48.1004         45.1004
    516890.20646    424120.61245  24447573.3354   24447575.7504   24447572.445
        36.6004         34.6004
  -2158443.41146  -1459397.14345  25141301.5854   25141301.5494   25141302.390
        36.4004         35.0004
 -24494530.67048 -18838794.54547  20654045.5594   20654046.2654   20654045.055
        48.2004         45.2004
 -16719534.60047 -13016190.82846  22508869.3704   22508867.5444   22508870.236
        43.2004         40.6004
 -15279286.58747 -11893461.54747  21900301.5134   21900299.1354   21900301.071
        45.6004         42.8004
   2904944.67845   2278802.01945  24984841.3124   24984844.6774   24984844.807
        34.7004         33.3004
 -14356532.50947 -11160768.44046  21950403.8354   21950402.5274   21950404.504
        43.0004         40.4004
 -17410889.87347 -13554442.58347  21265203.6594   21265205.8004   21265203.548
        46.7004         43.7004
 16 11 15  1 55  0.0000000  0 10G14G22G01G09G03G23G31G32G16G26
 -11234517.70846  -8475732.58646  22659731.6144   22659731.3464   22659732.315
        40.1004         37.6004
 -23406933.85248 -17794560.95247  20552269.9904   20552267.2174   20552270.810
        48.1004         45.2004
    604198.25746    492152.85845  24464188.1584   24464188.5024   24464187.021
        37.1004         35.3004
  -2247169.95146  -1528534.68345  25124418.4044   25124418.8614   25124418.744
        36.8004         35.0004
 -24510181.03048 -18850989.63747  20651067.2914   20651068.1344   20651066.840
        48.4004         45.4004
 -16791312.58647 -13072121.72846  22495210.1344   22495207.1144   22495211.231
        43.2004         40.6004
 -15199717.53047 -11831459.67647  21915443.2804   21915440.6614   21915442.545
        45.6004         42.5004
   2989388.81645   2344602.62545  25000912.6234   25000916.5084   25000913.993
        35.0004         33.6004
 -14450481.05347 -11233975.07146  21932526.3524   21932524.4744   21932526.614
        43.2004         40.2004
 -17444743.04247 -13580821.66847  21258761.6584   21258763.4454   21258761.586
        46.7004         43.9004
 16 11 15  1 55 30.0000000  0 10G14G22G01G09G03G23G31G32G16G26
 -11172988.93146  -8427788.08946  22671440.1524   22671439.6064   22671440.207
        39.9004         37.3004
 -23387288.26448 -17779252.71447  20556008.2144   20556005.3244   20556009.234
        48.1004         45.1004
    691556.95446    560224.55445  24480810.3624   24480811.8144   24480810.498
        37.3004         35.2004
  -2335933.83246  -1597701.31145  25107526.2384   25107527.7504   25107527.591
        37.1004         35.0004
 -24525258.88748 -18862738.62347  20648198.1684   20648198.9364   20648197.937
        48.4004         45.4004
 -16863010.99247 -13127990.61546  22481566.8684   22481565.0934   22481567.470
        43.4004         40.7004
 -15119980.74047 -11769327.11647  21930616.0004   21930614.1634   21930615.825
        45.5004         42.3004
   3073925.23345   2410475.14545  25017001.1664   25017002.6424   25017000.970
        35.2004         33.8004
 -14544063.38747 -11306896.34346  21914718.0114   21914716.9164   21914718.356
        43.2004         40.6004
 -17478023.66147 -13606754.60747  21252428.4524   21252430.4554   21252428.374
        46.7004         43.7004
 16 11 15  1 56  0.0000000  0 10G14G22G01G09G03G23G31G32G16G26
 -11111282.92346  -8379705.49746  22683182.7294   22683181.0404   22683182.584
        40.1004         37.8004
 -23367097.83348 -17763519.92347  20559850.4444   20559847.8034   20559851.353
        48.1004         45.2004
    778963.33046    628333.40945  24497443.3774   24497444.7084   24497443.158
        37.5004         35.3004
  -2424734.62946  -1666896.70745  25090628.5794   25090630.2604   25090629.681
        37.3004         35.3004
 -24539763.31548 -18874040.77947  20645438.2174   20645438.8674   20645437.553
        48.4004         45.4004
 -16934629.05847 -13183796.90146  22467938.9344   22467936.0654   22467938.972
        43.6004         40.9004
 -15040078.01747 -11707065.24747  21945820.8324   21945818.9504   21945820.747
        45.3004         42.3004
   3158553.65545   2476419.36245  25033105.9644   25033109.3114   25033105.692
        35.4004         33.8004
 -14637275.83547 -11379529.39346  21896980.4194   21896979.3164   21896980.796
        43.6004         40.6004
 -17510730.46347 -13632240.41747  21246204.3214   21246206.6414   21246204.485
        46.7004         43.9004
 16 11 15  1 56 30.0000000  0 10G14G22G01G09G03G23G31G32G16G26
 -11049399.68446  -8331484.79746  22694959.3264   22694957.2874   22694958.900
        40.3004         37.8004
 -23346362.86248 -17747362.81347  20563796.0674   20563793.5334   20563797.109
        48.1004         45.1004
    866414.30646    696477.02145  24514084.6614   24514086.4354   24514083.627
        37.3004         35.2004
  -2513571.87046  -1736120.47945  25073723.9274   25073725.6104   25073724.063
        37.5004         35.3004
 -24553693.33048 -18884895.34047  20642787.2094   20642788.0834   20642786.773
        48.4004         45.4004
 -17006165.66147 -13239539.70446  22454326.3984   22454322.8114   22454325.995
        43.6004         40.9004
 -14960011.45647 -11644675.71847  21961056.9064   21961055.0444   21961057.123
        45.3004         42.3004
   3243273.74345   2542434.98645  25049228.6834   25049228.4484   25049226.794
        35.4004         33.8004
 -14730115.31947 -11451871.81546  21879313.3114   21879312.6354   21879314.113
        43.6004         40.9004
 -17542862.16947 -13657278.09647  21240090.0904   21240091.9844   21240089.788
        46.7004         43.7004
